[
  {
    "department": "Iowa Department of Natural Resources",
    "state": "Iowa",
    "county": "Clay County",
    "latitude": 43.184409511,
    "longitude": -94.9408295784,
    "accessName": "Dewey's Pasture Complex",
    "riverName": "Pickeral Run",
    "type": "Public",
    "otherName": "Pickerel Run"
  },
  {
    "department": "Iowa Department of Natural Resources",
    "state": "Iowa",
    "county": "Clay County",
    "latitude": 43.1841243395,
    "longitude": -94.943483441,
    "accessName": "Dewey's Pasture Complex",
    "riverName": "Trumbull Lake",
    "type": "Public",
    "otherName": "Pickerel Run"
  },
  {
    "department": "Iowa Department of Natural Resources",
    "state": "Iowa",
    "county": "Clay County",
    "latitude": 43.1758760714,
    "longitude": -94.9508431761,
    "accessName": "Dewey's Pasture Complex",
    "riverName": "Dewey's Pasture Complex",
    "type": "Public",
    "otherName": "Pickerel Run"
  },
  {
    "department": "Iowa Department of Natural Resources",
    "state": "Iowa",
    "county": "Sioux County",
    "latitude": 43.0618799557,
    "longitude": -96.4709239463,
    "accessName": "Oak Grove State Park",
    "riverName": "Big Sioux River",
    "type": "Public",
    "otherName": "Green Creek-Big Sioux River"
  },
  {
    "department": "Iowa Department of Natural Resources",
    "state": "Iowa",
    "county": "Palo Alto County",
    "latitude": 43.2412696068,
    "longitude": -94.7393176518,
    "accessName": "Graettinger Access",
    "riverName": "Des Moines River",
    "type": "Public",
    "otherName": "Drainage Ditch 49-Des Moines River"
  },
  {
    "department": "Iowa Department of Natural Resources",
    "state": "Iowa",
    "county": "Buena Vista County",
    "latitude": 42.6393618006,
    "longitude": -95.2366540766,
    "accessName": "Little Storm Lake",
    "riverName": "Little Storm Lake",
    "type": "Public",
    "otherName": "Outlet Creek"
  },
  {
    "department": "Iowa Department of Natural Resources",
    "state": "Iowa",
    "county": "Butler County",
    "latitude": 42.6587149325,
    "longitude": -92.8198932329,
    "accessName": "Big Marsh Wildlife Area",
    "riverName": "Big Marsh Wildlife Area water",
    "type": "Public",
    "otherName": "Big Marsh State Wildlife Area-West Fork Cedar River"
  },
  {
    "department": "Iowa Department of Natural Resources",
    "state": "Iowa",
    "county": "Butler County",
    "latitude": 42.6587800927,
    "longitude": -92.8196063998,
    "accessName": "Big Marsh Wildlife Area",
    "riverName": "Big Marsh Wildlife Area water",
    "type": "Public",
    "otherName": "Big Marsh State Wildlife Area-West Fork Cedar River"
  },
  {
    "department": "Iowa Department of Natural Resources",
    "state": "Iowa",
    "county": "Butler County",
    "latitude": 42.6607298501,
    "longitude": -92.7914104282,
    "accessName": "Big Marsh Wildlife Area",
    "riverName": "Big Marsh Wildlife Area water",
    "type": "Public",
    "otherName": "Big Marsh State Wildlife Area-West Fork Cedar River"
  },
  {
    "department": "Iowa Department of Natural Resources",
    "state": "Iowa",
    "county": "Butler County",
    "latitude": 42.6937923895,
    "longitude": -92.8375787785,
    "accessName": "Big Marsh Wildlife Area",
    "riverName": "West Fork Cedar River",
    "type": "Public",
    "otherName": "Big Marsh State Wildlife Area-West Fork Cedar River"
  },
  {
    "department": "Iowa Department of Natural Resources",
    "state": "Iowa",
    "county": "Cerro Gordo County",
    "latitude": 43.1255214258,
    "longitude": -93.4735804975,
    "accessName": "Ventura Marsh Wildlife Area",
    "riverName": "Clear Lake",
    "type": "Public",
    "otherName": "Clear Creek"
  },
  {
    "department": "Iowa Department of Natural Resources",
    "state": "Iowa",
    "county": "Palo Alto County",
    "latitude": 43.1268919919,
    "longitude": -94.7060448733,
    "accessName": "Basswood Recreation Area",
    "riverName": "Des Moines River",
    "type": "Public",
    "otherName": "City of Emmetsburg-Des Moines River"
  },
  {
    "department": "Iowa Department of Natural Resources",
    "state": "Iowa",
    "county": "Palo Alto County",
    "latitude": 43.0174156695,
    "longitude": -94.5753086042,
    "accessName": "Mulroney Recreation Area",
    "riverName": "Des Moines River",
    "type": "Public",
    "otherName": "Drainage Ditch 41-Des Moines River"
  },
  {
    "department": "Iowa Department of Natural Resources",
    "state": "Iowa",
    "county": "Dickinson County",
    "latitude": 43.4090226967,
    "longitude": -95.3087830243,
    "accessName": "Dugout Creek WPA",
    "riverName": "Dugout Creek",
    "type": "Public",
    "otherName": "Dugout Creek-West Fork Little Sioux River"
  },
  {
    "department": "Iowa Department of Natural Resources",
    "state": "Iowa",
    "county": "Emmet County",
    "latitude": 43.3025852436,
    "longitude": -94.7005547239,
    "accessName": "Ingham-High Wetland Complex",
    "riverName": "High Lake",
    "type": "Public",
    "otherName": "Headwaters Jack Creek"
  },
  {
    "department": "Iowa Department of Natural Resources",
    "state": "Iowa",
    "county": "Worth County",
    "latitude": 43.4770227334,
    "longitude": -93.4217088585,
    "accessName": "Silver Lake - Worth",
    "riverName": "Silver Lake",
    "type": "Public",
    "otherName": "County Ditch No 55"
  },
  {
    "department": "Iowa Department of Natural Resources",
    "state": "Iowa",
    "county": "Howard County",
    "latitude": 43.4651266474,
    "longitude": -92.2790418107,
    "accessName": "Lidtke Park",
    "riverName": "Upper Iowa River",
    "type": "Public",
    "otherName": "Town of Granger-Upper Iowa River"
  },
  {
    "department": "Iowa Department of Natural Resources",
    "state": "Iowa",
    "county": "Palo Alto County",
    "latitude": 42.9503094808,
    "longitude": -94.8608574845,
    "accessName": "Rush Lake - Palo Alto",
    "riverName": "North Branch Lizard Creek - Rush Lake",
    "type": "Public",
    "otherName": "Headwaters North Branch Lizard Creek"
  },
  {
    "department": "Iowa Department of Natural Resources",
    "state": "Iowa",
    "county": "Palo Alto County",
    "latitude": 42.9499442751,
    "longitude": -94.8615698391,
    "accessName": "Rush Lake - Palo Alto",
    "riverName": "North Branch Lizard Creek - Rush Lake",
    "type": "Public",
    "otherName": "Headwaters North Branch Lizard Creek"
  },
  {
    "department": "Iowa Department of Natural Resources",
    "state": "Iowa",
    "county": "Pocahontas County",
    "latitude": 42.7336503067,
    "longitude": -94.8946687377,
    "accessName": "Little Clear Lake",
    "riverName": "Little Clear Lake",
    "type": "Public",
    "otherName": "Headwaters Little Cedar Creek"
  },
  {
    "department": "Iowa Department of Natural Resources",
    "state": "Iowa",
    "county": "Palo Alto County",
    "latitude": 43.1347551005,
    "longitude": -94.6627919856,
    "accessName": "Five Island Lake",
    "riverName": "Five Island Lake",
    "type": "Public",
    "otherName": "Drainage Ditch 80"
  },
  {
    "department": "Iowa Department of Natural Resources",
    "state": "Iowa",
    "county": "Mitchell County",
    "latitude": 43.3194133434,
    "longitude": -92.8820201602,
    "accessName": "Interstate Park",
    "riverName": "Cedar River",
    "type": "Public",
    "otherName": "Sugar Creek-Cedar River"
  },
  {
    "department": "Iowa Department of Natural Resources",
    "state": "Iowa",
    "county": "Kossuth County",
    "latitude": 43.1959489232,
    "longitude": -94.1814847293,
    "accessName": "Patterson Recreation And Wildlife Area",
    "riverName": "East Fork Des Moines River",
    "type": "Public",
    "otherName": "Oak Lake-East Fork Des Moines River"
  },
  {
    "department": "Iowa Department of Natural Resources",
    "state": "Iowa",
    "county": "Floyd County",
    "latitude": 42.983672893,
    "longitude": -92.5620843065,
    "accessName": "Howard Woods",
    "riverName": "Cedar Creek",
    "type": "Public",
    "otherName": "Bloody Run-Cedar River"
  },
  {
    "department": "Iowa Department of Natural Resources",
    "state": "Iowa",
    "county": "Clay County",
    "latitude": 42.9490956038,
    "longitude": -95.1223055594,
    "accessName": "Kindlespire Park",
    "riverName": "Little Sioux River",
    "type": "Public",
    "otherName": "City of Sioux Rapids-Little Sioux River"
  },
  {
    "department": "Iowa Department of Natural Resources",
    "state": "Iowa",
    "county": "Kossuth County",
    "latitude": 42.9478694273,
    "longitude": -94.2329280728,
    "accessName": "Devine Wildlife Area",
    "riverName": "East Fork Des Moines River",
    "type": "Public",
    "otherName": "Drainage Ditch 94-East Fork Des Moines River"
  },
  {
    "department": "Iowa Department of Natural Resources",
    "state": "Iowa",
    "county": "Chickasaw County",
    "latitude": 42.953963138,
    "longitude": -92.5327129513,
    "accessName": "Nashua Access",
    "riverName": "Cedar River",
    "type": "Public",
    "otherName": "Bloody Run-Cedar River"
  },
  {
    "department": "Iowa Department of Natural Resources",
    "state": "Iowa",
    "county": "Palo Alto County",
    "latitude": 42.9358911661,
    "longitude": -94.5209759507,
    "accessName": "River Runner Access",
    "riverName": "Des Moines River",
    "type": "Public",
    "otherName": "Drainage Ditch 41-Des Moines River"
  },
  {
    "department": "Iowa Department of Natural Resources",
    "state": "Iowa",
    "county": "Clay County",
    "latitude": 42.9212522616,
    "longitude": -95.356582891,
    "accessName": "Riverside Access",
    "riverName": "Little Sioux River",
    "type": "Public",
    "otherName": "Henry Creek-Little Sioux River"
  },
  {
    "department": "Iowa Department of Natural Resources",
    "state": "Iowa",
    "county": "Floyd County",
    "latitude": 42.9349929356,
    "longitude": -92.8508400747,
    "accessName": "Gates Bridge",
    "riverName": "Shell Rock River",
    "type": "Public",
    "otherName": "Village of Greene-Shell Rock River"
  },
  {
    "department": "Iowa Department of Natural Resources",
    "state": "Iowa",
    "county": "Buena Vista County",
    "latitude": 42.8956398039,
    "longitude": -95.2465020868,
    "accessName": "Linn Grove Dam Park",
    "riverName": "Little Sioux River",
    "type": "Public",
    "otherName": "Soldier Creek-Little Sioux River"
  },
  {
    "department": "Iowa Department of Natural Resources",
    "state": "Iowa",
    "county": "Bremer County",
    "latitude": 42.8812877401,
    "longitude": -92.3103836684,
    "accessName": "Alcock Park",
    "riverName": "Wapsipinicon River",
    "type": "Public",
    "otherName": "Etter Creek-Wapsipinicon River"
  },
  {
    "department": "Iowa Department of Natural Resources",
    "state": "Iowa",
    "county": "Emmet County",
    "latitude": 43.3115714638,
    "longitude": -94.6923799987,
    "accessName": "Ingham-High Wetland Complex",
    "riverName": "Ingham Lake",
    "type": "Public",
    "otherName": "Headwaters Jack Creek"
  },
  {
    "department": "Iowa Department of Natural Resources",
    "state": "Iowa",
    "county": "Kossuth County",
    "latitude": 43.4858125936,
    "longitude": -94.4058170127,
    "accessName": "Goose Lake - Kossuth",
    "riverName": "Goose Lake",
    "type": "Public",
    "otherName": "Upper South Creek"
  },
  {
    "department": "Iowa Department of Natural Resources",
    "state": "Iowa",
    "county": "Clayton County",
    "latitude": 42.9379487155,
    "longitude": -91.166218386,
    "accessName": "Sny Magill Access",
    "riverName": "Mississippi River",
    "type": "Public",
    "otherName": "Lock and Dam No 10-Mississippi River"
  },
  {
    "department": "Iowa Department of Natural Resources",
    "state": "Iowa",
    "county": "Lyon County",
    "latitude": 43.3070475077,
    "longitude": -96.5277585058,
    "accessName": "Big Sioux Wildlife Area - Highway 18",
    "riverName": "Big Sioux River",
    "type": "Public",
    "otherName": "Peterson Creek-Big Sioux River"
  },
  {
    "department": "Iowa Department of Natural Resources",
    "state": "Iowa",
    "county": "Emmet County",
    "latitude": 43.2873973381,
    "longitude": -94.7529390371,
    "accessName": "Burr Oak Lake",
    "riverName": "Burr Oak Lake",
    "type": "Public",
    "otherName": "Drainage Ditch 49-Des Moines River"
  },
  {
    "department": "Iowa Department of Natural Resources",
    "state": "Iowa",
    "county": "Humboldt County",
    "latitude": 42.7170318408,
    "longitude": -94.1897922997,
    "accessName": "Dakota City Access",
    "riverName": "East Fork Des Moines River",
    "type": "Public",
    "otherName": "East Fork Des Moines River"
  },
  {
    "department": "Iowa Department of Natural Resources",
    "state": "Iowa",
    "county": "Allamakee County",
    "latitude": 43.2004312051,
    "longitude": -91.1463111131,
    "accessName": "Harpers Ferry Landing",
    "riverName": "MIssissippi River",
    "type": "Public",
    "otherName": "Picatee Creek-Mississippi River"
  },
  {
    "department": "Iowa Department of Natural Resources",
    "state": "Iowa",
    "county": "Dickinson County",
    "latitude": 43.3737897978,
    "longitude": -95.0525971372,
    "accessName": "Spring Run Complex",
    "riverName": "Unnamed Lake",
    "type": "Public",
    "otherName": "Milford Creek"
  },
  {
    "department": "Iowa Department of Natural Resources",
    "state": "Iowa",
    "county": "Allamakee County",
    "latitude": 43.3480404346,
    "longitude": -91.2083268895,
    "accessName": "Village Creek Access",
    "riverName": "Mississippi River",
    "type": "Public",
    "otherName": "Village Creek"
  },
  {
    "department": "Iowa Department of Natural Resources",
    "state": "Iowa",
    "county": "Buena Vista County",
    "latitude": 42.612045262,
    "longitude": -95.190758275,
    "accessName": "Bel Aire Access",
    "riverName": "Storm Lake",
    "type": "Public",
    "otherName": "Outlet Creek"
  },
  {
    "department": "Iowa Department of Natural Resources",
    "state": "Iowa",
    "county": "Cerro Gordo County",
    "latitude": 43.1225489094,
    "longitude": -93.4785089131,
    "accessName": "Ventura Marsh Wildlife Area",
    "riverName": "Clear Lake",
    "type": "Public",
    "otherName": "Clear Creek"
  },
  {
    "department": "Iowa Department of Natural Resources",
    "state": "Iowa",
    "county": "Emmet County",
    "latitude": 43.4123411951,
    "longitude": -94.8399682619,
    "accessName": "4th Street Bridge",
    "riverName": "Des Moines River",
    "type": "Public",
    "otherName": "School Creek-Des Moines River"
  },
  {
    "department": "Iowa Department of Natural Resources",
    "state": "Iowa",
    "county": "Allamakee County",
    "latitude": 43.4288616539,
    "longitude": -91.3973377881,
    "accessName": "Wild Landing",
    "riverName": "Upper Iowa River",
    "type": "Public",
    "otherName": "Clear Creek-Upper Iowa River"
  },
  {
    "department": "Iowa Department of Natural Resources",
    "state": "Iowa",
    "county": "Mitchell County",
    "latitude": 43.3732605625,
    "longitude": -92.9360499824,
    "accessName": "Klienwort Access",
    "riverName": "Cedar River",
    "type": "Public",
    "otherName": "Sugar Creek-Cedar River"
  },
  {
    "department": "Iowa Department of Natural Resources",
    "state": "Iowa",
    "county": "Mitchell County",
    "latitude": 43.4584801846,
    "longitude": -92.9811614807,
    "accessName": "Otranto Impoundment",
    "riverName": "Cedar River",
    "type": "Public",
    "otherName": "Town of Otranto-Cedar River"
  },
  {
    "department": "Iowa Department of Natural Resources",
    "state": "Iowa",
    "county": "Mitchell County",
    "latitude": 43.4381441144,
    "longitude": -92.7774058445,
    "accessName": "Riverside Park",
    "riverName": "Little Cedar River",
    "type": "Public",
    "otherName": "City of Stacyville-Little Cedar River"
  },
  {
    "department": "Iowa Department of Natural Resources",
    "state": "Iowa",
    "county": "Sioux County",
    "latitude": 43.0106978688,
    "longitude": -96.4919106866,
    "accessName": "Carr's Landing",
    "riverName": "Big Sioux River",
    "type": "Public",
    "otherName": "Green Creek-Big Sioux River"
  },
  {
    "department": "Iowa Department of Natural Resources",
    "state": "Iowa",
    "county": "Clay County",
    "latitude": 43.1362243752,
    "longitude": -95.1465851429,
    "accessName": "West Leach Park",
    "riverName": "Little Sioux River",
    "type": "Public",
    "otherName": "City of Spencer-Little Sioux River"
  },
  {
    "department": "Iowa Department of Natural Resources",
    "state": "Iowa",
    "county": "Palo Alto County",
    "latitude": 43.1223178405,
    "longitude": -94.6746786921,
    "accessName": "Five Island Lake",
    "riverName": "Five Island Lake",
    "type": "Public",
    "otherName": "Drainage Ditch 80"
  },
  {
    "department": "Iowa Department of Natural Resources",
    "state": "Iowa",
    "county": "Hancock County",
    "latitude": 43.227733907,
    "longitude": -93.785988373,
    "accessName": "Crystal Lake",
    "riverName": "Crystal Lake",
    "type": "Public",
    "otherName": "Headwaters West Branch Iowa River"
  },
  {
    "department": "Iowa Department of Natural Resources",
    "state": "Iowa",
    "county": "Floyd County",
    "latitude": 43.0640751288,
    "longitude": -92.675127011,
    "accessName": "Brantingham Park",
    "riverName": "Cedar River",
    "type": "Public",
    "otherName": "Bloody Run-Cedar River"
  },
  {
    "department": "Iowa Department of Natural Resources",
    "state": "Iowa",
    "county": "Clayton County",
    "latitude": 42.8040690067,
    "longitude": -91.1055862622,
    "accessName": "Bussey Lake Boat Ramp",
    "riverName": "Mississippi River",
    "type": "Public",
    "otherName": "Lock and Dam No 10-Mississippi River"
  },
  {
    "department": "Iowa Department of Natural Resources",
    "state": "Iowa",
    "county": "Clayton County",
    "latitude": 42.9042045835,
    "longitude": -91.1464705078,
    "accessName": "Clayton Municipal Ramp",
    "riverName": "Mississippi River",
    "type": "Public",
    "otherName": "Lock and Dam No 10-Mississippi River"
  },
  {
    "department": "Iowa Department of Natural Resources",
    "state": "Iowa",
    "county": "Clayton County",
    "latitude": 43.0438285657,
    "longitude": -91.1771039059,
    "accessName": "Marquette Boat Ramp",
    "riverName": "Mississippi River",
    "type": "Public",
    "otherName": "City of Prairie du Chien-Mississippi River"
  },
  {
    "department": "Iowa Department of Natural Resources",
    "state": "Iowa",
    "county": "Clayton County",
    "latitude": 43.0261940109,
    "longitude": -91.173220402,
    "accessName": "McGregor Boat Ramp",
    "riverName": "Mississippi River",
    "type": "Public",
    "otherName": "City of Prairie du Chien-Mississippi River"
  },
  {
    "department": "Iowa Department of Natural Resources",
    "state": "Iowa",
    "county": "Plymouth County",
    "latitude": 42.7613970731,
    "longitude": -96.6316838826,
    "accessName": "Millsite Access",
    "riverName": "Big Sioux River",
    "type": "Public",
    "otherName": "Richland Creek-Big Sioux River"
  },
  {
    "department": "Iowa Department of Natural Resources",
    "state": "Iowa",
    "county": "Cherokee County",
    "latitude": 42.7444599446,
    "longitude": -95.5489585341,
    "accessName": "Westcott Park",
    "riverName": "Little Sioux River",
    "type": "Public",
    "otherName": "Railroad Creek-Little Sioux River"
  },
  {
    "department": "Iowa Department of Natural Resources",
    "state": "Iowa",
    "county": "Buena Vista County",
    "latitude": 42.896210674,
    "longitude": -95.1529206642,
    "accessName": "Sioux Rapids City Park",
    "riverName": "Little Sioux River",
    "type": "Public",
    "otherName": "City of Sioux Rapids-Little Sioux River"
  },
  {
    "department": "Iowa Department of Natural Resources",
    "state": "Iowa",
    "county": "Buena Vista County",
    "latitude": 42.9044592435,
    "longitude": -94.916149689,
    "accessName": "Pickerel Lake",
    "riverName": "Pickerel Lake",
    "type": "Public",
    "otherName": "Headwaters Cedar Creek"
  },
  {
    "department": "Iowa Department of Natural Resources",
    "state": "Iowa",
    "county": "Humboldt County",
    "latitude": 42.7286028178,
    "longitude": -94.2501755066,
    "accessName": "Joe Sheldon Park",
    "riverName": "Des Moines River",
    "type": "Public",
    "otherName": "Drainage Ditch 35-Des Moines River"
  },
  {
    "department": "Iowa Department of Natural Resources",
    "state": "Iowa",
    "county": "Humboldt County",
    "latitude": 42.7276177302,
    "longitude": -94.2290526574,
    "accessName": "Lake Nokomis Boat Ramp",
    "riverName": "Des Moines River",
    "type": "Public",
    "otherName": "Drainage Ditch 35-Des Moines River"
  },
  {
    "department": "Iowa Department of Natural Resources",
    "state": "Iowa",
    "county": "Humboldt County",
    "latitude": 42.732212411,
    "longitude": -94.2570304796,
    "accessName": "Oxbow Access",
    "riverName": "Des Moines River",
    "type": "Public",
    "otherName": "Drainage Ditch 35-Des Moines River"
  },
  {
    "department": "Iowa Department of Natural Resources",
    "state": "Iowa",
    "county": "Humboldt County",
    "latitude": 42.7554598339,
    "longitude": -94.2953066966,
    "accessName": "Rutland Utility Dam",
    "riverName": "Des Moines River",
    "type": "Public",
    "otherName": "Drainage Ditch 35-Des Moines River"
  },
  {
    "department": "Iowa Department of Natural Resources",
    "state": "Iowa",
    "county": "Bremer County",
    "latitude": 42.6492375558,
    "longitude": -92.4659740474,
    "accessName": "Janesville City Park",
    "riverName": "Cedar River",
    "type": "Public",
    "otherName": "Village of Janesville-Cedar River"
  },
  {
    "department": "Iowa Department of Natural Resources",
    "state": "Iowa",
    "county": "Bremer County",
    "latitude": 42.7370455872,
    "longitude": -92.4700308044,
    "accessName": "Three Rivers Park",
    "riverName": "Cedar River",
    "type": "Public",
    "otherName": "Cedar Bend County Park-Cedar River"
  },
  {
    "department": "Iowa Department of Natural Resources",
    "state": "Iowa",
    "county": "Dubuque County",
    "latitude": 42.5117788389,
    "longitude": -90.6451228149,
    "accessName": "Chaplin Schmitt Boat Ramp",
    "riverName": "Mississippi River",
    "type": "Public",
    "otherName": "Frentress Lake-Mississippi River"
  },
  {
    "department": "Iowa Department of Natural Resources",
    "state": "Iowa",
    "county": "Dubuque County",
    "latitude": 42.5246967426,
    "longitude": -90.645196535,
    "accessName": "Hawthorne Street Boat Ramp",
    "riverName": "Mississippi River",
    "type": "Public",
    "otherName": "Frentress Lake-Mississippi River"
  },
  {
    "department": "Iowa Department of Natural Resources",
    "state": "Iowa",
    "county": "Delaware County",
    "latitude": 42.4093009457,
    "longitude": -91.3648996708,
    "accessName": "Hartwick Access",
    "riverName": "Maquoketa River",
    "type": "Public",
    "otherName": "Allison Creek-Maquoketa River"
  },
  {
    "department": "Iowa Department of Natural Resources",
    "state": "Iowa",
    "county": "Webster County",
    "latitude": 42.4908139133,
    "longitude": -94.1839671643,
    "accessName": "Lower Dam",
    "riverName": "Des Moines River",
    "type": "Public",
    "otherName": "Gypsum Creek-Des Moines River"
  },
  {
    "department": "Iowa Department of Natural Resources",
    "state": "Iowa",
    "county": "Buchanan County",
    "latitude": 42.4737710006,
    "longitude": -91.8979448591,
    "accessName": "Bathing Beach Park",
    "riverName": "Wapsipinicon River",
    "type": "Public",
    "otherName": "Malone Creek-Wapsipinicon River"
  },
  {
    "department": "Iowa Department of Natural Resources",
    "state": "Iowa",
    "county": "Black Hawk County",
    "latitude": 42.5187048126,
    "longitude": -92.3659878139,
    "accessName": "Cedar Bend Park",
    "riverName": "West Fork Cedar River",
    "type": "Public",
    "otherName": "Black Hawk Park-Cedar River"
  },
  {
    "department": "Iowa Department of Natural Resources",
    "state": "Iowa",
    "county": "Mills County",
    "latitude": 41.0983442545,
    "longitude": -95.4640526767,
    "accessName": "Willow Slough",
    "riverName": "Willow Slough",
    "type": "Public",
    "otherName": "Willow Slough-West Nishnabotna River"
  },
  {
    "department": "Iowa Department of Natural Resources",
    "state": "Iowa",
    "county": "Monona County",
    "latitude": 42.2103559705,
    "longitude": -96.3580228856,
    "accessName": "Winnebago Bend Access",
    "riverName": "Missouri River",
    "type": "Public",
    "otherName": "Bacon Creek-Missouri River"
  },
  {
    "department": "Iowa Department of Natural Resources",
    "state": "Iowa",
    "county": "Allamakee County",
    "latitude": 43.1560630345,
    "longitude": -91.1782275711,
    "accessName": "Nobels Island",
    "riverName": "Mississippi River",
    "type": "Public",
    "otherName": "Picatee Creek-Mississippi River"
  },
  {
    "department": "Iowa Department of Natural Resources",
    "state": "Iowa",
    "county": "Warren County",
    "latitude": 41.2771263364,
    "longitude": -93.5890220537,
    "accessName": "Hooper Wildlife Area",
    "riverName": "Lake Ahquabi",
    "type": "Public",
    "otherName": "Lower Squaw Creek"
  },
  {
    "department": "Iowa Department of Natural Resources",
    "state": "Iowa",
    "county": "Jones County",
    "latitude": 42.0036472552,
    "longitude": -91.1327759875,
    "accessName": "Olin Access",
    "riverName": "Wapsipinicon River",
    "type": "Public",
    "otherName": "Dutch Creek-Wapsipinicon River"
  },
  {
    "department": "Iowa Department of Natural Resources",
    "state": "Iowa",
    "county": "Boone County",
    "latitude": 42.1288429767,
    "longitude": -93.9818005167,
    "accessName": "North Fraser Ramp",
    "riverName": "Des Moines River",
    "type": "Public",
    "otherName": "Elkhorn Creek-Des Moines River"
  },
  {
    "department": "Iowa Department of Natural Resources",
    "state": "Iowa",
    "county": "Pocahontas County",
    "latitude": 42.6707519132,
    "longitude": -94.488723023,
    "accessName": "Lizard Lake",
    "riverName": "Lizard Lake",
    "type": "Public",
    "otherName": "Lower North Branch Lizard Creek"
  },
  {
    "department": "Iowa Department of Natural Resources",
    "state": "Iowa",
    "county": "Boone County",
    "latitude": 42.1218272666,
    "longitude": -93.9702443053,
    "accessName": "South Fraser Ramp",
    "riverName": "Des Moines River",
    "type": "Public",
    "otherName": "Elkhorn Creek-Des Moines River"
  },
  {
    "department": "Iowa Department of Natural Resources",
    "state": "Iowa",
    "county": "Pocahontas County",
    "latitude": 42.6774604868,
    "longitude": -94.4968727467,
    "accessName": "Lizard Lake",
    "riverName": "Lizard Lake",
    "type": "Public",
    "otherName": "Lower North Branch Lizard Creek"
  },
  {
    "department": "Iowa Department of Natural Resources",
    "state": "Iowa",
    "county": "Union County",
    "latitude": 41.0709349468,
    "longitude": -94.3917285694,
    "accessName": "Summit Lake",
    "riverName": "Platte River",
    "type": "Public",
    "otherName": "West Platte River-Platte River"
  },
  {
    "department": "Iowa Department of Natural Resources",
    "state": "Iowa",
    "county": "Monona County",
    "latitude": 42.213482308,
    "longitude": -96.3548840609,
    "accessName": "Winnebago Bend Wildlife Area",
    "riverName": "Winnebago Bend Wildlife Area lake",
    "type": "Public",
    "otherName": "Bacon Creek-Missouri River"
  },
  {
    "department": "Iowa Department of Natural Resources",
    "state": "Iowa",
    "county": "Winneshiek County",
    "latitude": 43.4345825852,
    "longitude": -91.9968831039,
    "accessName": "Upper Iowa River - Plymouth Rock",
    "riverName": "Upper Iowa River",
    "type": "Public",
    "otherName": "Daisy Valley-Upper Iowa River"
  },
  {
    "department": "Iowa Department of Natural Resources",
    "state": "Iowa",
    "county": "Palo Alto County",
    "latitude": 43.1904833388,
    "longitude": -94.8957968553,
    "accessName": "Dewey's Pasture Complex",
    "riverName": "Mud Lake",
    "type": "Public",
    "otherName": "Pickerel Run"
  },
  {
    "department": "Iowa Department of Natural Resources",
    "state": "Iowa",
    "county": "Guthrie County",
    "latitude": 41.7685501671,
    "longitude": -94.4673532684,
    "accessName": "Springbrook State Park",
    "riverName": "Middle Raccoon River",
    "type": "Public",
    "otherName": "Lake Panorama-Middle Raccoon River"
  },
  {
    "department": "Iowa Department of Natural Resources",
    "state": "Iowa",
    "county": "Greene County",
    "latitude": 41.9741364469,
    "longitude": -94.6107594219,
    "accessName": "Dunbar Slough",
    "riverName": "Dunbar Slough",
    "type": "Public",
    "otherName": "Upper Willow Creek"
  },
  {
    "department": "Iowa Department of Natural Resources",
    "state": "Iowa",
    "county": "Clay County",
    "latitude": 43.1634122439,
    "longitude": -94.9245176792,
    "accessName": "Barringer Slough Wildlife Area",
    "riverName": "Barringer Slough",
    "type": "Public",
    "otherName": "Lost Island Outlet"
  },
  {
    "department": "Iowa Department of Natural Resources",
    "state": "Iowa",
    "county": "Clinton County",
    "latitude": 41.9678633258,
    "longitude": -90.4067888581,
    "accessName": "Goose Lake Wildlife Area",
    "riverName": "Goose Lake",
    "type": "Public",
    "otherName": "Deep Creek"
  },
  {
    "department": "Iowa Department of Natural Resources",
    "state": "Iowa",
    "county": "Clinton County",
    "latitude": 41.9656113566,
    "longitude": -90.3966720608,
    "accessName": "Goose Lake Wildlife Area",
    "riverName": "Goose Lake",
    "type": "Public",
    "otherName": "Deep Creek"
  },
  {
    "department": "Iowa Department of Natural Resources",
    "state": "Iowa",
    "county": "Dickinson County",
    "latitude": 43.4545307453,
    "longitude": -95.1169921424,
    "accessName": "Spirit Lake Access",
    "riverName": "Spirit Lake",
    "type": "Public",
    "otherName": "East Okoboji Lake"
  },
  {
    "department": "Iowa Department of Natural Resources",
    "state": "Iowa",
    "county": "Linn County",
    "latitude": 41.9012644556,
    "longitude": -91.4993061585,
    "accessName": "Palisades-Kepler St. Park",
    "riverName": "Cedar River",
    "type": "Public",
    "otherName": "Pleasant Run-Cedar River"
  },
  {
    "department": "Iowa Department of Natural Resources",
    "state": "Iowa",
    "county": "Humboldt County",
    "latitude": 42.8015895526,
    "longitude": -94.4278083573,
    "accessName": "Willows Access",
    "riverName": "Des Moines River",
    "type": "Public",
    "otherName": "Drainage Ditch 7-Des Moines River"
  },
  {
    "department": "Iowa Department of Natural Resources",
    "state": "Iowa",
    "county": "Mahaska County",
    "latitude": 41.4785391055,
    "longitude": -92.4511586226,
    "accessName": "Hawthorn Widlife Area",
    "riverName": "Pleasant Creek",
    "type": "Public",
    "otherName": "Pleasant Creek-North Skunk River"
  },
  {
    "department": "Iowa Department of Natural Resources",
    "state": "Iowa",
    "county": "Clay County",
    "latitude": 43.041648471,
    "longitude": -95.0548433644,
    "accessName": "Little Sioux Wildlife Area",
    "riverName": "Little Sioux River",
    "type": "Public",
    "otherName": "Lexington Creek-Little Sioux River"
  },
  {
    "department": "Iowa Department of Natural Resources",
    "state": "Iowa",
    "county": "Mahaska County",
    "latitude": 41.4811279378,
    "longitude": -92.4684278384,
    "accessName": "Hawthorn Widlife Area",
    "riverName": "Pleasant Creek",
    "type": "Public",
    "otherName": "Pleasant Creek-North Skunk River"
  },
  {
    "department": "Iowa Department of Natural Resources",
    "state": "Iowa",
    "county": "Buchanan County",
    "latitude": 42.5121419924,
    "longitude": -91.974776493,
    "accessName": "Otterville Bridge",
    "riverName": "Wapsipinicon River",
    "type": "Public",
    "otherName": "Otterville Bridge State Access-Wapsipinicon River"
  },
  {
    "department": "Iowa Department of Natural Resources",
    "state": "Iowa",
    "county": "Worth County",
    "latitude": 43.3958652462,
    "longitude": -93.3796497364,
    "accessName": "Elk Creek Marsh",
    "riverName": "Elk Creek",
    "type": "Public",
    "otherName": "Elk Creek"
  },
  {
    "department": "Iowa Department of Natural Resources",
    "state": "Iowa",
    "county": "Worth County",
    "latitude": 43.4066782586,
    "longitude": -93.4018483745,
    "accessName": "Elk Creek Marsh",
    "riverName": "Elk Creek",
    "type": "Public",
    "otherName": "Elk Creek"
  },
  {
    "department": "Iowa Department of Natural Resources",
    "state": "Iowa",
    "county": "Monona County",
    "latitude": 42.1305221054,
    "longitude": -96.2230270292,
    "accessName": "Badger Lake Wildlife Area",
    "riverName": "Badger Lake",
    "type": "Public",
    "otherName": "Horsehead Creek-Missouri River"
  },
  {
    "department": "Iowa Department of Natural Resources",
    "state": "Iowa",
    "county": "Pottawattamie County",
    "latitude": 41.4792907706,
    "longitude": -96.0126626842,
    "accessName": "Wilson Island Access",
    "riverName": "Missouri River",
    "type": "Public",
    "otherName": "Moores Creek-Missouri River"
  },
  {
    "department": "Iowa Department of Natural Resources",
    "state": "Iowa",
    "county": "Worth County",
    "latitude": 43.4131473383,
    "longitude": -93.4400278949,
    "accessName": "Elk Creek Marsh",
    "riverName": "Elk Creek",
    "type": "Public",
    "otherName": "Elk Creek"
  },
  {
    "department": "Iowa Department of Natural Resources",
    "state": "Iowa",
    "county": "Monona County",
    "latitude": 42.1570795306,
    "longitude": -96.220357013,
    "accessName": "Badger Lake Wildlife Area",
    "riverName": "Badger Lake",
    "type": "Public",
    "otherName": "Horsehead Creek-Missouri River"
  },
  {
    "department": "Iowa Department of Natural Resources",
    "state": "Iowa",
    "county": "Polk County",
    "latitude": 41.545308866,
    "longitude": -93.475267667,
    "accessName": "Yellow Banks Access",
    "riverName": "Des Moines River",
    "type": "Public",
    "otherName": "Yeader Creek-Des Moines River"
  },
  {
    "department": "Iowa Department of Natural Resources",
    "state": "Iowa",
    "county": "Webster County",
    "latitude": 42.3272793297,
    "longitude": -94.0205754208,
    "accessName": "Deception Hollow",
    "riverName": "Des Moines River",
    "type": "Public",
    "otherName": "Deception Hollow Public Fishing Site-Des Moines River"
  },
  {
    "department": "Iowa Department of Natural Resources",
    "state": "Iowa",
    "county": "Winnebago County",
    "latitude": 43.2980364633,
    "longitude": -93.7777501496,
    "accessName": "Myre Slough",
    "riverName": "Myre Slough",
    "type": "Public",
    "otherName": "Headwaters Buffalo Creek"
  },
  {
    "department": "Iowa Department of Natural Resources",
    "state": "Iowa",
    "county": "Polk County",
    "latitude": 41.6809484537,
    "longitude": -93.6683866504,
    "accessName": "Sycamore Access",
    "riverName": "Des Moines River",
    "type": "Public",
    "otherName": "Rock Creek-Des Moines River"
  },
  {
    "department": "Iowa Department of Natural Resources",
    "state": "Iowa",
    "county": "Pocahontas County",
    "latitude": 42.6306233343,
    "longitude": -94.9004987799,
    "accessName": "Leo Shimon Marsh",
    "riverName": "Sunken Island Lake",
    "type": "Public",
    "otherName": "Little Cedar Creek"
  },
  {
    "department": "Iowa Department of Natural Resources",
    "state": "Iowa",
    "county": "Polk County",
    "latitude": 41.819557008,
    "longitude": -93.7563891205,
    "accessName": "Big Creek Wildlife Area",
    "riverName": "Little Creek",
    "type": "Public",
    "otherName": "Little Creek"
  },
  {
    "department": "Iowa Department of Natural Resources",
    "state": "Iowa",
    "county": "Louisa County",
    "latitude": 41.199780501,
    "longitude": -91.113994273,
    "accessName": "Odessa Wildlife Area - USACOE",
    "riverName": "Mississippi River",
    "type": "Public",
    "otherName": "Boston Bay-Mississippi River"
  },
  {
    "department": "Iowa Department of Natural Resources",
    "state": "Iowa",
    "county": "Louisa County",
    "latitude": 41.1687239533,
    "longitude": -91.0855896382,
    "accessName": "Odessa Wildlife Area - Usacoe",
    "riverName": "Lake Odessa",
    "type": "Public",
    "otherName": "Boston Bay-Mississippi River"
  },
  {
    "department": "Iowa Department of Natural Resources",
    "state": "Iowa",
    "county": "Allamakee County",
    "latitude": 43.474073113,
    "longitude": -91.2949578184,
    "accessName": "Black Hawk Point",
    "riverName": "Upper Iowa River",
    "type": "Public",
    "otherName": "Upper Iowa River"
  },
  {
    "department": "Iowa Department of Natural Resources",
    "state": "Iowa",
    "county": "Louisa County",
    "latitude": 41.1590782758,
    "longitude": -91.0431035008,
    "accessName": "Odessa Wildlife Area - Usacoe",
    "riverName": "Lake Odessa",
    "type": "Public",
    "otherName": "Boston Bay-Mississippi River"
  },
  {
    "department": "Iowa Department of Natural Resources",
    "state": "Iowa",
    "county": "Floyd County",
    "latitude": 43.1646805989,
    "longitude": -92.7553751388,
    "accessName": "Idlewild Access",
    "riverName": "Cedar River",
    "type": "Public",
    "otherName": "Skunk Creek-Cedar River"
  },
  {
    "department": "Iowa Department of Natural Resources",
    "state": "Iowa",
    "county": "Louisa County",
    "latitude": 41.163510914,
    "longitude": -91.039417004,
    "accessName": "Toolesboro",
    "riverName": "Mississippi River",
    "type": "Public",
    "otherName": "Boston Bay-Mississippi River"
  },
  {
    "department": "Iowa Department of Natural Resources",
    "state": "Iowa",
    "county": "Hancock County",
    "latitude": 43.2491400492,
    "longitude": -93.7004393655,
    "accessName": "Meredith Marsh",
    "riverName": "Meredith Marsh",
    "type": "Public",
    "otherName": "Headwaters West Branch Iowa River"
  },
  {
    "department": "Iowa Department of Natural Resources",
    "state": "Iowa",
    "county": "Jackson County",
    "latitude": 42.0561378439,
    "longitude": -90.1746356695,
    "accessName": "South Sabula Access",
    "riverName": "Mississippi River",
    "type": "Public",
    "otherName": "Spring Lake-Mississippi River"
  },
  {
    "department": "Iowa Department of Natural Resources",
    "state": "Iowa",
    "county": "Johnson County",
    "latitude": 41.4901438109,
    "longitude": -91.5019915869,
    "accessName": "River Junction Boat Ramp",
    "riverName": "Iowa River",
    "type": "Public",
    "otherName": "Crooked Creek-Iowa River"
  },
  {
    "department": "Iowa Department of Natural Resources",
    "state": "Iowa",
    "county": "Jackson County",
    "latitude": 42.1736320474,
    "longitude": -90.304874448,
    "accessName": "Green Island Wildlife Area",
    "riverName": "Mississippi River",
    "type": "Public",
    "otherName": "Beaver Creek-Mississippi River"
  },
  {
    "department": "Iowa Department of Natural Resources",
    "state": "Iowa",
    "county": "Jackson County",
    "latitude": 42.1510013584,
    "longitude": -90.2761708327,
    "accessName": "Green Island Wildlife Area",
    "riverName": "Green Island Wildlife Area waters",
    "type": "Public",
    "otherName": "Beaver Creek-Mississippi River"
  },
  {
    "department": "Iowa Department of Natural Resources",
    "state": "Iowa",
    "county": "Buena Vista County",
    "latitude": 42.8958555518,
    "longitude": -95.2436097051,
    "accessName": "Bluebird Access",
    "riverName": "Little Sioux River",
    "type": "Public",
    "otherName": "Soldier Creek-Little Sioux River"
  },
  {
    "department": "Iowa Department of Natural Resources",
    "state": "Iowa",
    "county": "Dickinson County",
    "latitude": 43.4757256854,
    "longitude": -95.0680917984,
    "accessName": "Hales Slough",
    "riverName": "Hales Slough",
    "type": "Public",
    "otherName": "East Okoboji Lake"
  },
  {
    "department": "Iowa Department of Natural Resources",
    "state": "Iowa",
    "county": "Jackson County",
    "latitude": 42.1501589036,
    "longitude": -90.2856446056,
    "accessName": "Green Island Wildlife Area",
    "riverName": "Green Island Wildlife Area waters",
    "type": "Public",
    "otherName": "Beaver Creek-Mississippi River"
  },
  {
    "department": "Iowa Department of Natural Resources",
    "state": "Iowa",
    "county": "Jackson County",
    "latitude": 42.1504205433,
    "longitude": -90.286821584,
    "accessName": "Green Island Wildlife Area",
    "riverName": "Green Island Wildlife Area waters",
    "type": "Public",
    "otherName": "Beaver Creek-Mississippi River"
  },
  {
    "department": "Iowa Department of Natural Resources",
    "state": "Iowa",
    "county": "Plymouth County",
    "latitude": 42.793353898,
    "longitude": -96.5941855356,
    "accessName": "Silver Mapple Access",
    "riverName": "Big Sioux River",
    "type": "Public",
    "otherName": "Richland Creek-Big Sioux River"
  },
  {
    "department": "Iowa Department of Natural Resources",
    "state": "Iowa",
    "county": "Benton County",
    "latitude": 42.1732993582,
    "longitude": -92.0247095739,
    "accessName": "Dudgeon",
    "riverName": "West Fork Cedar River",
    "type": "Public",
    "otherName": "Dudgeon Lake State Wildlife Management Area-Cedar River"
  },
  {
    "department": "Iowa Department of Natural Resources",
    "state": "Iowa",
    "county": "Dubuque County",
    "latitude": 42.6187870029,
    "longitude": -90.7028512556,
    "accessName": "Mud Lake Park",
    "riverName": "Mississippi River",
    "type": "Public",
    "otherName": "Sinnipee Creek-Mississippi River"
  },
  {
    "department": "Iowa Department of Natural Resources",
    "state": "Iowa",
    "county": "Benton County",
    "latitude": 42.1946039759,
    "longitude": -92.0219652986,
    "accessName": "Dudgeon Lake Wildlife Area",
    "riverName": "Dudgeon Lake",
    "type": "Public",
    "otherName": "Dudgeon Lake State Wildlife Management Area-Cedar River"
  },
  {
    "department": "Iowa Department of Natural Resources",
    "state": "Iowa",
    "county": "Dubuque County",
    "latitude": 42.6543409438,
    "longitude": -90.8080116122,
    "accessName": "Findley'S Landing",
    "riverName": "Mississippi River",
    "type": "Public",
    "otherName": "McCartney Branch-Mississippi River"
  },
  {
    "department": "Iowa Department of Natural Resources",
    "state": "Iowa",
    "county": "Benton County",
    "latitude": 42.1926875315,
    "longitude": -92.0243227337,
    "accessName": "Dudgeon Lake Wildlife Area",
    "riverName": "Dudgeon Lake",
    "type": "Public",
    "otherName": "Dudgeon Lake State Wildlife Management Area-Cedar River"
  },
  {
    "department": "Iowa Department of Natural Resources",
    "state": "Iowa",
    "county": "Guthrie County",
    "latitude": 41.7320567031,
    "longitude": -94.3207341115,
    "accessName": "Bays Branch Wildlife Area",
    "riverName": "Bays Branch Lake",
    "type": "Public",
    "otherName": "Bays Branch"
  },
  {
    "department": "Iowa Department of Natural Resources",
    "state": "Iowa",
    "county": "Allamakee County",
    "latitude": 43.4926067229,
    "longitude": -91.2485803901,
    "accessName": "New Albin Area/Army Road",
    "riverName": "Clear Creek",
    "type": "Public",
    "otherName": "Town of New Albin-Mississippi River"
  },
  {
    "department": "Iowa Department of Natural Resources",
    "state": "Iowa",
    "county": "Union County",
    "latitude": 41.0860250533,
    "longitude": -94.3830523212,
    "accessName": "Summit Lake - City of Creston",
    "riverName": "Platte River",
    "type": "Public",
    "otherName": "West Platte River-Platte River"
  },
  {
    "department": "Iowa Department of Natural Resources",
    "state": "Iowa",
    "county": "Allamakee County",
    "latitude": 43.4920456024,
    "longitude": -91.2483797023,
    "accessName": "New Albin Area/Army Road",
    "riverName": "Clear Creek",
    "type": "Public",
    "otherName": "Town of New Albin-Mississippi River"
  },
  {
    "department": "Iowa Department of Natural Resources",
    "state": "Iowa",
    "county": "Black Hawk County",
    "latitude": 42.3266869869,
    "longitude": -92.1482056376,
    "accessName": "Cedar River Access",
    "riverName": "West Fork Cedar River",
    "type": "Public",
    "otherName": "Mud Creek-Cedar River"
  },
  {
    "department": "Iowa Department of Natural Resources",
    "state": "Iowa",
    "county": "Clayton County",
    "latitude": 42.7765759685,
    "longitude": -91.0932792132,
    "accessName": "Guttenberg City Access",
    "riverName": "Mississippi River",
    "type": "Public",
    "otherName": "Miners Creek-Mississippi River"
  },
  {
    "department": "Iowa Department of Natural Resources",
    "state": "Iowa",
    "county": "Linn County",
    "latitude": 42.2156209744,
    "longitude": -91.541309404,
    "accessName": "Pinicon Ridge Park",
    "riverName": "Wapsipinicon River",
    "type": "Public",
    "otherName": "Heatons Creek-Wapsipinicon River"
  },
  {
    "department": "Iowa Department of Natural Resources",
    "state": "Iowa",
    "county": "Johnson County",
    "latitude": 41.8045822405,
    "longitude": -91.5884122091,
    "accessName": "Jolly Rogers",
    "riverName": "Iowa River - Coralville Lake",
    "type": "Public",
    "otherName": "Coralville Lake-Iowa River"
  },
  {
    "department": "Iowa Department of Natural Resources",
    "state": "Iowa",
    "county": "Dickinson County",
    "latitude": 43.4398552743,
    "longitude": -95.3679782206,
    "accessName": "Silver Lake Complex",
    "riverName": "Silver Lake",
    "type": "Public",
    "otherName": "West Branch Little Sioux River"
  },
  {
    "department": "Iowa Department of Natural Resources",
    "state": "Iowa",
    "county": "Emmet County",
    "latitude": 43.35110343,
    "longitude": -94.6771722987,
    "accessName": "West Swan Lake",
    "riverName": "West Swan Lake",
    "type": "Public",
    "otherName": "Headwaters Jack Creek"
  },
  {
    "department": "Iowa Department of Natural Resources",
    "state": "Iowa",
    "county": "Union County",
    "latitude": 41.1022620693,
    "longitude": -94.2304639675,
    "accessName": "Three Mile Wildlife Area",
    "riverName": "Threemile Creek",
    "type": "Public",
    "otherName": "Threemile Creek"
  },
  {
    "department": "Iowa Department of Natural Resources",
    "state": "Iowa",
    "county": "Mitchell County",
    "latitude": 43.3539454067,
    "longitude": -92.9227951229,
    "accessName": "Halvorson Park",
    "riverName": "Cedar River",
    "type": "Public",
    "otherName": "Sugar Creek-Cedar River"
  },
  {
    "department": "Iowa Department of Natural Resources",
    "state": "Iowa",
    "county": "Union County",
    "latitude": 41.0859321211,
    "longitude": -94.2306859997,
    "accessName": "Three Mile Wildlife Area",
    "riverName": "Threemile Creek",
    "type": "Public",
    "otherName": "Threemile Creek"
  },
  {
    "department": "Iowa Department of Natural Resources",
    "state": "Iowa",
    "county": "Howard County",
    "latitude": 43.3469542903,
    "longitude": -92.1388635973,
    "accessName": "Vernon Springs Impoundment",
    "riverName": "Turkey River",
    "type": "Public",
    "otherName": "Chihaks Creek-Turkey River"
  },
  {
    "department": "Iowa Department of Natural Resources",
    "state": "Iowa",
    "county": "Union County",
    "latitude": 41.0850291738,
    "longitude": -94.2210397559,
    "accessName": "Three Mile Wildlife Area",
    "riverName": "Threemile Creek",
    "type": "Public",
    "otherName": "Threemile Creek"
  },
  {
    "department": "Iowa Department of Natural Resources",
    "state": "Iowa",
    "county": "Black Hawk County",
    "latitude": 42.4607586602,
    "longitude": -92.3098300699,
    "accessName": "Deerwood Park",
    "riverName": "West Fork Cedar River",
    "type": "Public",
    "otherName": "Sink Creek-Cedar River"
  },
  {
    "department": "Iowa Department of Natural Resources",
    "state": "Iowa",
    "county": "Black Hawk County",
    "latitude": 42.5684370619,
    "longitude": -92.4848182111,
    "accessName": "Black Hawk Park",
    "riverName": "West Fork Cedar River",
    "type": "Public",
    "otherName": "Black Hawk Park-Cedar River"
  },
  {
    "department": "Iowa Department of Natural Resources",
    "state": "Iowa",
    "county": "Clayton County",
    "latitude": 42.8676559223,
    "longitude": -91.102728321,
    "accessName": "Willies Landing",
    "riverName": "Mississippi River",
    "type": "Public",
    "otherName": "Lock and Dam No 10-Mississippi River"
  },
  {
    "department": "Iowa Department of Natural Resources",
    "state": "Iowa",
    "county": "Black Hawk County",
    "latitude": 42.5062499365,
    "longitude": -92.3482604516,
    "accessName": "Exchange Park",
    "riverName": "West Fork Cedar River",
    "type": "Public",
    "otherName": "Sink Creek-Cedar River"
  },
  {
    "department": "Iowa Department of Natural Resources",
    "state": "Iowa",
    "county": "Scott County",
    "latitude": 41.453286715,
    "longitude": -90.742801798,
    "accessName": "Buffalo Shores Access",
    "riverName": "Mississippi River",
    "type": "Public",
    "otherName": "Coal Creek-Mississippi River"
  },
  {
    "department": "Iowa Department of Natural Resources",
    "state": "Iowa",
    "county": "Dubuque County",
    "latitude": 42.4345903708,
    "longitude": -90.5872063251,
    "accessName": "Massey Park",
    "riverName": "Mississippi River",
    "type": "Public",
    "otherName": "Little Menominee River-Mississippi River"
  },
  {
    "department": "Iowa Department of Natural Resources",
    "state": "Iowa",
    "county": "Black Hawk County",
    "latitude": 42.5312429805,
    "longitude": -92.42366274,
    "accessName": "GWSP Portage Put In 2",
    "riverName": "West Fork Cedar River",
    "type": "Public",
    "otherName": "Black Hawk Park-Cedar River"
  },
  {
    "department": "Iowa Department of Natural Resources",
    "state": "Iowa",
    "county": "Dickinson County",
    "latitude": 43.4331171806,
    "longitude": -95.3405300075,
    "accessName": "Silver Lake Complex",
    "riverName": "Silver Lake",
    "type": "Public",
    "otherName": "West Branch Little Sioux River"
  },
  {
    "department": "Iowa Department of Natural Resources",
    "state": "Iowa",
    "county": "Black Hawk County",
    "latitude": 42.5436068191,
    "longitude": -92.4534983161,
    "accessName": "Island Park",
    "riverName": "West Fork Cedar River",
    "type": "Public",
    "otherName": "Black Hawk Park-Cedar River"
  },
  {
    "department": "Iowa Department of Natural Resources",
    "state": "Iowa",
    "county": "Dallas County",
    "latitude": 41.8495018875,
    "longitude": -93.8507833756,
    "accessName": "Sub-1 Ramp",
    "riverName": "Des Moines River",
    "type": "Public",
    "otherName": "Murphy Branch-Des Moines River"
  },
  {
    "department": "Iowa Department of Natural Resources",
    "state": "Iowa",
    "county": "Black Hawk County",
    "latitude": 42.4814604122,
    "longitude": -92.3134040127,
    "accessName": "Riverview Park",
    "riverName": "West Fork Cedar River",
    "type": "Public",
    "otherName": "Sink Creek-Cedar River"
  },
  {
    "department": "Iowa Department of Natural Resources",
    "state": "Iowa",
    "county": "Bremer County",
    "latitude": 42.8301890459,
    "longitude": -92.2194463575,
    "accessName": "Sweet Marsh",
    "riverName": "Sweet Marsh",
    "type": "Public",
    "otherName": "Lower East Branch Wapsipinicon River"
  },
  {
    "department": "Iowa Department of Natural Resources",
    "state": "Iowa",
    "county": "Johnson County",
    "latitude": 41.7208885912,
    "longitude": -91.5287077949,
    "accessName": "Trailwater East",
    "riverName": "Iowa River",
    "type": "Public",
    "otherName": "Ralston Creek-Iowa River"
  },
  {
    "department": "Iowa Department of Natural Resources",
    "state": "Iowa",
    "county": "Black Hawk County",
    "latitude": 42.529807337,
    "longitude": -92.4022494117,
    "accessName": "George Wyth State Park",
    "riverName": "West Fork Cedar River",
    "type": "Public",
    "otherName": "Black Hawk Park-Cedar River"
  },
  {
    "department": "Iowa Department of Natural Resources",
    "state": "Iowa",
    "county": "Bremer County",
    "latitude": 42.8323322738,
    "longitude": -92.2388231102,
    "accessName": "Sweet Marsh",
    "riverName": "Sweet Marsh",
    "type": "Public",
    "otherName": "Lower East Branch Wapsipinicon River"
  },
  {
    "department": "Iowa Department of Natural Resources",
    "state": "Iowa",
    "county": "Black Hawk County",
    "latitude": 42.5362251533,
    "longitude": -92.4107615536,
    "accessName": "GWSP Portage Put In 1",
    "riverName": "West Fork Cedar River",
    "type": "Public",
    "otherName": "Black Hawk Park-Cedar River"
  },
  {
    "department": "Iowa Department of Natural Resources",
    "state": "Iowa",
    "county": "Bremer County",
    "latitude": 42.8103313112,
    "longitude": -92.2256086009,
    "accessName": "Sweet Marsh",
    "riverName": "Sweet Marsh",
    "type": "Public",
    "otherName": "Lower East Branch Wapsipinicon River"
  },
  {
    "department": "Iowa Department of Natural Resources",
    "state": "Iowa",
    "county": "Woodbury County",
    "latitude": 42.489921891,
    "longitude": -96.4239941772,
    "accessName": "Sioux City Municipal Boat Dock",
    "riverName": "Missouri River",
    "type": "Public",
    "otherName": "Bacon Creek-Missouri River"
  },
  {
    "department": "Iowa Department of Natural Resources",
    "state": "Iowa",
    "county": "Bremer County",
    "latitude": 42.8132146527,
    "longitude": -92.2274507904,
    "accessName": "Sweet Marsh",
    "riverName": "Sweet Marsh",
    "type": "Public",
    "otherName": "Lower East Branch Wapsipinicon River"
  },
  {
    "department": "Iowa Department of Natural Resources",
    "state": "Iowa",
    "county": "Woodbury County",
    "latitude": 42.3627438304,
    "longitude": -96.4152028768,
    "accessName": "Weedland Access",
    "riverName": "Missouri River",
    "type": "Public",
    "otherName": "Bacon Creek-Missouri River"
  },
  {
    "department": "Iowa Department of Natural Resources",
    "state": "Iowa",
    "county": "Bremer County",
    "latitude": 42.8300062197,
    "longitude": -92.2385543458,
    "accessName": "Sweet Marsh",
    "riverName": "Sweet Marsh",
    "type": "Public",
    "otherName": "Lower East Branch Wapsipinicon River"
  },
  {
    "department": "Iowa Department of Natural Resources",
    "state": "Iowa",
    "county": "Clinton County",
    "latitude": 41.7827201849,
    "longitude": -90.2491405589,
    "accessName": "5th Avenue Ramp",
    "riverName": "Mississippi River",
    "type": "Public",
    "otherName": "Cattail Slough-Mississippi River"
  },
  {
    "department": "Iowa Department of Natural Resources",
    "state": "Iowa",
    "county": "Emmet County",
    "latitude": 43.4901812122,
    "longitude": -94.5870769764,
    "accessName": "Tuttle Lake Wetland Complex",
    "riverName": "Okamanpeedan Lake",
    "type": "Public",
    "otherName": "Okamanpeedan Lake-East Fork Des Moines River"
  },
  {
    "department": "Iowa Department of Natural Resources",
    "state": "Iowa",
    "county": "Emmet County",
    "latitude": 43.4919065382,
    "longitude": -94.459283727,
    "accessName": "Iowa Lake - Emmet",
    "riverName": "Iowa Lake",
    "type": "Public",
    "otherName": "Iowa Lake"
  },
  {
    "department": "Iowa Department of Natural Resources",
    "state": "Iowa",
    "county": "Wright County",
    "latitude": 42.6155274883,
    "longitude": -93.6466107357,
    "accessName": "Big Wall Lake Wildlife Area",
    "riverName": "Big Wall Lake",
    "type": "Public",
    "otherName": "Buck Creek"
  },
  {
    "department": "Iowa Department of Natural Resources",
    "state": "Iowa",
    "county": "Polk County",
    "latitude": 41.7308925242,
    "longitude": -93.6853137204,
    "accessName": "Cherry Glen - East",
    "riverName": "Big Creek - Saylorville Lake",
    "type": "Public",
    "otherName": "Murphy Branch-Des Moines River"
  },
  {
    "department": "Iowa Department of Natural Resources",
    "state": "Iowa",
    "county": "Polk County",
    "latitude": 41.7068679592,
    "longitude": -93.6958932526,
    "accessName": "Lakeview High Water",
    "riverName": "Big Creek - Saylorville Lake",
    "type": "Public",
    "otherName": "Murphy Branch-Des Moines River"
  },
  {
    "department": "Iowa Department of Natural Resources",
    "state": "Iowa",
    "county": "Jackson County",
    "latitude": 42.2581403959,
    "longitude": -90.4221438851,
    "accessName": "Bellevue Boat Ramp",
    "riverName": "Mississippi River",
    "type": "Public",
    "otherName": "Crooked Slough-Mississippi River"
  },
  {
    "department": "Iowa Department of Natural Resources",
    "state": "Iowa",
    "county": "Polk County",
    "latitude": 41.7474829193,
    "longitude": -93.7085767798,
    "accessName": "Sandpiper",
    "riverName": "Big Creek - Saylorville Lake",
    "type": "Public",
    "otherName": "Murphy Branch-Des Moines River"
  },
  {
    "department": "Iowa Department of Natural Resources",
    "state": "Iowa",
    "county": "Jackson County",
    "latitude": 42.1625888314,
    "longitude": -90.8936505078,
    "accessName": "Canton County Park",
    "riverName": "Maquoketa River",
    "type": "Public",
    "otherName": "Pine Creek-Maquoketa River"
  },
  {
    "department": "Iowa Department of Natural Resources",
    "state": "Iowa",
    "county": "Wright County",
    "latitude": 42.7740857075,
    "longitude": -93.6858301429,
    "accessName": "Elm Lake Wildlife Area",
    "riverName": "Elm Lake",
    "type": "Public",
    "otherName": "Elm Lake State Game Management Area-Iowa River"
  },
  {
    "department": "Iowa Department of Natural Resources",
    "state": "Iowa",
    "county": "Jackson County",
    "latitude": 42.1572761684,
    "longitude": -90.3392049917,
    "accessName": "Highway 52 Access",
    "riverName": "Maquoketa River",
    "type": "Public",
    "otherName": "Maquoketa River"
  },
  {
    "department": "Iowa Department of Natural Resources",
    "state": "Iowa",
    "county": "Polk County",
    "latitude": 41.7538912149,
    "longitude": -93.7029545717,
    "accessName": "Saylorville Marina Access",
    "riverName": "Big Creek - Saylorville Lake",
    "type": "Public",
    "otherName": "Murphy Branch-Des Moines River"
  },
  {
    "department": "Iowa Department of Natural Resources",
    "state": "Iowa",
    "county": "Jackson County",
    "latitude": 42.0752819509,
    "longitude": -90.6698857385,
    "accessName": "Maquoketa City Access",
    "riverName": "Maquoketa River",
    "type": "Public",
    "otherName": "Pumpkin Creek-Maquoketa River"
  },
  {
    "department": "Iowa Department of Natural Resources",
    "state": "Iowa",
    "county": "Wright County",
    "latitude": 42.8358303279,
    "longitude": -93.6911866681,
    "accessName": "Morse Lake Wildlife Area",
    "riverName": "Morse Lake",
    "type": "Public",
    "otherName": "Elm Lake State Game Management Area-Iowa River"
  },
  {
    "department": "Iowa Department of Natural Resources",
    "state": "Iowa",
    "county": "Delaware County",
    "latitude": 42.4424568048,
    "longitude": -91.4085359366,
    "accessName": "Bailey's Ford Park",
    "riverName": "Maquoketa River",
    "type": "Public",
    "otherName": "Allison Creek-Maquoketa River"
  },
  {
    "department": "Iowa Department of Natural Resources",
    "state": "Iowa",
    "county": "Jackson County",
    "latitude": 42.0609267083,
    "longitude": -90.1691668465,
    "accessName": "Sabula Boat Landing",
    "riverName": "Mississippi River",
    "type": "Public",
    "otherName": "Spring Lake-Mississippi River"
  },
  {
    "department": "Iowa Department of Natural Resources",
    "state": "Iowa",
    "county": "Greene County",
    "latitude": 42.0673296659,
    "longitude": -94.5383106675,
    "accessName": "Brown Bridge Access",
    "riverName": "North Raccoon River",
    "type": "Public",
    "otherName": "McMahon State Wildlife Management Area-North Raccoon River"
  },
  {
    "department": "Iowa Department of Natural Resources",
    "state": "Iowa",
    "county": "Jones County",
    "latitude": 42.1009990028,
    "longitude": -91.2931756,
    "accessName": "Anamosa Boat Ramp",
    "riverName": "Wapsipinicon River",
    "type": "Public",
    "otherName": "Dutch Creek-Wapsipinicon River"
  },
  {
    "department": "Iowa Department of Natural Resources",
    "state": "Iowa",
    "county": "Jones County",
    "latitude": 42.0451181475,
    "longitude": -91.2001853141,
    "accessName": "Newport Mills",
    "riverName": "Wapsipinicon River",
    "type": "Public",
    "otherName": "Dutch Creek-Wapsipinicon River"
  },
  {
    "department": "Iowa Department of Natural Resources",
    "state": "Iowa",
    "county": "Winnebago County",
    "latitude": 43.3951285199,
    "longitude": -93.5073398597,
    "accessName": "Rice Lake Wildlife Area",
    "riverName": "Rice Lake",
    "type": "Public",
    "otherName": "Headwaters Beaver Creek"
  },
  {
    "department": "Iowa Department of Natural Resources",
    "state": "Iowa",
    "county": "Muscatine County",
    "latitude": 41.4102247933,
    "longitude": -91.2903783012,
    "accessName": "McKeown Access",
    "riverName": "Cedar River",
    "type": "Public",
    "otherName": "Crane Creek-Cedar River"
  },
  {
    "department": "Iowa Department of Natural Resources",
    "state": "Iowa",
    "county": "Linn County",
    "latitude": 42.0496866056,
    "longitude": -91.7758578691,
    "accessName": "Chain Lakes",
    "riverName": "West Fork Cedar River",
    "type": "Public",
    "otherName": "Silver Creek-Cedar River"
  },
  {
    "department": "Iowa Department of Natural Resources",
    "state": "Iowa",
    "county": "Kossuth County",
    "latitude": 43.1104320959,
    "longitude": -94.2073608184,
    "accessName": "Plum Creek Dam",
    "riverName": "East Fork Des Moines River",
    "type": "Public",
    "otherName": "Drainage Ditch 51-East Fork Des Moines River"
  },
  {
    "department": "Iowa Department of Natural Resources",
    "state": "Iowa",
    "county": "Linn County",
    "latitude": 41.9443770627,
    "longitude": -91.6233905191,
    "accessName": "Lou's Area Access",
    "riverName": "Cedar River",
    "type": "Public",
    "otherName": "Pleasant Run-Cedar River"
  },
  {
    "department": "Iowa Department of Natural Resources",
    "state": "Iowa",
    "county": "Mahaska County",
    "latitude": 41.3415561821,
    "longitude": -92.5943747424,
    "accessName": "Glendale Access",
    "riverName": "South Skunk River",
    "type": "Public",
    "otherName": "Spring Creek-South Skunk River"
  },
  {
    "department": "Iowa Department of Natural Resources",
    "state": "Iowa",
    "county": "Johnson County",
    "latitude": 41.8396477653,
    "longitude": -91.3915823752,
    "accessName": "Sutliff Access",
    "riverName": "Cedar River",
    "type": "Public",
    "otherName": "Mill Creek-Cedar River"
  },
  {
    "department": "Iowa Department of Natural Resources",
    "state": "Iowa",
    "county": "Black Hawk County",
    "latitude": 42.3855751835,
    "longitude": -92.2161029601,
    "accessName": "Cedar River Area",
    "riverName": "West Fork Cedar River",
    "type": "Public",
    "otherName": "Sink Creek-Cedar River"
  },
  {
    "department": "Iowa Department of Natural Resources",
    "state": "Iowa",
    "county": "Linn County",
    "latitude": 42.004517554,
    "longitude": -91.689281071,
    "accessName": "Mohawk Park",
    "riverName": "West Fork Cedar River",
    "type": "Public",
    "otherName": "Silver Creek-Cedar River"
  },
  {
    "department": "Iowa Department of Natural Resources",
    "state": "Iowa",
    "county": "Emmet County",
    "latitude": 43.3239365114,
    "longitude": -94.6761152366,
    "accessName": "Ingham-High Wetland Complex",
    "riverName": "Ingham Lake",
    "type": "Public",
    "otherName": "Headwaters Jack Creek"
  },
  {
    "department": "Iowa Department of Natural Resources",
    "state": "Iowa",
    "county": "Linn County",
    "latitude": 41.9617628962,
    "longitude": -91.639778012,
    "accessName": "Otis Road Access",
    "riverName": "Cedar RIver",
    "type": "Public",
    "otherName": "Silver Creek-Cedar River"
  },
  {
    "department": "Iowa Department of Natural Resources",
    "state": "Iowa",
    "county": "Emmet County",
    "latitude": 43.3236758712,
    "longitude": -94.6938402819,
    "accessName": "Ingham-High Wetland Complex",
    "riverName": "Ingham Lake",
    "type": "Public",
    "otherName": "Headwaters Jack Creek"
  },
  {
    "department": "Iowa Department of Natural Resources",
    "state": "Iowa",
    "county": "Black Hawk County",
    "latitude": 42.6133988085,
    "longitude": -92.4961665883,
    "accessName": "Washington Union Access",
    "riverName": "West Fork Cedar River",
    "type": "Public",
    "otherName": "West Fork Cedar River"
  },
  {
    "department": "Iowa Department of Natural Resources",
    "state": "Iowa",
    "county": "Worth County",
    "latitude": 43.3842406171,
    "longitude": -93.4880871134,
    "accessName": "Rice Lake Wildlife Area",
    "riverName": "Rice",
    "type": "Public",
    "otherName": "Headwaters Beaver Creek"
  },
  {
    "department": "Iowa Department of Natural Resources",
    "state": "Iowa",
    "county": "Dickinson County",
    "latitude": 43.4837220268,
    "longitude": -95.1865141771,
    "accessName": "Diamond Lake",
    "riverName": "Diamond Lake",
    "type": "Public",
    "otherName": "Diamond Lake-Little Sioux River"
  },
  {
    "department": "Iowa Department of Natural Resources",
    "state": "Iowa",
    "county": "Benton County",
    "latitude": 42.1641718723,
    "longitude": -91.9786141859,
    "accessName": "Hoefle - Dulin",
    "riverName": "West Fork Cedar River",
    "type": "Public",
    "otherName": "Wildcat Bluff-Cedar River"
  },
  {
    "department": "Iowa Department of Natural Resources",
    "state": "Iowa",
    "county": "Warren County",
    "latitude": 41.4859526327,
    "longitude": -93.3592174987,
    "accessName": "Runnells Access",
    "riverName": "Des Moines River",
    "type": "Public",
    "otherName": "South River"
  },
  {
    "department": "Iowa Department of Natural Resources",
    "state": "Iowa",
    "county": "Emmet County",
    "latitude": 43.3895205757,
    "longitude": -94.9061609899,
    "accessName": "Fourmile Lake",
    "riverName": "Fourmile Lake",
    "type": "Public",
    "otherName": "School Creek-Des Moines River"
  },
  {
    "department": "Iowa Department of Natural Resources",
    "state": "Iowa",
    "county": "Marion County",
    "latitude": 41.4868950328,
    "longitude": -93.2738376749,
    "accessName": "Bennington Bridge",
    "riverName": "Des Moines River - Lake Red Rock",
    "type": "Public",
    "otherName": "Wildcat Creek-Des Moines River"
  },
  {
    "department": "Iowa Department of Natural Resources",
    "state": "Iowa",
    "county": "Benton County",
    "latitude": 42.1747176944,
    "longitude": -92.0164832845,
    "accessName": "Riverside City Park",
    "riverName": "West Fork Cedar River",
    "type": "Public",
    "otherName": "Dudgeon Lake State Wildlife Management Area-Cedar River"
  },
  {
    "department": "Iowa Department of Natural Resources",
    "state": "Iowa",
    "county": "Emmet County",
    "latitude": 43.3702164256,
    "longitude": -94.8793476157,
    "accessName": "Cheever Lake",
    "riverName": "Cheever Lake",
    "type": "Public",
    "otherName": "School Creek-Des Moines River"
  },
  {
    "department": "Iowa Department of Natural Resources",
    "state": "Iowa",
    "county": "Marion County",
    "latitude": 41.4663130385,
    "longitude": -93.2108069043,
    "accessName": "Boxcar Bend",
    "riverName": "Des Moines River - Lake Red Rock",
    "type": "Public",
    "otherName": "Wildcat Creek-Des Moines River"
  },
  {
    "department": "Iowa Department of Natural Resources",
    "state": "Iowa",
    "county": "Benton County",
    "latitude": 42.1903816778,
    "longitude": -91.8827043433,
    "accessName": "Wildcat Bluff",
    "riverName": "West Fork Cedar River",
    "type": "Public",
    "otherName": "Wildcat Bluff-Cedar River"
  },
  {
    "department": "Iowa Department of Natural Resources",
    "state": "Iowa",
    "county": "Tama County",
    "latitude": 41.9057020981,
    "longitude": -92.394199371,
    "accessName": "Chelsea Boat Ramp",
    "riverName": "Iowa River",
    "type": "Public",
    "otherName": "Plague Creek-Iowa River"
  },
  {
    "department": "Iowa Department of Natural Resources",
    "state": "Iowa",
    "county": "Clay County",
    "latitude": 43.1953067068,
    "longitude": -94.9548502503,
    "accessName": "Dewey's Pasture Complex",
    "riverName": "Trumbull Lake",
    "type": "Public",
    "otherName": "Pickerel Run"
  },
  {
    "department": "Iowa Department of Natural Resources",
    "state": "Iowa",
    "county": "Clinton County",
    "latitude": 41.7504959958,
    "longitude": -90.32713838,
    "accessName": "Rock Creek Park",
    "riverName": "Mississippi River",
    "type": "Public",
    "otherName": "Rock Creek"
  },
  {
    "department": "Iowa Department of Natural Resources",
    "state": "Iowa",
    "county": "Tama County",
    "latitude": 41.9525912194,
    "longitude": -92.5783916882,
    "accessName": "Manatts Landing",
    "riverName": "Iowa River",
    "type": "Public",
    "otherName": "Plague Creek-Iowa River"
  },
  {
    "department": "Iowa Department of Natural Resources",
    "state": "Iowa",
    "county": "Emmet County",
    "latitude": 43.3183643123,
    "longitude": -94.778905499,
    "accessName": "Peterson Access",
    "riverName": "Des Moines River",
    "type": "Public",
    "otherName": "Drainage Ditch 151-Des Moines River"
  },
  {
    "department": "Iowa Department of Natural Resources",
    "state": "Iowa",
    "county": "Monona County",
    "latitude": 41.9249184202,
    "longitude": -96.1345756624,
    "accessName": "Huff Access",
    "riverName": "Missouri River",
    "type": "Public",
    "otherName": "McCandless Cleghorn Ditch"
  },
  {
    "department": "Iowa Department of Natural Resources",
    "state": "Iowa",
    "county": "Dickinson County",
    "latitude": 43.3577848659,
    "longitude": -95.1236651326,
    "accessName": "Minnewashta Lake\n\nMinnewashta Lake",
    "riverName": "Minnewashta Lake",
    "type": "Public",
    "otherName": "Milford Creek"
  },
  {
    "department": "Iowa Department of Natural Resources",
    "state": "Iowa",
    "county": "Monona County",
    "latitude": 42.1131829147,
    "longitude": -96.2674219129,
    "accessName": "Whiting Lighthouse (Private)",
    "riverName": "Missouri River",
    "type": "Public",
    "otherName": "Horsehead Creek-Missouri River"
  },
  {
    "department": "Iowa Department of Natural Resources",
    "state": "Iowa",
    "county": "Plymouth County",
    "latitude": 42.85110346,
    "longitude": -96.5436644666,
    "accessName": "Big Sioux Park Access",
    "riverName": "Big Sioux River",
    "type": "Public",
    "otherName": "Beaver Creek-Big Sioux River"
  },
  {
    "department": "Iowa Department of Natural Resources",
    "state": "Iowa",
    "county": "Boone County",
    "latitude": 41.8740588195,
    "longitude": -93.8642953347,
    "accessName": "Hwy 210 Access",
    "riverName": "Des Moines River",
    "type": "Public",
    "otherName": "Richardson Branch-Des Moines River"
  },
  {
    "department": "Iowa Department of Natural Resources",
    "state": "Iowa",
    "county": "Butler County",
    "latitude": 42.8928724004,
    "longitude": -92.8014440284,
    "accessName": "Green Recreational Park",
    "riverName": "Shell Rock River",
    "type": "Public",
    "otherName": "Village of Greene-Shell Rock River"
  },
  {
    "department": "Iowa Department of Natural Resources",
    "state": "Iowa",
    "county": "Boone County",
    "latitude": 42.0768153558,
    "longitude": -93.935305292,
    "accessName": "Waterworks Ramp (Downstream)",
    "riverName": "Des Moines River",
    "type": "Public",
    "otherName": "Elkhorn Creek-Des Moines River"
  },
  {
    "department": "Iowa Department of Natural Resources",
    "state": "Iowa",
    "county": "Bremer County",
    "latitude": 42.8477525054,
    "longitude": -92.5213612489,
    "accessName": "North Cedar Park",
    "riverName": "Cedar River",
    "type": "Public",
    "otherName": "Village of Plainfield-Cedar River"
  },
  {
    "department": "Iowa Department of Natural Resources",
    "state": "Iowa",
    "county": "Butler County",
    "latitude": 42.8424203797,
    "longitude": -92.7593376619,
    "accessName": "Camp Comfort",
    "riverName": "Shell Rock River",
    "type": "Public",
    "otherName": "Village of Greene-Shell Rock River"
  },
  {
    "department": "Iowa Department of Natural Resources",
    "state": "Iowa",
    "county": "Cedar County",
    "latitude": 41.7259444211,
    "longitude": -91.2373756038,
    "accessName": "Cedar Valley Park",
    "riverName": "Cedar River",
    "type": "Public",
    "otherName": "Community of Buchanan-Cedar River"
  },
  {
    "department": "Iowa Department of Natural Resources",
    "state": "Iowa",
    "county": "Dickinson County",
    "latitude": 43.4727181236,
    "longitude": -95.1455673699,
    "accessName": "Kettleson Hogsback Complex",
    "riverName": "West Hottes Lake",
    "type": "Public",
    "otherName": "East Okoboji Lake"
  },
  {
    "department": "Iowa Department of Natural Resources",
    "state": "Iowa",
    "county": "Clinton County",
    "latitude": 41.8251847002,
    "longitude": -90.1967721974,
    "accessName": "15th Avenue Ramp",
    "riverName": "Mississippi River",
    "type": "Public",
    "otherName": "Cattail Slough-Mississippi River"
  },
  {
    "department": "Iowa Department of Natural Resources",
    "state": "Iowa",
    "county": "Dallas County",
    "latitude": 41.7422911079,
    "longitude": -94.0550384546,
    "accessName": "Snyder Access",
    "riverName": "North Raccoon River",
    "type": "Public",
    "otherName": "Village of Minburn-North Raccoon River"
  },
  {
    "department": "Iowa Department of Natural Resources",
    "state": "Iowa",
    "county": "Dickinson County",
    "latitude": 43.476697745,
    "longitude": -95.1295479419,
    "accessName": "Kettleson Hogsback Complex",
    "riverName": "Marble Lake",
    "type": "Public",
    "otherName": "East Okoboji Lake"
  },
  {
    "department": "Iowa Department of Natural Resources",
    "state": "Iowa",
    "county": "Clinton County",
    "latitude": 41.8733080521,
    "longitude": -90.173462576,
    "accessName": "25th Avenue Ramp",
    "riverName": "Mississippi River",
    "type": "Public",
    "otherName": "Cattail Slough-Mississippi River"
  },
  {
    "department": "Iowa Department of Natural Resources",
    "state": "Iowa",
    "county": "Dickinson County",
    "latitude": 43.497226658,
    "longitude": -95.165035102,
    "accessName": "Kettleson Hogsback Complex",
    "riverName": "Grovers Lake",
    "type": "Public",
    "otherName": "East Okoboji Lake"
  },
  {
    "department": "Iowa Department of Natural Resources",
    "state": "Iowa",
    "county": "Polk County",
    "latitude": 41.7305644158,
    "longitude": -93.6873957038,
    "accessName": "Cherry Glen - West",
    "riverName": "Big Creek - Saylorville Lake",
    "type": "Public",
    "otherName": "Murphy Branch-Des Moines River"
  },
  {
    "department": "Iowa Department of Natural Resources",
    "state": "Iowa",
    "county": "Clinton County",
    "latitude": 41.8793837843,
    "longitude": -90.1728112696,
    "accessName": "30th Avenue Ramp",
    "riverName": "Mississippi River",
    "type": "Public",
    "otherName": "Cattail Slough-Mississippi River"
  },
  {
    "department": "Iowa Department of Natural Resources",
    "state": "Iowa",
    "county": "Dickinson County",
    "latitude": 43.4813231401,
    "longitude": -95.1272731683,
    "accessName": "Kettleson Hogsback Complex",
    "riverName": "Sunken Lake",
    "type": "Public",
    "otherName": "East Okoboji Lake"
  },
  {
    "department": "Iowa Department of Natural Resources",
    "state": "Iowa",
    "county": "Polk County",
    "latitude": 41.7082738378,
    "longitude": -93.6980025644,
    "accessName": "Lakeview Main A",
    "riverName": "Big Creek - Saylorville Lake",
    "type": "Public",
    "otherName": "Murphy Branch-Des Moines River"
  },
  {
    "department": "Iowa Department of Natural Resources",
    "state": "Iowa",
    "county": "Clinton County",
    "latitude": 41.7819903544,
    "longitude": -90.2501330258,
    "accessName": "6th Avenue Ramp",
    "riverName": "Mississippi River",
    "type": "Public",
    "otherName": "Cattail Slough-Mississippi River"
  },
  {
    "department": "Iowa Department of Natural Resources",
    "state": "Iowa",
    "county": "Dickinson County",
    "latitude": 43.4818305218,
    "longitude": -95.1268518874,
    "accessName": "Kettleson Hogsback Complex",
    "riverName": "East Hottes Lake",
    "type": "Public",
    "otherName": "East Okoboji Lake"
  },
  {
    "department": "Iowa Department of Natural Resources",
    "state": "Iowa",
    "county": "Polk County",
    "latitude": 41.708675147,
    "longitude": -93.6985429362,
    "accessName": "Lakeview Main B",
    "riverName": "Big Creek - Saylorville Lake",
    "type": "Public",
    "otherName": "Murphy Branch-Des Moines River"
  },
  {
    "department": "Iowa Department of Natural Resources",
    "state": "Iowa",
    "county": "Clinton County",
    "latitude": 41.7806699781,
    "longitude": -90.2523282738,
    "accessName": "8th Avenue Ramp",
    "riverName": "Mississippi River",
    "type": "Public",
    "otherName": "Cattail Slough-Mississippi River"
  },
  {
    "department": "Iowa Department of Natural Resources",
    "state": "Iowa",
    "county": "Clinton County",
    "latitude": 41.8532084788,
    "longitude": -90.1841345474,
    "accessName": "9th Avenue Ramp",
    "riverName": "Mississippi River",
    "type": "Public",
    "otherName": "Cattail Slough-Mississippi River"
  },
  {
    "department": "Iowa Department of Natural Resources",
    "state": "Iowa",
    "county": "Sac County",
    "latitude": 42.2939217189,
    "longitude": -95.0321797196,
    "accessName": "Black Hawk Wildlife Area",
    "riverName": "Black Hawk Lake",
    "type": "Public",
    "otherName": "Wall Lake Inlet"
  },
  {
    "department": "Iowa Department of Natural Resources",
    "state": "Iowa",
    "county": "Clinton County",
    "latitude": 41.7774855701,
    "longitude": -90.2716906176,
    "accessName": "Camanche Municipal Ramp",
    "riverName": "Mississippi River",
    "type": "Public",
    "otherName": "Cordova Slough-Mississippi River"
  },
  {
    "department": "Iowa Department of Natural Resources",
    "state": "Iowa",
    "county": "Greene County",
    "latitude": 42.1103110048,
    "longitude": -94.3940071123,
    "accessName": "Goose Lake - Greene",
    "riverName": "Goose Lake",
    "type": "Public",
    "otherName": "East Fork Hardin Creek"
  },
  {
    "department": "Iowa Department of Natural Resources",
    "state": "Iowa",
    "county": "Clinton County",
    "latitude": 41.7588963889,
    "longitude": -90.4348669253,
    "accessName": "McCausland Access",
    "riverName": "Wapsipinicon River",
    "type": "Public",
    "otherName": "Wapsipinicon River"
  },
  {
    "department": "Iowa Department of Natural Resources",
    "state": "Iowa",
    "county": "Dickinson County",
    "latitude": 43.4124455759,
    "longitude": -95.1415748891,
    "accessName": "Center Lake Complex",
    "riverName": "Center Lake",
    "type": "Public",
    "otherName": "West Okoboji Lake"
  },
  {
    "department": "Iowa Department of Natural Resources",
    "state": "Iowa",
    "county": "Clinton County",
    "latitude": 41.774565946,
    "longitude": -90.7870692235,
    "accessName": "Sherman Park",
    "riverName": "Wapsipinicon River",
    "type": "Public",
    "otherName": "Sherman Park-Wapsipinicon River"
  },
  {
    "department": "Iowa Department of Natural Resources",
    "state": "Iowa",
    "county": "Greene County",
    "latitude": 42.1128434869,
    "longitude": -94.397876406,
    "accessName": "Goose Lake - Greene",
    "riverName": "Goose Lake",
    "type": "Public",
    "otherName": "East Fork Hardin Creek"
  },
  {
    "department": "Iowa Department of Natural Resources",
    "state": "Iowa",
    "county": "Butler County",
    "latitude": 42.721401246,
    "longitude": -92.5864626256,
    "accessName": "Shell Rock Park",
    "riverName": "Shell Rock River",
    "type": "Public",
    "otherName": "Shell Rock River"
  },
  {
    "department": "Iowa Department of Natural Resources",
    "state": "Iowa",
    "county": "Woodbury County",
    "latitude": 42.3057256419,
    "longitude": -96.3308823011,
    "accessName": "Brown's Lake Wildlife Area",
    "riverName": "Brown's Lake",
    "type": "Public",
    "otherName": "Bacon Creek-Missouri River"
  },
  {
    "department": "Iowa Department of Natural Resources",
    "state": "Iowa",
    "county": "Clinton County",
    "latitude": 41.8336212121,
    "longitude": -90.809481633,
    "accessName": "Syracuse Access",
    "riverName": "Wapsipinicon River",
    "type": "Public",
    "otherName": "Sherman Park-Wapsipinicon River"
  },
  {
    "department": "Iowa Department of Natural Resources",
    "state": "Iowa",
    "county": "Muscatine County",
    "latitude": 41.5749711512,
    "longitude": -91.0861382331,
    "accessName": "Jack Shugar Memorial Park",
    "riverName": "Cedar River",
    "type": "Public",
    "otherName": "Pee Dee Creek-Cedar River"
  },
  {
    "department": "Iowa Department of Natural Resources",
    "state": "Iowa",
    "county": "Johnson County",
    "latitude": 41.7556106559,
    "longitude": -91.5598047961,
    "accessName": "Sugar Bottom",
    "riverName": "Iowa River - Coralville Lake",
    "type": "Public",
    "otherName": "Coralville Lake-Iowa River"
  },
  {
    "department": "Iowa Department of Natural Resources",
    "state": "Iowa",
    "county": "Clinton County",
    "latitude": 41.982434566,
    "longitude": -90.1718442974,
    "accessName": "Elk River Access",
    "riverName": "Elk River",
    "type": "Public",
    "otherName": "Elk River"
  },
  {
    "department": "Iowa Department of Natural Resources",
    "state": "Iowa",
    "county": "Dickinson County",
    "latitude": 43.3827074278,
    "longitude": -95.0621395388,
    "accessName": "Spring Run Complex",
    "riverName": "Prairie Lake",
    "type": "Public",
    "otherName": "Milford Creek"
  },
  {
    "department": "Iowa Department of Natural Resources",
    "state": "Iowa",
    "county": "Cedar County",
    "latitude": 41.6612136552,
    "longitude": -91.1507612316,
    "accessName": "Rochester Park",
    "riverName": "Cedar River",
    "type": "Public",
    "otherName": "Pee Dee Creek-Cedar River"
  },
  {
    "department": "Iowa Department of Natural Resources",
    "state": "Iowa",
    "county": "Johnson County",
    "latitude": 41.7265945519,
    "longitude": -91.5226156599,
    "accessName": "Gs Marina",
    "riverName": "Iowa River - Coralville Lake",
    "type": "Public",
    "otherName": "Coralville Lake-Iowa River"
  },
  {
    "department": "Iowa Department of Natural Resources",
    "state": "Iowa",
    "county": "Johnson County",
    "latitude": 41.7844557988,
    "longitude": -91.700822911,
    "accessName": "Hawkeye Wildlife Area",
    "riverName": "Hawkeye Wildlife Area water",
    "type": "Public",
    "otherName": "Hawkeye State Wildlife Area Coralville Lake-Iowa River"
  },
  {
    "department": "Iowa Department of Natural Resources",
    "state": "Iowa",
    "county": "Dickinson County",
    "latitude": 43.4637353435,
    "longitude": -94.9464232055,
    "accessName": "Christopherson Slough",
    "riverName": "Swan Lake",
    "type": "Public",
    "otherName": "Ditch Number 23"
  },
  {
    "department": "Iowa Department of Natural Resources",
    "state": "Iowa",
    "county": "Guthrie County",
    "latitude": 41.8595579175,
    "longitude": -94.6656330335,
    "accessName": "Highway 141 River Access",
    "riverName": "Middle Raccoon River",
    "type": "Public",
    "otherName": "Willey Branch-Middle Raccoon River"
  },
  {
    "department": "Iowa Department of Natural Resources",
    "state": "Iowa",
    "county": "Dickinson County",
    "latitude": 43.4595906458,
    "longitude": -94.9536780919,
    "accessName": "Christopherson Slough",
    "riverName": "Swan Lake",
    "type": "Public",
    "otherName": "Ditch Number 23"
  },
  {
    "department": "Iowa Department of Natural Resources",
    "state": "Iowa",
    "county": "Dallas County",
    "latitude": 41.6237780466,
    "longitude": -94.0224181179,
    "accessName": "Kinnick-Feller Riverside Park",
    "riverName": "North Raccoon River",
    "type": "Public",
    "otherName": "Hickory Creek-North Raccoon River"
  },
  {
    "department": "Iowa Department of Natural Resources",
    "state": "Iowa",
    "county": "Johnson County",
    "latitude": 41.7921544974,
    "longitude": -91.7146347958,
    "accessName": "Hawkeye Wildlife Area",
    "riverName": "Iowa River",
    "type": "Public",
    "otherName": "Hawkeye State Wildlife Area Coralville Lake-Iowa River"
  },
  {
    "department": "Iowa Department of Natural Resources",
    "state": "Iowa",
    "county": "Dallas County",
    "latitude": 41.5904158165,
    "longitude": -94.2033784973,
    "accessName": "Redfield Dam",
    "riverName": "Middle Raccoon River",
    "type": "Public",
    "otherName": "City of Panora-Middle Raccoon River"
  },
  {
    "department": "Iowa Department of Natural Resources",
    "state": "Iowa",
    "county": "Johnson County",
    "latitude": 41.7726023235,
    "longitude": -91.7384735234,
    "accessName": "Hawkeye Wildlife Area",
    "riverName": "Hawkeye Wildlife Area water",
    "type": "Public",
    "otherName": "Hawkeye State Wildlife Area Coralville Lake-Iowa River"
  },
  {
    "department": "Iowa Department of Natural Resources",
    "state": "Iowa",
    "county": "Polk County",
    "latitude": 41.610109905,
    "longitude": -93.611387641,
    "accessName": "Birdland Park",
    "riverName": "Des Moines River",
    "type": "Public",
    "otherName": "Saylor Creek-Des Moines River"
  },
  {
    "department": "Iowa Department of Natural Resources",
    "state": "Iowa",
    "county": "Johnson County",
    "latitude": 41.7877389694,
    "longitude": -91.7816410352,
    "accessName": "Hawkeye Wildlife Area",
    "riverName": "Hawkeye Wildlife Area water",
    "type": "Public",
    "otherName": "Matson Pond-Iowa River"
  },
  {
    "department": "Iowa Department of Natural Resources",
    "state": "Iowa",
    "county": "Polk County",
    "latitude": 41.5676997896,
    "longitude": -93.6561588621,
    "accessName": "Des Moines Water Works Park",
    "riverName": "North Raccoon River",
    "type": "Public",
    "otherName": "Jordan Creek-Raccoon River"
  },
  {
    "department": "Iowa Department of Natural Resources",
    "state": "Iowa",
    "county": "Clay County",
    "latitude": 43.0827502667,
    "longitude": -94.9327408699,
    "accessName": "Elk Lake Wetland Complex",
    "riverName": "Elk Lake",
    "type": "Public",
    "otherName": "Ditch Number 60"
  },
  {
    "department": "Iowa Department of Natural Resources",
    "state": "Iowa",
    "county": "Polk County",
    "latitude": 41.5656373061,
    "longitude": -93.5102477635,
    "accessName": "Pleasant Hill Boat Ramp",
    "riverName": "Des Moines River",
    "type": "Public",
    "otherName": "Yeader Creek-Des Moines River"
  },
  {
    "department": "Iowa Department of Natural Resources",
    "state": "Iowa",
    "county": "Palo Alto County",
    "latitude": 43.0286126071,
    "longitude": -94.8763880539,
    "accessName": "Silver Lake - Palo Alto",
    "riverName": "Silver Lake",
    "type": "Public",
    "otherName": "Drainage Ditch 62-Silver Creek"
  },
  {
    "department": "Iowa Department of Natural Resources",
    "state": "Iowa",
    "county": "Johnson County",
    "latitude": 41.6755902845,
    "longitude": -91.5344965798,
    "accessName": "City Park North Dubuque",
    "riverName": "Iowa River",
    "type": "Public",
    "otherName": "Ralston Creek-Iowa River"
  },
  {
    "department": "Iowa Department of Natural Resources",
    "state": "Iowa",
    "county": "Sac County",
    "latitude": 42.2777688758,
    "longitude": -95.0494653424,
    "accessName": "Black Hawk Wildlife Area",
    "riverName": "Black Hawk Wildlife Area water",
    "type": "Public",
    "otherName": "Wall Lake Inlet"
  },
  {
    "department": "Iowa Department of Natural Resources",
    "state": "Iowa",
    "county": "Sac County",
    "latitude": 42.2994261992,
    "longitude": -95.0452314416,
    "accessName": "Black Hawk Wildlife Area",
    "riverName": "Black Hawk Lake",
    "type": "Public",
    "otherName": "Wall Lake Inlet"
  },
  {
    "department": "Iowa Department of Natural Resources",
    "state": "Iowa",
    "county": "Sac County",
    "latitude": 42.273591388,
    "longitude": -95.0501466249,
    "accessName": "Black Hawk Wildlife Area",
    "riverName": "Black Hawk Wildlife Area water",
    "type": "Public",
    "otherName": "Wall Lake Inlet"
  },
  {
    "department": "Iowa Department of Natural Resources",
    "state": "Iowa",
    "county": "Sac County",
    "latitude": 42.2907070739,
    "longitude": -95.0474529654,
    "accessName": "Black Hawk Wildlife Area",
    "riverName": "Black Hawk Wildlife Area water",
    "type": "Public",
    "otherName": "Wall Lake Inlet"
  },
  {
    "department": "Iowa Department of Natural Resources",
    "state": "Iowa",
    "county": "Boone County",
    "latitude": 42.037004187,
    "longitude": -93.927830184,
    "accessName": "Hwy 30 Access",
    "riverName": "Des Moines River",
    "type": "Public",
    "otherName": "Honey Creek-Des Moines River"
  },
  {
    "department": "Iowa Department of Natural Resources",
    "state": "Iowa",
    "county": "Pottawattamie County",
    "latitude": 41.1891755503,
    "longitude": -95.8637008029,
    "accessName": "Manawa",
    "riverName": "Missouri River",
    "type": "Public",
    "otherName": "Lake Manawa-Missouri River"
  },
  {
    "department": "Iowa Department of Natural Resources",
    "state": "Iowa",
    "county": "Black Hawk County",
    "latitude": 42.3227284805,
    "longitude": -92.144519315,
    "accessName": "McFarlane Park",
    "riverName": "West Fork Cedar River",
    "type": "Public",
    "otherName": "McFarlane State Park-Cedar River"
  },
  {
    "department": "Iowa Department of Natural Resources",
    "state": "Iowa",
    "county": "Carroll County",
    "latitude": 42.1533967155,
    "longitude": -94.6913030294,
    "accessName": "North Raccoon Access",
    "riverName": "North Raccoon River",
    "type": "Public",
    "otherName": "Marrowbone Creek-North Raccoon River"
  },
  {
    "department": "Iowa Department of Natural Resources",
    "state": "Iowa",
    "county": "Black Hawk County",
    "latitude": 42.414306388,
    "longitude": -92.2170821479,
    "accessName": "Gilbertville Park",
    "riverName": "West Fork Cedar River",
    "type": "Public",
    "otherName": "Sink Creek-Cedar River"
  },
  {
    "department": "Iowa Department of Natural Resources",
    "state": "Iowa",
    "county": "Johnson County",
    "latitude": 41.7721428449,
    "longitude": -91.5652902582,
    "accessName": "Mehaffey Bridge",
    "riverName": "Iowa River - Coralville Lake",
    "type": "Public",
    "otherName": "Coralville Lake-Iowa River"
  },
  {
    "department": "Iowa Department of Natural Resources",
    "state": "Iowa",
    "county": "Johnson County",
    "latitude": 41.7939039611,
    "longitude": -91.6394083066,
    "accessName": "Mid River",
    "riverName": "Iowa River",
    "type": "Public",
    "otherName": "Coralville Lake-Iowa River"
  },
  {
    "department": "Iowa Department of Natural Resources",
    "state": "Iowa",
    "county": "Johnson County",
    "latitude": 41.8139892763,
    "longitude": -91.5925478231,
    "accessName": "Sandy Beach",
    "riverName": "Iowa River - Coralville Lake",
    "type": "Public",
    "otherName": "Coralville Lake-Iowa River"
  },
  {
    "department": "Iowa Department of Natural Resources",
    "state": "Iowa",
    "county": "Tama County",
    "latitude": 41.956627724,
    "longitude": -92.4545436699,
    "accessName": "Otter Creek Marsh",
    "riverName": "Otter Creek Marsh water",
    "type": "Public",
    "otherName": "Otter Creek"
  },
  {
    "department": "Iowa Department of Natural Resources",
    "state": "Iowa",
    "county": "Tama County",
    "latitude": 41.9359232248,
    "longitude": -92.4301813623,
    "accessName": "Otter Creek Marsh",
    "riverName": "Otter Creek Marsh water",
    "type": "Public",
    "otherName": "Otter Creek"
  },
  {
    "department": "Iowa Department of Natural Resources",
    "state": "Iowa",
    "county": "Tama County",
    "latitude": 41.9372502363,
    "longitude": -92.4164566611,
    "accessName": "Otter Creek Marsh",
    "riverName": "Otter Creek Marsh water",
    "type": "Public",
    "otherName": "Otter Creek"
  },
  {
    "department": "Iowa Department of Natural Resources",
    "state": "Iowa",
    "county": "Iowa County",
    "latitude": 41.8597008274,
    "longitude": -92.2766913265,
    "accessName": "Belle Plane Access",
    "riverName": "Iowa River",
    "type": "Public",
    "otherName": "Village of Belle Plaine-Iowa River"
  },
  {
    "department": "Iowa Department of Natural Resources",
    "state": "Iowa",
    "county": "Linn County",
    "latitude": 42.1311864806,
    "longitude": -91.3836023521,
    "accessName": "Matsell Bridge",
    "riverName": "Wapsipinicon River",
    "type": "Public",
    "otherName": "Crows Creek-Wapsipinicon River"
  },
  {
    "department": "Iowa Department of Natural Resources",
    "state": "Iowa",
    "county": "Marion County",
    "latitude": 41.3859619033,
    "longitude": -93.0241987784,
    "accessName": "Whitebreast Access",
    "riverName": "Des Moines River - Lake Red Rock",
    "type": "Public",
    "otherName": "Wallingslock Creek-Des Moines River"
  },
  {
    "department": "Iowa Department of Natural Resources",
    "state": "Iowa",
    "county": "Marion County",
    "latitude": 41.397213396,
    "longitude": -92.9952719754,
    "accessName": "Red Rock Marina Ramp",
    "riverName": "Des Moines River - Lake Red Rock",
    "type": "Public",
    "otherName": "Wallingslock Creek-Des Moines River"
  },
  {
    "department": "Iowa Department of Natural Resources",
    "state": "Iowa",
    "county": "Johnson County",
    "latitude": 41.7295644486,
    "longitude": -91.5350446983,
    "accessName": "West Overlook",
    "riverName": "Iowa River - Coralville Lake",
    "type": "Public",
    "otherName": "Coralville Lake-Iowa River"
  },
  {
    "department": "Iowa Department of Natural Resources",
    "state": "Iowa",
    "county": "Johnson County",
    "latitude": 41.7252099792,
    "longitude": -91.5317589511,
    "accessName": "Coralville Dam Boat Access",
    "riverName": "Iowa River - Coralville Lake",
    "type": "Public",
    "otherName": "Coralville Lake-Iowa River"
  },
  {
    "department": "Iowa Department of Natural Resources",
    "state": "Iowa",
    "county": "Guthrie County",
    "latitude": 41.6196361956,
    "longitude": -94.2869280895,
    "accessName": "Cowles Access",
    "riverName": "Middle Raccoon River",
    "type": "Public",
    "otherName": "City of Panora-Middle Raccoon River"
  },
  {
    "department": "Iowa Department of Natural Resources",
    "state": "Iowa",
    "county": "Louisa County",
    "latitude": 41.2602525306,
    "longitude": -91.1378140812,
    "accessName": "Klum Lake Wildlife Area",
    "riverName": "Klum Lake",
    "type": "Public",
    "otherName": "Lower Muscatine Slough"
  },
  {
    "department": "Iowa Department of Natural Resources",
    "state": "Iowa",
    "county": "Iowa County",
    "latitude": 41.839334758,
    "longitude": -92.1985313483,
    "accessName": "Koszta Access",
    "riverName": "Iowa River",
    "type": "Public",
    "otherName": "Village of Belle Plaine-Iowa River"
  },
  {
    "department": "Iowa Department of Natural Resources",
    "state": "Iowa",
    "county": "Keokuk County",
    "latitude": 41.2363213725,
    "longitude": -92.1863382378,
    "accessName": "South Skunk River Access",
    "riverName": "South Skunk River",
    "type": "Public",
    "otherName": "South Skunk River"
  },
  {
    "department": "Iowa Department of Natural Resources",
    "state": "Iowa",
    "county": "Buchanan County",
    "latitude": 42.3152060647,
    "longitude": -91.7153313504,
    "accessName": "Troy Mills Wildlife Area",
    "riverName": "Wapsipinicon River",
    "type": "Public",
    "otherName": "Dry Creek-Wapsipinicon River"
  },
  {
    "department": "Iowa Department of Natural Resources",
    "state": "Iowa",
    "county": "Monona County",
    "latitude": 42.0093477658,
    "longitude": -96.2395906668,
    "accessName": "Sunset Island",
    "riverName": "Missouri River",
    "type": "Public",
    "otherName": "Lake Quinnebaugh-Missouri River"
  },
  {
    "department": "Iowa Department of Natural Resources",
    "state": "Iowa",
    "county": "Monona County",
    "latitude": 42.0073131454,
    "longitude": -96.2367638544,
    "accessName": "Upper Decatur Bend Wildlife Area",
    "riverName": "Missouri River",
    "type": "Public",
    "otherName": "Lake Quinnebaugh-Missouri River"
  },
  {
    "department": "Iowa Department of Natural Resources",
    "state": "Iowa",
    "county": "Clinton County",
    "latitude": 41.768786236,
    "longitude": -90.568705245,
    "accessName": "Wapsi Wildlife Area",
    "riverName": "Wapsi Wildlife Area lake",
    "type": "Public",
    "otherName": "Barber Creek-Wapsipinicon River"
  },
  {
    "department": "Iowa Department of Natural Resources",
    "state": "Iowa",
    "county": "Jones County",
    "latitude": 42.0981647052,
    "longitude": -91.2877025532,
    "accessName": "Wapsipinicon State Park Boat Ramp",
    "riverName": "Wapsipinicon River",
    "type": "Public",
    "otherName": "Dutch Creek-Wapsipinicon River"
  },
  {
    "department": "Iowa Department of Natural Resources",
    "state": "Iowa",
    "county": "Ida County",
    "latitude": 42.5399783062,
    "longitude": -95.7347313985,
    "accessName": "Washta Access",
    "riverName": "Little Sioux River",
    "type": "Public",
    "otherName": "Bitter Creek-Little Sioux River"
  },