[
  {
    "department": "Kentucky Department of Fish and Wildlife Resources",
    "state": "Indiana",
    "county": "Switzerland County",
    "latitude": 38.7793404809,
    "longitude": -84.9884150176,
    "accessName": "Damvue River Camp",
    "riverName": "Ohio River",
    "type": "Public",
    "otherName": "Hunt Creek-Ohio River"
  },
  {
    "department": "Kentucky Department of Fish and Wildlife Resources",
    "state": "Indiana",
    "county": "Switzerland County",
    "latitude": 38.8439251346,
    "longitude": -84.8192557657,
    "accessName": "Patriot Launch",
    "riverName": "Ohio River",
    "type": "Public",
    "otherName": "Big Sugar Creek-Ohio River"
  },
  {
    "department": "Kentucky Department of Fish and Wildlife Resources",
    "state": "Indiana",
    "county": "Switzerland County",
    "latitude": 38.7445196342,
    "longitude": -85.0639585212,
    "accessName": "Paul Ogle Riverfront Park",
    "riverName": "Ohio River",
    "type": "Public",
    "otherName": "McCools Creek-Ohio River"
  },
  {
    "department": "Kentucky Department of Fish and Wildlife Resources",
    "state": "Indiana",
    "county": "Ohio County",
    "latitude": 38.9430463708,
    "longitude": -84.8556870691,
    "accessName": "Rising Sun Municipal Park",
    "riverName": "Ohio River",
    "type": "Public",
    "otherName": "Middle Creek-Ohio River"
  },
  {
    "department": "Kentucky Department of Fish and Wildlife Resources",
    "state": "Indiana",
    "county": "Switzerland County",
    "latitude": 38.7088425679,
    "longitude": -85.125992389,
    "accessName": "Swiss Haven Campground",
    "riverName": "Ohio River",
    "type": "Public",
    "otherName": "McCools Creek-Ohio River"
  },
  {
    "department": "Kentucky Department of Fish and Wildlife Resources",
    "state": "Indiana",
    "county": "Dearborn County",
    "latitude": 39.0818221614,
    "longitude": -84.8718694113,
    "accessName": "Tanners Creek Launch",
    "riverName": "Ohio River",
    "type": "Public",
    "otherName": "Salt Fork-Tanners Creek"
  },
  {
    "department": "Kentucky Department of Fish and Wildlife Resources",
    "state": "Indiana",
    "county": "Perry County",
    "latitude": 37.9151430358,
    "longitude": -86.6718667338,
    "accessName": "Rocky Point Marina",
    "riverName": "Ohio River",
    "type": "Public",
    "otherName": "Indian Creek-Ohio River"
  },
  {
    "department": "Kentucky Department of Fish and Wildlife Resources",
    "state": "Indiana",
    "county": "Perry County",
    "latitude": 37.9454100003,
    "longitude": -86.7719999995,
    "accessName": "Tell City",
    "riverName": "Ohio River",
    "type": "Public",
    "otherName": "South Yellow Creek Fork-Ohio River"
  },
  {
    "department": "Kentucky Department of Fish and Wildlife Resources",
    "state": "Indiana",
    "county": "Hamilton County",
    "latitude": 39.0896600003,
    "longitude": -84.4313699999,
    "accessName": "Schmidt Field",
    "riverName": "Ohio River",
    "type": "Public",
    "otherName": "Town of Newport-Ohio River"
  },
  {
    "department": "Kentucky Department of Fish and Wildlife Resources",
    "state": "Indiana",
    "county": "Ohio County",
    "latitude": 38.9234459784,
    "longitude": -84.8795699997,
    "accessName": "Arnold Creek Launching",
    "riverName": "Arnold Creek",
    "type": "Public",
    "otherName": "Arnold Creek"
  },
  {
    "department": "Kentucky Department of Fish and Wildlife Resources",
    "state": "Indiana",
    "county": "Dearborn County",
    "latitude": 39.0544901708,
    "longitude": -84.8978811653,
    "accessName": "Aurora Marina",
    "riverName": "Ohio River",
    "type": "Public",
    "otherName": "Taylor Creek-Ohio River"
  },
  {
    "department": "Kentucky Department of Fish and Wildlife Resources",
    "state": "Indiana",
    "county": "Dearborn County",
    "latitude": 39.0579899999,
    "longitude": -84.9058199998,
    "accessName": "Sunset Bay Marina",
    "riverName": "South Hogan Creek",
    "type": "Public",
    "otherName": "Allen Branch-South Hogan Creek"
  },
  {
    "department": "Kentucky Department of Fish and Wildlife Resources",
    "state": "Indiana",
    "county": "Switzerland County",
    "latitude": 38.7990400003,
    "longitude": -84.8731499995,
    "accessName": "Bryant Creek Launching",
    "riverName": "Ohio River",
    "type": "Public",
    "otherName": "Bryant Creek"
  },
  {
    "department": "Kentucky Department of Fish and Wildlife Resources",
    "state": "Indiana",
    "county": "Dearborn County",
    "latitude": 39.0390600003,
    "longitude": -84.8878400004,
    "accessName": "Camp Shore Campground",
    "riverName": "Ohio River",
    "type": "Public",
    "otherName": "Taylor Creek-Ohio River"
  },
  {
    "department": "Kentucky Department of Fish and Wildlife Resources",
    "state": "Indiana",
    "county": "Switzerland County",
    "latitude": 38.6908099999,
    "longitude": -85.1633499996,
    "accessName": "Cap's Marina",
    "riverName": "Ohio River",
    "type": "Public",
    "otherName": "McCools Creek-Ohio River"
  },
  {
    "department": "Kentucky Department of Fish and Wildlife Resources",
    "state": "Indiana",
    "county": "Perry County",
    "latitude": 37.9933850383,
    "longitude": -86.8037810566,
    "accessName": "Troy Public Site",
    "riverName": "Ohio River",
    "type": "Public",
    "otherName": "South Yellow Creek Fork-Ohio River"
  },
  {
    "department": "Kentucky Department of Fish and Wildlife Resources",
    "state": "Indiana",
    "county": "Clark County",
    "latitude": 38.2912580549,
    "longitude": -85.6940788734,
    "accessName": "Duffy's Landing",
    "riverName": "Ohio River",
    "type": "Public",
    "otherName": "Lentizier Creek-Ohio River"
  },
  {
    "department": "Kentucky Department of Fish and Wildlife Resources",
    "state": "Indiana",
    "county": "Clark County",
    "latitude": 38.2873536971,
    "longitude": -85.777508794,
    "accessName": "George Rogers Clark Homesite",
    "riverName": "Ohio River",
    "type": "Public",
    "otherName": "Fall Run-Ohio River"
  },
  {
    "department": "Kentucky Department of Fish and Wildlife Resources",
    "state": "Indiana",
    "county": "Floyd County",
    "latitude": 38.28158,
    "longitude": -85.8214499999,
    "accessName": "Jaycees",
    "riverName": "Ohio River",
    "type": "Public",
    "otherName": "Fall Run-Ohio River"
  },
  {
    "department": "Kentucky Department of Fish and Wildlife Resources",
    "state": "Indiana",
    "county": "Jefferson County",
    "latitude": 38.7325400002,
    "longitude": -85.3797,
    "accessName": "Madison City",
    "riverName": "Ohio River",
    "type": "Public",
    "otherName": "Crooked Creek-Ohio River"
  },
  {
    "department": "Kentucky Department of Fish and Wildlife Resources",
    "state": "Indiana",
    "county": "Harrison County",
    "latitude": 38.0220897466,
    "longitude": -86.2042176455,
    "accessName": "Mauckport Dock",
    "riverName": "Ohio River",
    "type": "Public",
    "otherName": "French Creek-Ohio River"
  },
  {
    "department": "Kentucky Department of Fish and Wildlife Resources",
    "state": "Indiana",
    "county": "Jefferson County",
    "latitude": 38.7107899999,
    "longitude": -85.22863,
    "accessName": "Sandy Beach Marina",
    "riverName": "Ohio River",
    "type": "Public",
    "otherName": "Locust Creek-Ohio River"
  },
  {
    "department": "Kentucky Department of Fish and Wildlife Resources",
    "state": "Indiana",
    "county": "Vanderburgh County",
    "latitude": 37.9215799997,
    "longitude": -87.6281,
    "accessName": "Dogtown Boat",
    "riverName": "Ohio River",
    "type": "Public",
    "otherName": "East Creek-Ohio River"
  },
  {
    "department": "Kentucky Department of Fish and Wildlife Resources",
    "state": "Indiana",
    "county": "Posey County",
    "latitude": 37.7852422324,
    "longitude": -87.9414808727,
    "accessName": "Hovey Lake",
    "riverName": "Ohio River",
    "type": "Public",
    "otherName": "Beaverdam Creek-Ohio River"
  },
  {
    "department": "Kentucky Department of Fish and Wildlife Resources",
    "state": "Indiana",
    "county": "Vanderburgh County",
    "latitude": 37.9304500002,
    "longitude": -87.4705200004,
    "accessName": "Angel Mounds Boat",
    "riverName": "Ohio River",
    "type": "Public",
    "otherName": "Kolb Ditch-Ohio River"
  },
  {
    "department": "Kentucky Department of Fish and Wildlife Resources",
    "state": "Indiana",
    "county": "Crawford County",
    "latitude": 38.182505622,
    "longitude": -86.3291700088,
    "accessName": "Blue River",
    "riverName": "Ohio River",
    "type": "Public",
    "otherName": "Hickman Branch-Blue River"
  },
  {
    "department": "U.S. Geological Survey",
    "state": "Indiana",
    "county": "Ohio County",
    "latitude": 39.0128167259,
    "longitude": -84.9047027451,
    "accessName": "Holiday Hills Resort and Marina",
    "riverName": "Laughery Creek",
    "type": "Semi-Private",
    "otherName": "Laughery Creek"
  },
  {
    "department": "U.S. Geological Survey",
    "state": "Indiana",
    "county": "Dearborn County",
    "latitude": 39.0516409173,
    "longitude": -84.8968596052,
    "accessName": "Lesko Park",
    "riverName": "Ohio River",
    "type": "Public",
    "otherName": "Taylor Creek-Ohio River"
  },
  {
    "department": "U.S. Geological Survey",
    "state": "Indiana",
    "county": "Posey County",
    "latitude": 37.9285065714,
    "longitude": -87.8887091726,
    "accessName": "Mt. Vernon Boat Club",
    "riverName": "Ohio River",
    "type": "Semi-Private",
    "otherName": "Beaverdam Creek-Ohio River"
  },
  {
    "department": "U.S. Geological Survey",
    "state": "Indiana",
    "county": "Vanderburgh County",
    "latitude": 37.935150882,
    "longitude": -87.6238694806,
    "accessName": "Small Crafter's",
    "riverName": "Ohio River",
    "type": "Public",
    "otherName": "East Creek-Ohio River"
  },
  {
    "department": "U.S. Geological Survey",
    "state": "Indiana",
    "county": "Perry County",
    "latitude": 38.0269044949,
    "longitude": -86.5259882738,
    "accessName": "Derby Community Center",
    "riverName": "Ohio RIver",
    "type": "Semi-Private",
    "otherName": "Watson Run-Ohio River"
  },
  {
    "department": "U.S. Army Corps of Engineers",
    "state": "Indiana",
    "county": "Crawford County",
    "latitude": 38.42271,
    "longitude": -86.26114,
    "accessName": "Tailwater",
    "riverName": "Patoka Lake",
    "type": "Public",
    "otherName": "City of Fredricksburg-Blue River"
  },
  {
    "department": "U.S. Army Corps of Engineers",
    "state": "Indiana",
    "county": "Wabash County",
    "latitude": 40.8119342919,
    "longitude": -85.683847127,
    "accessName": "Lagro/Tailwater",
    "riverName": "Salamonie Lake",
    "type": "Public",
    "otherName": "Indian Creek-Salamonie River"
  },
  {
    "department": "U.S. Army Corps of Engineers",
    "state": "Indiana",
    "county": "Monroe County",
    "latitude": 39.0310911052,
    "longitude": -86.4464381327,
    "accessName": "Allens Creek",
    "riverName": "Monroe Lake",
    "type": "Public",
    "otherName": "Allens Creek-Lake Monroe"
  },
  {
    "department": "U.S. Army Corps of Engineers",
    "state": "Indiana",
    "county": "Monroe County",
    "latitude": 39.069055668,
    "longitude": -86.4092416245,
    "accessName": "Cutright",
    "riverName": "Monroe Lake",
    "type": "Public",
    "otherName": "Jacobs Creek-Monroe Lake"
  },
  {
    "department": "U.S. Army Corps of Engineers",
    "state": "Indiana",
    "county": "Monroe County",
    "latitude": 39.06948,
    "longitude": -86.4551,
    "accessName": "Moores Creek",
    "riverName": "Monroe Lake",
    "type": "Public",
    "otherName": "Moore Creek-Lake Monroe"
  },
  {
    "department": "U.S. Army Corps of Engineers",
    "state": "Indiana",
    "county": "Monroe County",
    "latitude": 39.107037485,
    "longitude": -86.3986743086,
    "accessName": "Pine Grove State Recreation Area",
    "riverName": "Monroe Lake",
    "type": "Public",
    "otherName": "Jacobs Creek-Monroe Lake"
  },
  {
    "department": "U.S. Army Corps of Engineers",
    "state": "Indiana",
    "county": "Monroe County",
    "latitude": 39.0210991273,
    "longitude": -86.4606269642,
    "accessName": "Hardin Ridge",
    "riverName": "Monroe Lake",
    "type": "Public",
    "otherName": "Allens Creek-Lake Monroe"
  },
  {
    "department": "U.S. Army Corps of Engineers",
    "state": "Indiana",
    "county": "Monroe County",
    "latitude": 39.01268,
    "longitude": -86.51268,
    "accessName": "Salt Creek Ramp",
    "riverName": "Monroe Lake",
    "type": "Public",
    "otherName": "Allens Creek-Lake Monroe"
  },
  {
    "department": "U.S. Army Corps of Engineers",
    "state": "Indiana",
    "county": "Wabash County",
    "latitude": 40.68044228,
    "longitude": -85.8957690415,
    "accessName": "Red Bridge",
    "riverName": "Mississinewa Lake",
    "type": "Public",
    "otherName": "Mississinewa Lake-Mississinewa River"
  },
  {
    "department": "U.S. Army Corps of Engineers",
    "state": "Indiana",
    "county": "Parke County",
    "latitude": 39.7538453685,
    "longitude": -87.0595698346,
    "accessName": "Hollandsburg",
    "riverName": "Cecil M Harden Lake",
    "type": "Public",
    "otherName": "Mansfield Reservoir-Big Raccoon River"
  },
  {
    "department": "U.S. Army Corps of Engineers",
    "state": "Indiana",
    "county": "Parke County",
    "latitude": 39.7182349223,
    "longitude": -87.0749025389,
    "accessName": "Mansfield Ramp",
    "riverName": "Cecil M Harden Lake",
    "type": "Public",
    "otherName": "Mansfield Reservoir-Big Raccoon River"
  },
  {
    "department": "U.S. Army Corps of Engineers",
    "state": "Indiana",
    "county": "Parke County",
    "latitude": 39.7786585318,
    "longitude": -87.0129026207,
    "accessName": "Portland Mills",
    "riverName": "Cecil M Harden Lake",
    "type": "Public",
    "otherName": "Mansfield Reservoir-Big Raccoon River"
  },
  {
    "department": "U.S. Army Corps of Engineers",
    "state": "Indiana",
    "county": "Parke County",
    "latitude": 39.7312112689,
    "longitude": -87.0767797829,
    "accessName": "Raccoon State Recreation Area",
    "riverName": "Cecil M Harden Lake",
    "type": "Public",
    "otherName": "Mansfield Reservoir-Big Raccoon River"
  },
  {
    "department": "U.S. Army Corps of Engineers",
    "state": "Indiana",
    "county": "Parke County",
    "latitude": 39.7307934922,
    "longitude": -87.0549627959,
    "accessName": "Walker Ramp",
    "riverName": "Cecil M Harden Lake",
    "type": "Public",
    "otherName": "Mansfield Reservoir-Big Raccoon River"
  },
  {
    "department": "U.S. Army Corps of Engineers",
    "state": "Indiana",
    "county": "Franklin County",
    "latitude": 39.4438438064,
    "longitude": -84.9900919888,
    "accessName": "Bonwell Hill",
    "riverName": "Brookville Lake",
    "type": "Public",
    "otherName": "Brookville Lake-East Fork Whitewater River"
  },
  {
    "department": "U.S. Army Corps of Engineers",
    "state": "Indiana",
    "county": "Union County",
    "latitude": 39.5896634338,
    "longitude": -84.9841306687,
    "accessName": "Dunlapsville",
    "riverName": "Brookville Lake",
    "type": "Public",
    "otherName": "Ellys Creek-East Fork Whitewater River"
  },
  {
    "department": "U.S. Army Corps of Engineers",
    "state": "Indiana",
    "county": "Union County",
    "latitude": 39.53834,
    "longitude": -85.00847,
    "accessName": "Egypt Hollow",
    "riverName": "Brookville Lake",
    "type": "Public",
    "otherName": "Brookville Lake-East Fork Whitewater River"
  },
  {
    "department": "U.S. Army Corps of Engineers",
    "state": "Indiana",
    "county": "Union County",
    "latitude": 39.5363362358,
    "longitude": -84.9914233943,
    "accessName": "Fairfield Ramp",
    "riverName": "Brookville Lake",
    "type": "Public",
    "otherName": "Brookville Lake-East Fork Whitewater River"
  },
  {
    "department": "U.S. Army Corps of Engineers",
    "state": "Indiana",
    "county": "Franklin County",
    "latitude": 39.4798414433,
    "longitude": -84.9646627734,
    "accessName": "Garr Hill",
    "riverName": "Brookville Lake",
    "type": "Public",
    "otherName": "Templeton Creek"
  },
  {
    "department": "U.S. Army Corps of Engineers",
    "state": "Indiana",
    "county": "Union County",
    "latitude": 39.5545436023,
    "longitude": -84.9881334186,
    "accessName": "Hanna Creek",
    "riverName": "Brookville Lake",
    "type": "Public",
    "otherName": "Hanna Creek"
  },
  {
    "department": "U.S. Army Corps of Engineers",
    "state": "Indiana",
    "county": "Union County",
    "latitude": 39.5797234876,
    "longitude": -85.0015411082,
    "accessName": "Quakertown Ramp",
    "riverName": "Brookville Lake",
    "type": "Public",
    "otherName": "Ellys Creek-East Fork Whitewater River"
  },
  {
    "department": "U.S. Army Corps of Engineers",
    "state": "Indiana",
    "county": "Union County",
    "latitude": 39.6012315121,
    "longitude": -84.9839752868,
    "accessName": "Silver Creek Ramp",
    "riverName": "Brookville Lake",
    "type": "Public",
    "otherName": "Richalnd Creek-East Fork Whitewater River"
  },
  {
    "department": "U.S. Army Corps of Engineers",
    "state": "Indiana",
    "county": "Franklin County",
    "latitude": 39.4840394677,
    "longitude": -84.9782758421,
    "accessName": "Templeton Creek",
    "riverName": "Brookville Lake",
    "type": "Public",
    "otherName": "Templeton Creek"
  },
  {
    "department": "U.S. Army Corps of Engineers",
    "state": "Indiana",
    "county": "Union County",
    "latitude": 39.6267473543,
    "longitude": -84.9926127551,
    "accessName": "Treaty Line",
    "riverName": "Brookville Lake",
    "type": "Public",
    "otherName": "Richalnd Creek-East Fork Whitewater River"
  },
  {
    "department": "U.S. Army Corps of Engineers",
    "state": "Indiana",
    "county": "Orange County",
    "latitude": 38.4378198382,
    "longitude": -86.6615758474,
    "accessName": "Jackson",
    "riverName": "Patoka Lake",
    "type": "Public",
    "otherName": "Painter Creek-Patoka River"
  },
  {
    "department": "U.S. Army Corps of Engineers",
    "state": "Indiana",
    "county": "Dubois County",
    "latitude": 38.4067155448,
    "longitude": -86.7069640455,
    "accessName": "Lick Fork",
    "riverName": "Patoka Lake",
    "type": "Public",
    "otherName": "Lick Fork-Patoka Lake"
  },
  {
    "department": "U.S. Army Corps of Engineers",
    "state": "Indiana",
    "county": "Crawford County",
    "latitude": 38.3825529903,
    "longitude": -86.586833581,
    "accessName": "Little Patoka",
    "riverName": "Patoka Lake",
    "type": "Public",
    "otherName": "Little Patoka River-Patoka Lake"
  },
  {
    "department": "U.S. Army Corps of Engineers",
    "state": "Indiana",
    "county": "Orange County",
    "latitude": 38.40597,
    "longitude": -86.60156,
    "accessName": "Osborne",
    "riverName": "Patoka Lake",
    "type": "Public",
    "otherName": "Dumpling Branch-Patoka River"
  },
  {
    "department": "U.S. Army Corps of Engineers",
    "state": "Indiana",
    "county": "Orange County",
    "latitude": 38.4376221984,
    "longitude": -86.6045084987,
    "accessName": "Painter Creek",
    "riverName": "Patoka Lake",
    "type": "Public",
    "otherName": "Painter Creek-Patoka River"
  },
  {
    "department": "U.S. Army Corps of Engineers",
    "state": "Indiana",
    "county": "Dubois County",
    "latitude": 38.3728936109,
    "longitude": -86.6958789852,
    "accessName": "South Lick Fork",
    "riverName": "Patoka Lake",
    "type": "Public",
    "otherName": "Lick Fork-Patoka Lake"
  },
  {
    "department": "U.S. Army Corps of Engineers",
    "state": "Indiana",
    "county": "Orange County",
    "latitude": 38.40543,
    "longitude": -86.56936,
    "accessName": "Wall's Lake",
    "riverName": "Patoka Lake",
    "type": "Public",
    "otherName": "Dumpling Branch-Patoka River"
  },
  {
    "department": "U.S. Army Corps of Engineers",
    "state": "Indiana",
    "county": "Wabash County",
    "latitude": 40.7920256169,
    "longitude": -85.6673067309,
    "accessName": "Dora",
    "riverName": "Salamonie Lake",
    "type": "Public",
    "otherName": "Indian Creek-Salamonie River"
  },
  {
    "department": "U.S. Army Corps of Engineers",
    "state": "Indiana",
    "county": "Huntington County",
    "latitude": 40.7507511967,
    "longitude": -85.5814972907,
    "accessName": "Mount Etna",
    "riverName": "Salamonie Lake",
    "type": "Public",
    "otherName": "Salamonie Lake-Salamonie River"
  },
  {
    "department": "U.S. Army Corps of Engineers",
    "state": "Indiana",
    "county": "Wabash County",
    "latitude": 40.8035479766,
    "longitude": -85.6648343507,
    "accessName": "Mount Hope",
    "riverName": "Salamonie Lake",
    "type": "Public",
    "otherName": "Indian Creek-Salamonie River"
  },
  {
    "department": "U.S. Army Corps of Engineers",
    "state": "Indiana",
    "county": "Monroe County",
    "latitude": 39.0111971814,
    "longitude": -86.4859764498,
    "accessName": "Fairfax",
    "riverName": "Monroe Lake",
    "type": "Public",
    "otherName": "Allens Creek-Lake Monroe"
  },
  {
    "department": "U.S. Army Corps of Engineers",
    "state": "Indiana",
    "county": "Owen County",
    "latitude": 39.4526930404,
    "longitude": -86.8680240482,
    "accessName": "Cunot Boat Ramp",
    "riverName": "Cagles Mill Lake",
    "type": "Public",
    "otherName": "Cagles Mill Lake-Mill Creek"
  },
  {
    "department": "U.S. Army Corps of Engineers",
    "state": "Indiana",
    "county": "Putnam County",
    "latitude": 39.4756825178,
    "longitude": -86.8994281954,
    "accessName": "Lieber State Recreation Area",
    "riverName": "Cagles Mill Lake",
    "type": "Public",
    "otherName": "Cagles Mill Lake-Mill Creek"
  },
  {
    "department": "U.S. Army Corps of Engineers",
    "state": "Indiana",
    "county": "Miami County",
    "latitude": 40.7051862611,
    "longitude": -85.9541269285,
    "accessName": "Miami",
    "riverName": "Mississinewa Lake",
    "type": "Public",
    "otherName": "Mississinewa Lake-Mississinewa River"
  },
  {
    "department": "U.S. Army Corps of Engineers",
    "state": "Indiana",
    "county": "Orange County",
    "latitude": 38.4054176338,
    "longitude": -86.6255054024,
    "accessName": "Newton-Stewart",
    "riverName": "Patoka Lake",
    "type": "Public",
    "otherName": "Painter Creek-Patoka River"
  },
  {
    "department": "U.S. Army Corps of Engineers",
    "state": "Indiana",
    "county": "Union County",
    "latitude": 39.55161,
    "longitude": -84.97865,
    "accessName": "Wildlife Area Access Point",
    "riverName": "Caesar Creek Lake",
    "type": "Public",
    "otherName": "Hanna Creek"
  },
  {
    "department": "U.S. Army Corps of Engineers",
    "state": "Indiana",
    "county": "Wabash County",
    "latitude": 40.7143448365,
    "longitude": -85.9367126667,
    "accessName": "Frances Slocum",
    "riverName": "Mississinewa Lake",
    "type": "Public",
    "otherName": "Mississinewa Lake-Mississinewa River"
  },
  {
    "department": "U.S. Army Corps of Engineers",
    "state": "Indiana",
    "county": "Wabash County",
    "latitude": 40.6731996099,
    "longitude": -85.8443113943,
    "accessName": "Pearson Mill",
    "riverName": "Mississinewa Lake",
    "type": "Public",
    "otherName": "Forked Branch-Mississinewa River"
  },
  {
    "department": "U.S. Army Corps of Engineers",
    "state": "Indiana",
    "county": "Wabash County",
    "latitude": 40.6967796839,
    "longitude": -85.9332660927,
    "accessName": "Miami State Recreation Area",
    "riverName": "Mississinewa Lake",
    "type": "Public",
    "otherName": "Mississinewa Lake-Mississinewa River"
  },
  {
    "department": "U.S. Army Corps of Engineers",
    "state": "Indiana",
    "county": "Huntington County",
    "latitude": 40.7726402197,
    "longitude": -85.6394399764,
    "accessName": "Lost Bridge State Recreation Area",
    "riverName": "Salamonie Lake",
    "type": "Public",
    "otherName": "Rush Creek"
  },
  {
    "department": "Indiana Department of Natural Resources",
    "state": "Indiana",
    "county": "Daviess County",
    "latitude": 38.7942327098,
    "longitude": -87.240694583,
    "accessName": "Carnahan",
    "riverName": "White River",
    "type": "Public",
    "otherName": "Smothers Creek-White River"
  },
  {
    "department": "Indiana Department of Natural Resources",
    "state": "Indiana",
    "county": "Fountain County",
    "latitude": 40.29271225,
    "longitude": -87.25732359,
    "accessName": "Attica",
    "riverName": "Wabash River",
    "type": "Public",
    "otherName": "Fall Branch-Wabash River"
  },
  {
    "department": "Indiana Department of Natural Resources",
    "state": "Indiana",
    "county": "Lawrence County",
    "latitude": 38.75521157,
    "longitude": -86.37861448,
    "accessName": "Lawrenceport",
    "riverName": "East Fork White River",
    "type": "Public",
    "otherName": "Clifty Creek-East Fork White River"
  },
  {
    "department": "Indiana Department of Natural Resources",
    "state": "Indiana",
    "county": "Daviess County",
    "latitude": 38.90000346,
    "longitude": -87.10304046,
    "accessName": "Elnora",
    "riverName": "White River",
    "type": "Public",
    "otherName": "Vertrees Ditch-White River"
  },
  {
    "department": "Indiana Department of Natural Resources",
    "state": "Indiana",
    "county": "Knox County",
    "latitude": 38.5907275774,
    "longitude": -87.6388058702,
    "accessName": "Clark's Landing",
    "riverName": "Wabash River",
    "type": "Public",
    "otherName": "Big Slough-Wabash River"
  },
  {
    "department": "Indiana Department of Natural Resources",
    "state": "Indiana",
    "county": "White County",
    "latitude": 40.7540494978,
    "longitude": -86.7550663882,
    "accessName": "Monticello",
    "riverName": "Tippecanoe River",
    "type": "Public",
    "otherName": "Lake Freeman-Tippecanoe River"
  },
  {
    "department": "Indiana Department of Natural Resources",
    "state": "Indiana",
    "county": "Carroll County",
    "latitude": 40.69253163,
    "longitude": -86.5723226,
    "accessName": "French Post Park",
    "riverName": "Wabash River",
    "type": "Public",
    "otherName": "Keeps Creek-Wabash River"
  },
  {
    "department": "Indiana Department of Natural Resources",
    "state": "Indiana",
    "county": "Pike County",
    "latitude": 38.32850633,
    "longitude": -87.11721399,
    "accessName": "Pikeville",
    "riverName": "Patoka River",
    "type": "Public",
    "otherName": "Rock Creek-Patoka River"
  },
  {
    "department": "Indiana Department of Natural Resources",
    "state": "Indiana",
    "county": "Fountain County",
    "latitude": 40.136581071,
    "longitude": -87.4037633925,
    "accessName": "Covington",
    "riverName": "Wabash River",
    "type": "Public",
    "otherName": "Collett Pond-Wabash River"
  },
  {
    "department": "Indiana Department of Natural Resources",
    "state": "Indiana",
    "county": "Elkhart County",
    "latitude": 41.72312824,
    "longitude": -85.81466298,
    "accessName": "Hermance Park",
    "riverName": "St. Joseph River",
    "type": "Public",
    "otherName": "Washington Tap Ditch-Saint Joseph River"
  },
  {
    "department": "Indiana Department of Natural Resources",
    "state": "Indiana",
    "county": "Gibson County",
    "latitude": 38.3190731729,
    "longitude": -87.3187709284,
    "accessName": "Oakland City New Lake",
    "riverName": "New Oakland City Lake",
    "type": "Public",
    "otherName": "Wheeler Creek-South Fork Patoka River"
  },
  {
    "department": "Indiana Department of Natural Resources",
    "state": "Indiana",
    "county": "Vigo County",
    "latitude": 39.55788811,
    "longitude": -87.41944972,
    "accessName": "Robert Hunter Kearns",
    "riverName": "Wabash River",
    "type": "Public",
    "otherName": "South Salt Creek-Wabash River"
  },
  {
    "department": "Indiana Department of Natural Resources",
    "state": "Indiana",
    "county": "Morgan County",
    "latitude": 39.49870436,
    "longitude": -86.35706695,
    "accessName": "Henderson Bridge",
    "riverName": "White River",
    "type": "Public",
    "otherName": "Sinking Creek-White River"
  },
  {
    "department": "Indiana Department of Natural Resources",
    "state": "Indiana",
    "county": "Whitley County",
    "latitude": 41.2373114,
    "longitude": -85.36009688,
    "accessName": "Harrold's Landing",
    "riverName": "Blue Lake",
    "type": "Public",
    "otherName": "Mud Run-Blue River"
  },
  {
    "department": "Indiana Department of Natural Resources",
    "state": "Indiana",
    "county": "Whitley County",
    "latitude": 41.2446777735,
    "longitude": -85.4434717834,
    "accessName": "Shriner Lake",
    "riverName": "Shriner Lake",
    "type": "Public",
    "otherName": "Thorn Creek-Blue River"
  },
  {
    "department": "Indiana Department of Natural Resources",
    "state": "Indiana",
    "county": "St. Joseph County",
    "latitude": 41.7013485662,
    "longitude": -86.3740239765,
    "accessName": "Lentz Landing",
    "riverName": "North Chain Lake",
    "type": "Public",
    "otherName": "Chain-O-Lakes Ditch-Geyer Ditch"
  },
  {
    "department": "Indiana Department of Natural Resources",
    "state": "Indiana",
    "county": "Fulton County",
    "latitude": 41.05020486,
    "longitude": -86.16887692,
    "accessName": "Lake Manitou",
    "riverName": "Lake Manitou",
    "type": "Public",
    "otherName": "Lake Manitou-Mill Creek"
  },
  {
    "department": "Indiana Department of Natural Resources",
    "state": "Indiana",
    "county": "Warrick County",
    "latitude": 37.91032748,
    "longitude": -87.29585608,
    "accessName": "Alcoa",
    "riverName": "Ohio River",
    "type": "Public",
    "otherName": "Red Bush-Little Pigeon Creek"
  },
  {
    "department": "Indiana Department of Natural Resources",
    "state": "Indiana",
    "county": "Martin County",
    "latitude": 38.66956556,
    "longitude": -86.78938561,
    "accessName": "Shoals",
    "riverName": "East Fork White River",
    "type": "Public",
    "otherName": "Beech Creek-East Fork White River"
  },
  {
    "department": "Indiana Department of Natural Resources",
    "state": "Indiana",
    "county": "Elkhart County",
    "latitude": 41.68809442,
    "longitude": -85.98223212,
    "accessName": "Sherman St. Bridge",
    "riverName": "St. Joseph River",
    "type": "Public",
    "otherName": "City of Elkhart-Saint Joseph River"
  },
  {
    "department": "Indiana Department of Natural Resources",
    "state": "Indiana",
    "county": "Elkhart County",
    "latitude": 41.50714833,
    "longitude": -85.75999344,
    "accessName": "Benton",
    "riverName": "Elkhart River",
    "type": "Public",
    "otherName": "Whetten Ditch-Elkhart River"
  },
  {
    "department": "Indiana Department of Natural Resources",
    "state": "Indiana",
    "county": "Vigo County",
    "latitude": 39.5105110728,
    "longitude": -87.5064746769,
    "accessName": "Green Valley Public Fishing Area",
    "riverName": "Green Valley Mine Pond",
    "type": "Public",
    "otherName": "East Little Sugar Creek-Sugar Creek"
  },
  {
    "department": "Indiana Department of Natural Resources",
    "state": "Indiana",
    "county": "Starke County",
    "latitude": 41.27120768,
    "longitude": -86.82597041,
    "accessName": "Kankakee & Yellow Rivers - The Points",
    "riverName": "Kankakee River",
    "type": "Public",
    "otherName": "Pine Creek-Bogus Run"
  },
  {
    "department": "Indiana Department of Natural Resources",
    "state": "Indiana",
    "county": "Dubois County",
    "latitude": 38.47200509,
    "longitude": -86.77524216,
    "accessName": "Crystal Station",
    "riverName": "Patoka River",
    "type": "Public",
    "otherName": "Davis Creek-Patoka River"
  },
  {
    "department": "Indiana Department of Natural Resources",
    "state": "Indiana",
    "county": "Fulton County",
    "latitude": 41.06102109,
    "longitude": -86.19389991,
    "accessName": "Lake Manitou",
    "riverName": "Lake Manitou",
    "type": "Public",
    "otherName": "Lake Manitou-Mill Creek"
  },
  {
    "department": "Indiana Department of Natural Resources",
    "state": "Indiana",
    "county": "Fulton County",
    "latitude": 41.11690069,
    "longitude": -86.31400934,
    "accessName": "Germany Bridge",
    "riverName": "Tippecanoe River",
    "type": "Public",
    "otherName": "Zink Lake-Tippecanoe River"
  },
  {
    "department": "Indiana Department of Natural Resources",
    "state": "Indiana",
    "county": "Noble County",
    "latitude": 41.43827604,
    "longitude": -85.25154779,
    "accessName": "Bixler Lake",
    "riverName": "Bixler Lake",
    "type": "Public",
    "otherName": "Waterhouse Ditch-Henderson Lake Ditch"
  },
  {
    "department": "Indiana Department of Natural Resources",
    "state": "Indiana",
    "county": "Knox County",
    "latitude": 38.5124888658,
    "longitude": -87.2885531802,
    "accessName": "Petersburg",
    "riverName": "White River",
    "type": "Public",
    "otherName": "Lick Creek-White River"
  },
  {
    "department": "Indiana Department of Natural Resources",
    "state": "Indiana",
    "county": "LaPorte County",
    "latitude": 41.623188656,
    "longitude": -86.724471778,
    "accessName": "Clear Lake",
    "riverName": "Clear Lake",
    "type": "Public",
    "otherName": "Travis Ditch"
  },
  {
    "department": "Indiana Department of Natural Resources",
    "state": "Indiana",
    "county": "Marshall County",
    "latitude": 41.41707559,
    "longitude": -86.22884519,
    "accessName": "Lake of the Woods",
    "riverName": "Lake of the Woods",
    "type": "Public",
    "otherName": "Lake of the Woods-Yellow river"
  },
  {
    "department": "Indiana Department of Natural Resources",
    "state": "Indiana",
    "county": "Pulaski County",
    "latitude": 41.08020132,
    "longitude": -86.47105744,
    "accessName": "Bruce Lake",
    "riverName": "Bruce Lake",
    "type": "Public",
    "otherName": "Bruce Lake-Bruce Lake Outlet"
  },
  {
    "department": "Indiana Department of Natural Resources",
    "state": "Indiana",
    "county": "Gibson County",
    "latitude": 38.4905509586,
    "longitude": -87.5429754197,
    "accessName": "Hazleton",
    "riverName": "White River",
    "type": "Public",
    "otherName": "Robb Creek-White River"
  },
  {
    "department": "Indiana Department of Natural Resources",
    "state": "Indiana",
    "county": "Wayne County",
    "latitude": 39.86024193,
    "longitude": -84.8727923,
    "accessName": "Middle Fork Reservoir",
    "riverName": "Middle Fork Whitewater River - Middle Fork Reservoir",
    "type": "Public",
    "otherName": "Mud Creek-Middle Fork East Fork Whitewater River"
  },
  {
    "department": "Indiana Department of Natural Resources",
    "state": "Indiana",
    "county": "Lawrence County",
    "latitude": 38.8249527277,
    "longitude": -86.5136864189,
    "accessName": "Bedford",
    "riverName": "East Fork White River",
    "type": "Public",
    "otherName": "Crooked Creek-East Fork White River"
  },
  {
    "department": "Indiana Department of Natural Resources",
    "state": "Indiana",
    "county": "Daviess County",
    "latitude": 38.50436339,
    "longitude": -86.97078881,
    "accessName": "Portersville",
    "riverName": "East Fork White River",
    "type": "Public",
    "otherName": "Sugar Creek-East Fork White River"
  },
  {
    "department": "Indiana Department of Natural Resources",
    "state": "Indiana",
    "county": "St. Joseph County",
    "latitude": 41.67166654,
    "longitude": -86.07169922,
    "accessName": "Baugo Bay",
    "riverName": "St. Joseph River",
    "type": "Public",
    "otherName": "Eller Ditch-Saint Joseph River"
  },
  {
    "department": "Indiana Department of Natural Resources",
    "state": "Indiana",
    "county": "Cass County",
    "latitude": 40.78243327,
    "longitude": -86.26413123,
    "accessName": "Adamsboro Bridge",
    "riverName": "Eel River",
    "type": "Public",
    "otherName": "Mud Branch-Eel River"
  },
  {
    "department": "Indiana Department of Natural Resources",
    "state": "Indiana",
    "county": "Jackson County",
    "latitude": 38.76649127,
    "longitude": -86.0464973,
    "accessName": "Low Water Bridge",
    "riverName": "Muscatatuck River",
    "type": "Public",
    "otherName": "Mill Creek-Muscatatuck River"
  },
  {
    "department": "Indiana Department of Natural Resources",
    "state": "Indiana",
    "county": "Sullivan County",
    "latitude": 39.01661803,
    "longitude": -87.2439023,
    "accessName": "No. 26 Reservoir",
    "riverName": "No. 26 Reservoir",
    "type": "Public",
    "otherName": "Headwaters Black Creek"
  },
  {
    "department": "Indiana Department of Natural Resources",
    "state": "Indiana",
    "county": "LaPorte County",
    "latitude": 41.7080593607,
    "longitude": -86.6292793863,
    "accessName": "Hog Lake",
    "riverName": "Hog Lake",
    "type": "Public",
    "otherName": "Headwaters South Branch Galien River"
  },
  {
    "department": "Indiana Department of Natural Resources",
    "state": "Indiana",
    "county": "Grant County",
    "latitude": 40.3890273,
    "longitude": -85.48610175,
    "accessName": "Matthews",
    "riverName": "Mississinewa River",
    "type": "Public",
    "otherName": "Hoppas Ditch-Mississinewa River"
  },
  {
    "department": "Indiana Department of Natural Resources",
    "state": "Indiana",
    "county": "Warrick County",
    "latitude": 38.0975253018,
    "longitude": -87.4460885127,
    "accessName": "Sugar Ridge Fish & Wildlife Area/Blue Grass Fish & Wildlife Area",
    "riverName": "Bird Dog Pit",
    "type": "Public",
    "otherName": "Bluegrass Creek"
  },
  {
    "department": "Indiana Department of Natural Resources",
    "state": "Indiana",
    "county": "Steuben County",
    "latitude": 41.63941657,
    "longitude": -84.95163949,
    "accessName": "Pigeon River Fish & Wildlife Area",
    "riverName": "Pigeon Lake",
    "type": "Public",
    "otherName": "Pigeon Lake-Pigeon Creek"
  },
  {
    "department": "Indiana Department of Natural Resources",
    "state": "Indiana",
    "county": "Boone County",
    "latitude": 39.9852344847,
    "longitude": -86.3947269888,
    "accessName": "Wilbur Wright Fish & Wildlife Area",
    "riverName": "Boones Pond",
    "type": "Public",
    "otherName": "Fishback Creek"
  },
  {
    "department": "Indiana Department of Natural Resources",
    "state": "Indiana",
    "county": "LaGrange County",
    "latitude": 41.569028038,
    "longitude": -85.2435612784,
    "accessName": "Pigeon River Fish & Wildlife Area",
    "riverName": "Big Long Lake",
    "type": "Public",
    "otherName": "Little Turkey Lake-Turkey Creek"
  },
  {
    "department": "Indiana Department of Natural Resources",
    "state": "Indiana",
    "county": "Kosciusko County",
    "latitude": 41.36366129,
    "longitude": -85.67583771,
    "accessName": "Tri-County Fish & Wildlife Area",
    "riverName": "Hammond Lake",
    "type": "Public",
    "otherName": "Lake Wawasee-Turkey Creek"
  },
  {
    "department": "Indiana Department of Natural Resources",
    "state": "Indiana",
    "county": "LaGrange County",
    "latitude": 41.69502611,
    "longitude": -85.32291186,
    "accessName": "Pigeon River Fish & Wildlife Area - Nasby Dam",
    "riverName": "Pigeon River",
    "type": "Public",
    "otherName": "Cline Lake-Pigeon River"
  },
  {
    "department": "Indiana Department of Natural Resources",
    "state": "Indiana",
    "county": "LaGrange County",
    "latitude": 41.59208136,
    "longitude": -85.20386281,
    "accessName": "Pigeon River Fish & Wildlife Area",
    "riverName": "Big Turkey Lake",
    "type": "Public",
    "otherName": "Big Turkey Lake-Turkey Creek"
  },
  {
    "department": "Indiana Department of Natural Resources",
    "state": "Indiana",
    "county": "LaGrange County",
    "latitude": 41.69427681,
    "longitude": -85.64191939,
    "accessName": "Pigeon River Fish & Wildlfie Area",
    "riverName": "Cass Lake",
    "type": "Public",
    "otherName": "Mather Ditch-Little Elkhart River"
  },
  {
    "department": "Indiana Department of Natural Resources",
    "state": "Indiana",
    "county": "Kosciusko County",
    "latitude": 41.3076637667,
    "longitude": -85.7349831049,
    "accessName": "Tri-County Fish & Wildlife Area",
    "riverName": "Grassy Creek",
    "type": "Public",
    "otherName": "Big Barbee Lake-Grassy Creek"
  },
  {
    "department": "Indiana Department of Natural Resources",
    "state": "Indiana",
    "county": "Elkhart County",
    "latitude": 41.5821219081,
    "longitude": -85.6625919782,
    "accessName": "Pigeon River Fish & Wildlife Area",
    "riverName": "Fish Lake",
    "type": "Public",
    "otherName": "Phillips Ditch-Stony Creek"
  },
  {
    "department": "Indiana Department of Natural Resources",
    "state": "Indiana",
    "county": "Noble County",
    "latitude": 41.50953131,
    "longitude": -85.27607667,
    "accessName": "Pigeon River Fish & Wildlife Area",
    "riverName": "Cree Lake",
    "type": "Public",
    "otherName": "Tamarack Lake-Little Elkhart Creek"
  },
  {
    "department": "Indiana Department of Natural Resources",
    "state": "Indiana",
    "county": "Steuben County",
    "latitude": 41.62306971,
    "longitude": -85.01737083,
    "accessName": "Pigeon River Fish & Wildlife Area",
    "riverName": "Fox Lake",
    "type": "Public",
    "otherName": "Long Lake-Pigeon Creek"
  },
  {
    "department": "Indiana Department of Natural Resources",
    "state": "Indiana",
    "county": "Pike County",
    "latitude": 38.28173245,
    "longitude": -87.18063029,
    "accessName": "Sugar Ridge Fish & Wildlife Area",
    "riverName": "Bethel Pit",
    "type": "Public",
    "otherName": "Houchin Ditch-South Fork Patoka River"
  },
  {
    "department": "Indiana Department of Natural Resources",
    "state": "Indiana",
    "county": "Steuben County",
    "latitude": 41.6559310524,
    "longitude": -85.0481188795,
    "accessName": "Pigeon River Fish & Wildlife Area",
    "riverName": "Loon Lake",
    "type": "Public",
    "otherName": "Tamarack Lake"
  },
  {
    "department": "Indiana Department of Natural Resources",
    "state": "Indiana",
    "county": "Wabash County",
    "latitude": 40.9139086088,
    "longitude": -85.9415443722,
    "accessName": "Tri-County Fish & Wildlife Area - Old Mill Site",
    "riverName": "Eel River",
    "type": "Public",
    "otherName": "Town of Roann-Eel River"
  },
  {
    "department": "Indiana Department of Natural Resources",
    "state": "Indiana",
    "county": "Dearborn County",
    "latitude": 38.99523243,
    "longitude": -84.95796653,
    "accessName": "Laughrey Public Access South",
    "riverName": "Laughrey Creek",
    "type": "Public",
    "otherName": "Laughery Creek"
  },
  {
    "department": "Indiana Department of Natural Resources",
    "state": "Indiana",
    "county": "Kosciusko County",
    "latitude": 41.3739873077,
    "longitude": -85.7852095809,
    "accessName": "Tri-County Fish & Wildlife Area",
    "riverName": "Dewart Lake",
    "type": "Public",
    "otherName": "Wabee Lake-Hammond Ditch"
  },
  {
    "department": "Indiana Department of Natural Resources",
    "state": "Indiana",
    "county": "Allen County",
    "latitude": 41.2225863005,
    "longitude": -85.0057100069,
    "accessName": "Pigeon River Fish & Wildlife Area",
    "riverName": "Cedarville Reservoir",
    "type": "Public",
    "otherName": "Cedarville Reservoir-Saint Joseph River"
  },
  {
    "department": "Indiana Department of Natural Resources",
    "state": "Indiana",
    "county": "Henry County",
    "latitude": 40.0023349307,
    "longitude": -85.4098228593,
    "accessName": "Wilbur Wright Fish & Wildlife Area",
    "riverName": "Province Pond",
    "type": "Public",
    "otherName": "Bethel Brook-Bell Creek"
  },
  {
    "department": "Indiana Department of Natural Resources",
    "state": "Indiana",
    "county": "Johnson County",
    "latitude": 39.3959124501,
    "longitude": -86.0355626647,
    "accessName": "Atterbury Fish & Wildlife Area",
    "riverName": "Beaver Bottom",
    "type": "Public",
    "otherName": "Herriotts Creek-Sugar Creek"
  },
  {
    "department": "Indiana Department of Natural Resources",
    "state": "Indiana",
    "county": "Warrick County",
    "latitude": 38.06563887,
    "longitude": -87.4583829,
    "accessName": "Sugar Ridge Fish & Wildlife Area/Blue Grass Fish & Wildlife Area",
    "riverName": "Otter Pit",
    "type": "Public",
    "otherName": "Bluegrass Creek"
  },
  {
    "department": "Indiana Department of Natural Resources",
    "state": "Indiana",
    "county": "Johnson County",
    "latitude": 39.39549898,
    "longitude": -86.05826825,
    "accessName": "Atterbury Fish & Wildlife Area",
    "riverName": "Mallard Marsh",
    "type": "Public",
    "otherName": "Herriotts Creek-Sugar Creek"
  },
  {
    "department": "Indiana Department of Natural Resources",
    "state": "Indiana",
    "county": "Noble County",
    "latitude": 41.43825634,
    "longitude": -85.50434251,
    "accessName": "Tri-County Fish & Wildlife Area - Mallard Roost #2",
    "riverName": "Elkhart River",
    "type": "Public",
    "otherName": "Diamond Lake-South Branch Elkhart River"
  },
  {
    "department": "Indiana Department of Natural Resources",
    "state": "Indiana",
    "county": "Kosciusko County",
    "latitude": 41.3555446437,
    "longitude": -85.6927390282,
    "accessName": "Tri-County Fish & Wildlife Area",
    "riverName": "Shock Lake",
    "type": "Public",
    "otherName": "Lake Wawasee-Turkey Creek"
  },
  {
    "department": "Indiana Department of Natural Resources",
    "state": "Indiana",
    "county": "LaGrange County",
    "latitude": 41.68368864,
    "longitude": -85.60985779,
    "accessName": "Pigeon River Fish & Wildlife Area",
    "riverName": "Shipshewana Lake",
    "type": "Public",
    "otherName": "Page Ditch"
  },
  {
    "department": "Indiana Department of Natural Resources",
    "state": "Indiana",
    "county": "Kosciusko County",
    "latitude": 41.3528833082,
    "longitude": -85.6737322071,
    "accessName": "Tri-County Fish & Wildlife Area",
    "riverName": "Barrel & 1/2 Lake",
    "type": "Public",
    "otherName": "Lake Wawasee-Turkey Creek"
  },
  {
    "department": "Indiana Department of Natural Resources",
    "state": "Indiana",
    "county": "Steuben County",
    "latitude": 41.5397890925,
    "longitude": -84.9545165949,
    "accessName": "Pigeon River Fish & Wildlife Area",
    "riverName": "Ball Lake",
    "type": "Public",
    "otherName": "Hiram Sweet Ditch"
  },
  {
    "department": "Indiana Department of Natural Resources",
    "state": "Indiana",
    "county": "Pulaski County",
    "latitude": 41.02399841,
    "longitude": -86.58513698,
    "accessName": "Winamac Fish & Wildlife Area - Winamac South",
    "riverName": "Tippecanoe River",
    "type": "Public",
    "otherName": "Tyler Weisjahn Ditch-Tippecanoe River"
  },
  {
    "department": "Indiana Department of Natural Resources",
    "state": "Indiana",
    "county": "Newton County",
    "latitude": 40.82042086,
    "longitude": -87.46409611,
    "accessName": "Willow Slough Fish & Wildlife Area",
    "riverName": "Iroquois River",
    "type": "Public",
    "otherName": "Strole Ditch-Iroquois River"
  },
  {
    "department": "Indiana Department of Natural Resources",
    "state": "Indiana",
    "county": "LaGrange County",
    "latitude": 41.6074551942,
    "longitude": -85.5415190877,
    "accessName": "Pigeon River Fish & Wildlife Area",
    "riverName": "Emma Lake",
    "type": "Public",
    "otherName": "Emma Lake-Emma Ditch"
  },
  {
    "department": "Indiana Department of Natural Resources",
    "state": "Indiana",
    "county": "Jennings County",
    "latitude": 38.9554258,
    "longitude": -85.59179515,
    "accessName": "Crosley Fish & Wildlife Area",
    "riverName": "Crosley Lake",
    "type": "Public",
    "otherName": "Indian Creek-Vernon Fork Muscatatuck River"
  },
  {
    "department": "Indiana Department of Natural Resources",
    "state": "Indiana",
    "county": "LaPorte County",
    "latitude": 41.52011293,
    "longitude": -86.57111626,
    "accessName": "Kingsbury Fish & Wildlife Area",
    "riverName": "Tamarack Lake",
    "type": "Public",
    "otherName": "Breckenridge Ditch"
  },
  {
    "department": "Indiana Department of Natural Resources",
    "state": "Indiana",
    "county": "Noble County",
    "latitude": 41.3234441023,
    "longitude": -85.5134967865,
    "accessName": "Tri-County Fish & Wildlife Area",
    "riverName": "Bear Lake",
    "type": "Public",
    "otherName": "Winebrenner Branch-Carrol Creek"
  },
  {
    "department": "Indiana Department of Natural Resources",
    "state": "Indiana",
    "county": "Pike County",
    "latitude": 38.39724872,
    "longitude": -87.2514038,
    "accessName": "Sugar Ridge Fish & Wildlife Area",
    "riverName": "Dogleg Pit",
    "type": "Public",
    "otherName": "Sugar Creek-Patoka River"
  },
  {
    "department": "Indiana Department of Natural Resources",
    "state": "Indiana",
    "county": "Warrick County",
    "latitude": 38.09081086,
    "longitude": -87.44917748,
    "accessName": "Sugar Ridge Fish & Wildlife Area/Blue Grass Fish & Wildlife Area",
    "riverName": "Ringneck Pit",
    "type": "Public",
    "otherName": "Bluegrass Creek"
  },
  {
    "department": "Indiana Department of Natural Resources",
    "state": "Indiana",
    "county": "Marshall County",
    "latitude": 41.40821798,
    "longitude": -86.46466083,
    "accessName": "Tri-County Fish & Wildlife Area",
    "riverName": "Koontz Lake",
    "type": "Public",
    "otherName": "Amy Kelly Ditch-Robbins Ditch"
  },
  {
    "department": "Indiana Department of Natural Resources",
    "state": "Indiana",
    "county": "Sullivan County",
    "latitude": 39.0572573742,
    "longitude": -87.5715465021,
    "accessName": "Goose Pond Fish & Wildlife Area - Merom",
    "riverName": "Wabash River",
    "type": "Public",
    "otherName": "Turtle Creek-Wabash River"
  },
  {
    "department": "Indiana Department of Natural Resources",
    "state": "Indiana",
    "county": "Noble County",
    "latitude": 41.280436069,
    "longitude": -85.4809006359,
    "accessName": "Tri-County Fish & Wildlife Area",
    "riverName": "Crane Lake",
    "type": "Public",
    "otherName": "Smalley Lake-Tippecanoe River"
  },
  {
    "department": "Indiana Department of Natural Resources",
    "state": "Indiana",
    "county": "Whitley County",
    "latitude": 41.2704348113,
    "longitude": -85.5583859175,
    "accessName": "Tri-County Fish & Wildlife Area",
    "riverName": "Old Lake",
    "type": "Public",
    "otherName": "Smalley Lake-Tippecanoe River"
  },
  {
    "department": "Indiana Department of Natural Resources",
    "state": "Indiana",
    "county": "Wabash County",
    "latitude": 41.02881759,
    "longitude": -85.73646665,
    "accessName": "Tri-County Fish & Wildlife Area - Liberty Mills",
    "riverName": "Eel River",
    "type": "Public",
    "otherName": "Simonton Creek-Eel River"
  },
  {
    "department": "Indiana Department of Natural Resources",
    "state": "Indiana",
    "county": "LaGrange County",
    "latitude": 41.6259612263,
    "longitude": -85.2136138018,
    "accessName": "Pigeon River Fish & Wildlife Area",
    "riverName": "Appleman Lake",
    "type": "Public",
    "otherName": "Green Lake-Pigeon Creek"
  },
  {
    "department": "Indiana Department of Natural Resources",
    "state": "Indiana",
    "county": "Kosciusko County",
    "latitude": 41.0934789114,
    "longitude": -85.9702663319,
    "accessName": "Tri-County Fish & Wildlife Area",
    "riverName": "Beaver Dam Lake",
    "type": "Public",
    "otherName": "Rickle Ditch-Yellow Creek"
  },
  {
    "department": "Indiana Department of Natural Resources",
    "state": "Indiana",
    "county": "LaGrange County",
    "latitude": 41.55443091,
    "longitude": -85.31927374,
    "accessName": "Pigeon River Fish & Wildlife Area",
    "riverName": "Adams Lake",
    "type": "Public",
    "otherName": "Dallas Lake-Little Elkhart Creek"
  },
  {
    "department": "Indiana Department of Natural Resources",
    "state": "Indiana",
    "county": "Noble County",
    "latitude": 41.2666444,
    "longitude": -85.53264382,
    "accessName": "Tri-County Fish & Wildlife Area",
    "riverName": "Loon Lake",
    "type": "Public",
    "otherName": "Smalley Lake-Tippecanoe River"
  },
  {
    "department": "Indiana Department of Natural Resources",
    "state": "Indiana",
    "county": "Warrick County",
    "latitude": 38.0887674682,
    "longitude": -87.4607145933,
    "accessName": "Sugar Ridge Fish & Wildlife Area/Blue Grass Fish & Wildlife Area",
    "riverName": "Loon Pit",
    "type": "Public",
    "otherName": "Bluegrass Creek"
  },
  {
    "department": "Indiana Department of Natural Resources",
    "state": "Indiana",
    "county": "LaGrange County",
    "latitude": 41.59304358,
    "longitude": -85.21533009,
    "accessName": "Pigeon River Fish & Wildlife Area",
    "riverName": "Little Turkey Lake",
    "type": "Public",
    "otherName": "Little Turkey Lake-Turkey Creek"
  },
  {
    "department": "Indiana Department of Natural Resources",
    "state": "Indiana",
    "county": "Bartholomew County",
    "latitude": 39.2911683369,
    "longitude": -85.9723664286,
    "accessName": "Atterbury Fish & Wildlife Area - Bill Newton Public Access Site",
    "riverName": "Driftwood River",
    "type": "Public",
    "otherName": "Catherine Creek-Driftwood River"
  },
  {
    "department": "Indiana Department of Natural Resources",
    "state": "Indiana",
    "county": "Kosciusko County",
    "latitude": 41.36224746,
    "longitude": -85.67586637,
    "accessName": "Tri-County Fish & Wildlife Area",
    "riverName": "Allen Lake",
    "type": "Public",
    "otherName": "Lake Wawasee-Turkey Creek"
  },
  {
    "department": "Indiana Department of Natural Resources",
    "state": "Indiana",
    "county": "Pulaski County",
    "latitude": 41.0975774,
    "longitude": -86.5563216,
    "accessName": "Winamac Fish & Wildlife Area - Haschell Bridge",
    "riverName": "Tippecanoe River",
    "type": "Public",
    "otherName": "Dilts Anstis Ditch-Tippecanoe River"
  },
  {
    "department": "Indiana Department of Natural Resources",
    "state": "Indiana",
    "county": "Pike County",
    "latitude": 38.33666608,
    "longitude": -87.21616926,
    "accessName": "Sugar Ridge Fish & Wildlife Area",
    "riverName": "Island Pit",
    "type": "Public",
    "otherName": "Sugar Creek-Patoka River"
  },
  {
    "department": "Indiana Department of Natural Resources",
    "state": "Indiana",
    "county": "Allen County",
    "latitude": 41.1568131856,
    "longitude": -85.3120536016,
    "accessName": "Tri-County Fish & Wildlife Area",
    "riverName": "Lake Everett",
    "type": "Public",
    "otherName": "Johnson Drain-Eel River"
  },
  {
    "department": "Indiana Department of Natural Resources",
    "state": "Indiana",
    "county": "Jennings County",
    "latitude": 38.9340103,
    "longitude": -85.61011273,
    "accessName": "Crosley Fish & Wildlife Area",
    "riverName": "Goose Pond",
    "type": "Public",
    "otherName": "Indian Creek-Vernon Fork Muscatatuck River"
  },
  {
    "department": "Indiana Department of Natural Resources",
    "state": "Indiana",
    "county": "LaGrange County",
    "latitude": 41.5753255787,
    "longitude": -85.2556133734,
    "accessName": "Pigeon River Fish & Wildlife Area",
    "riverName": "Pretty Lake",
    "type": "Public",
    "otherName": "Little Turkey Lake-Turkey Creek"
  },
  {
    "department": "Indiana Department of Natural Resources",
    "state": "Indiana",
    "county": "Jackson County",
    "latitude": 38.98698119,
    "longitude": -85.89835604,
    "accessName": "Rockford Public Access South",
    "riverName": "East Fork White River",
    "type": "Public",
    "otherName": "Heddy Run-East Fork White River"
  },
  {
    "department": "Indiana Department of Natural Resources",
    "state": "Indiana",
    "county": "Johnson County",
    "latitude": 39.37769038,
    "longitude": -86.07011772,
    "accessName": "Atterbury Fish & Wildlife Area - Stone Arch",
    "riverName": "Stone Arch",
    "type": "Public",
    "otherName": "Nineveh Creek"
  },
  {
    "department": "Indiana Department of Natural Resources",
    "state": "Indiana",
    "county": "Pulaski County",
    "latitude": 40.9575072974,
    "longitude": -86.6851226626,
    "accessName": "Winamac Fish & Wildlife Area - Pond 'N River",
    "riverName": "Tippecanoe River",
    "type": "Public",
    "otherName": "Budd Fisher Ditch-Tippecanoe River"
  },
  {
    "department": "Indiana Department of Natural Resources",
    "state": "Indiana",
    "county": "Noble County",
    "latitude": 41.27013171,
    "longitude": -85.48889382,
    "accessName": "Tri-County Fish & Wildlife Area",
    "riverName": "Crooked Lake",
    "type": "Public",
    "otherName": "Smalley Lake-Tippecanoe River"
  },
  {
    "department": "Indiana Department of Natural Resources",
    "state": "Indiana",
    "county": "LaGrange County",
    "latitude": 41.55432534,
    "longitude": -85.44089948,
    "accessName": "Pigeon River Fish & Wildlife Area",
    "riverName": "Messick Lake",
    "type": "Public",
    "otherName": "Oliver Lake-Little Elkhart Creek"
  },
  {
    "department": "Indiana Department of Natural Resources",
    "state": "Indiana",
    "county": "Warrick County",
    "latitude": 38.07021486,
    "longitude": -87.46131862,
    "accessName": "Sugar Ridge Fish & Wildlife Area/Blue Grass Fish & Wildlife Area",
    "riverName": "Loon Pit",
    "type": "Public",
    "otherName": "Bluegrass Creek"
  },
  {
    "department": "Indiana Department of Natural Resources",
    "state": "Indiana",
    "county": "Fulton County",
    "latitude": 40.96089034,
    "longitude": -86.1892254,
    "accessName": "Tri-County Fish & Wildlife Area",
    "riverName": "Nyona Lake",
    "type": "Public",
    "otherName": "Smith Ditch-Mud Creek"
  },
  {
    "department": "Indiana Department of Natural Resources",
    "state": "Indiana",
    "county": "LaGrange County",
    "latitude": 41.6254112376,
    "longitude": -85.3249755634,
    "accessName": "Pigeon River Fish & Wildlife Area",
    "riverName": "Fish Lake",
    "type": "Public",
    "otherName": "East Fly Creek"
  },
  {
    "department": "Indiana Department of Natural Resources",
    "state": "Indiana",
    "county": "Noble County",
    "latitude": 41.45856059,
    "longitude": -85.52262614,
    "accessName": "Tri-County Fish & Wildlife Area - Mallard Roost #1",
    "riverName": "Elkhart River",
    "type": "Public",
    "otherName": "Diamond Lake-South Branch Elkhart River"
  },
  {
    "department": "Indiana Department of Natural Resources",
    "state": "Indiana",
    "county": "Jackson County",
    "latitude": 38.87888474,
    "longitude": -86.08067769,
    "accessName": "Brownstown Public Access South",
    "riverName": "East Fork White River",
    "type": "Public",
    "otherName": "Ball Richard Ditch-East Fork White River"
  },
  {
    "department": "Indiana Department of Natural Resources",
    "state": "Indiana",
    "county": "LaGrange County",
    "latitude": 41.7075476813,
    "longitude": -85.375252059,
    "accessName": "Pigeon River Fish & Wildlife Area",
    "riverName": "Ontario Mill Pond",
    "type": "Public",
    "otherName": "Cline Lake-Pigeon River"
  },
  {
    "department": "Indiana Department of Natural Resources",
    "state": "Indiana",
    "county": "Pike County",
    "latitude": 38.34423118,
    "longitude": -87.2190183,
    "accessName": "Sugar Ridge Fish & Wildlife Area",
    "riverName": "Ashby Pit",
    "type": "Public",
    "otherName": "Sugar Creek-Patoka River"
  },
  {
    "department": "Indiana Department of Natural Resources",
    "state": "Indiana",
    "county": "Pike County",
    "latitude": 38.399819,
    "longitude": -87.25886814,
    "accessName": "Sugar Ridge Fish & Wildlife Area",
    "riverName": "Piney Pit",
    "type": "Public",
    "otherName": "Sugar Creek-Patoka River"
  },
  {
    "department": "Indiana Department of Natural Resources",
    "state": "Indiana",
    "county": "LaPorte County",
    "latitude": 41.49022964,
    "longitude": -86.58162527,
    "accessName": "Kingsbury Fish & Wildlife Area",
    "riverName": "Kankakee River",
    "type": "Public",
    "otherName": "Breckenridge Ditch"
  },
  {
    "department": "Indiana Department of Natural Resources",
    "state": "Indiana",
    "county": "Steuben County",
    "latitude": 41.6673711,
    "longitude": -85.191393,
    "accessName": "Pigeon River Fish & Wildlife Area",
    "riverName": "Pigeon River",
    "type": "Public",
    "otherName": "Green Lake-Pigeon Creek"
  },
  {
    "department": "Indiana Department of Natural Resources",
    "state": "Indiana",
    "county": "LaGrange County",
    "latitude": 41.68003759,
    "longitude": -85.26997059,
    "accessName": "Pigeon River Fish & Wildlife Area",
    "riverName": "Pigeon River - Mongo Mill Pond",
    "type": "Public",
    "otherName": "Mongo Millpond-Pigeon Creek"
  },
  {
    "department": "Indiana Department of Natural Resources",
    "state": "Indiana",
    "county": "Noble County",
    "latitude": 41.3435306401,
    "longitude": -85.6048064387,
    "accessName": "Tri-County Fish & Wildlife Area",
    "riverName": "Knapp Lake",
    "type": "Public",
    "otherName": "Village Lake-Turkey Creek"
  },
  {
    "department": "Indiana Department of Natural Resources",
    "state": "Indiana",
    "county": "Pike County",
    "latitude": 38.39658853,
    "longitude": -87.25662353,
    "accessName": "Sugar Ridge Fish & Wildlife Area",
    "riverName": "East Twin Pit",
    "type": "Public",
    "otherName": "Sugar Creek-Patoka River"
  },
  {
    "department": "Indiana Department of Natural Resources",
    "state": "Indiana",
    "county": "Marshall County",
    "latitude": 41.19657242,
    "longitude": -86.41638398,
    "accessName": "Tri-County Fish & Wildlife Area",
    "riverName": "Lake Maxinkuckee",
    "type": "Public",
    "otherName": "Lake Maxinkuckee"
  },
  {
    "department": "Indiana Department of Natural Resources",
    "state": "Indiana",
    "county": "Kosciusko County",
    "latitude": 41.3348730521,
    "longitude": -85.6641950764,
    "accessName": "Tri-County Fish & Wildlife Area",
    "riverName": "Goldeneye Pond",
    "type": "Public",
    "otherName": "Tippecanoe Lake-Tippecanoe River"
  },
  {
    "department": "Indiana Department of Natural Resources",
    "state": "Indiana",
    "county": "Kosciusko County",
    "latitude": 41.2816145596,
    "longitude": -85.7784613026,
    "accessName": "Tri-County Fish & Wildlife Area",
    "riverName": "Chapman Lake",
    "type": "Public",
    "otherName": "Pike Lake-Deeds Creek"
  },
  {
    "department": "Indiana Department of Natural Resources",
    "state": "Indiana",
    "county": "Johnson County",
    "latitude": 39.38739921,
    "longitude": -86.02123128,
    "accessName": "Atterbury Fish & Wildlife Area",
    "riverName": "Pisgah Lake",
    "type": "Public",
    "otherName": "Herriotts Creek-Sugar Creek"
  },
  {
    "department": "Indiana Department of Natural Resources",
    "state": "Indiana",
    "county": "Marshall County",
    "latitude": 41.3267077468,
    "longitude": -86.3410299412,
    "accessName": "Tri-County Fish & Wildlife Area",
    "riverName": "Dixon Lake",
    "type": "Public",
    "otherName": "Dixon Lake-Yellow River"
  },
  {
    "department": "Indiana Department of Natural Resources",
    "state": "Indiana",
    "county": "LaGrange County",
    "latitude": 41.68159135,
    "longitude": -85.6010602,
    "accessName": "Pigeon River Fish & Wildlife Area",
    "riverName": "Shipshewana Lake",
    "type": "Public",
    "otherName": "Page Ditch"
  },
  {
    "department": "Indiana Department of Natural Resources",
    "state": "Indiana",
    "county": "LaPorte County",
    "latitude": 41.5544794813,
    "longitude": -86.9308346437,
    "accessName": "Westville Public Access North",
    "riverName": "Clear Lake",
    "type": "Public",
    "otherName": "Headwaters Crooked Creek"
  },
  {
    "department": "Indiana Department of Natural Resources",
    "state": "Indiana",
    "county": "Kosciusko County",
    "latitude": 41.2898270675,
    "longitude": -85.688598388,
    "accessName": "Tri-County Fish & Wildlife Area",
    "riverName": "Kuhn Lake",
    "type": "Public",
    "otherName": "Big Barbee Lake-Grassy Creek"
  },
  {
    "department": "Indiana Department of Natural Resources",
    "state": "Indiana",
    "county": "Steuben County",
    "latitude": 41.7145844,
    "longitude": -85.06806244,
    "accessName": "Pigeon River Fish & Wildlife Area",
    "riverName": "Jimmerson Lake",
    "type": "Public",
    "otherName": "Lake James-Crooked Creek"
  },
  {
    "department": "Indiana Department of Natural Resources",
    "state": "Indiana",
    "county": "Starke County",
    "latitude": 41.2120196978,
    "longitude": -86.6116811667,
    "accessName": "Winamac Fish & Wildlife Area",
    "riverName": "Bass Lake",
    "type": "Public",
    "otherName": "Cedar Lake Ditch-Craigmile Ditch"
  },
  {
    "department": "Indiana Department of Natural Resources",
    "state": "Indiana",
    "county": "Pike County",
    "latitude": 38.39516484,
    "longitude": -87.25235851,
    "accessName": "Sugar Ridge Fish & Wildlife Area",
    "riverName": "Lotor Pit",
    "type": "Public",
    "otherName": "Sugar Creek-Patoka River"
  },
  {
    "department": "Indiana Department of Natural Resources",
    "state": "Indiana",
    "county": "Marshall County",
    "latitude": 41.3000435704,
    "longitude": -86.3996142376,
    "accessName": "Tri-County Fish & Wildlife Area",
    "riverName": "Mill Pond Lake",
    "type": "Public",
    "otherName": "Eagle Creek"
  },
  {
    "department": "Indiana Department of Natural Resources",
    "state": "Indiana",
    "county": "Fulton County",
    "latitude": 41.10586831,
    "longitude": -86.21029863,
    "accessName": "Tri-County Fish & Wildlife Area - Menominee Public Fishing Area",
    "riverName": "Tippecanoe River",
    "type": "Public",
    "otherName": "Zink Lake-Tippecanoe River"
  },
  {
    "department": "Indiana Department of Natural Resources",
    "state": "Indiana",
    "county": "Washington County",
    "latitude": 38.75488488,
    "longitude": -85.93488168,
    "accessName": "Sages Ferry Public Access South",
    "riverName": "Muscatatuck River",
    "type": "Public",
    "otherName": "Smart Ditch-Muscatatuck River"
  },
  {
    "department": "Indiana Department of Natural Resources",
    "state": "Indiana",
    "county": "Noble County",
    "latitude": 41.4356259778,
    "longitude": -85.5748708222,
    "accessName": "Tri-County Fish & Wildlife Area",
    "riverName": "Engle Lake",
    "type": "Public",
    "otherName": "Indian Lake-Elkhart River"
  },
  {
    "department": "Indiana Department of Natural Resources",
    "state": "Indiana",
    "county": "LaGrange County",
    "latitude": 41.70075408,
    "longitude": -85.35214698,
    "accessName": "Pigeon River Fish & Wildlife Area - Skip's Bridge",
    "riverName": "Ontario Mill Pond",
    "type": "Public",
    "otherName": "Cline Lake-Pigeon River"
  },
  {
    "department": "Indiana Department of Natural Resources",
    "state": "Indiana",
    "county": "Noble County",
    "latitude": 41.3639052146,
    "longitude": -85.6392715818,
    "accessName": "Tri-County Fish & Wildlife Area",
    "riverName": "Village Lake",
    "type": "Public",
    "otherName": "Village Lake-Turkey Creek"
  },
  {
    "department": "Indiana Department of Natural Resources",
    "state": "Indiana",
    "county": "Wabash County",
    "latitude": 40.94782838,
    "longitude": -85.89064283,
    "accessName": "Tri-County Fish & Wildlife Area - Bear Grass",
    "riverName": "Eel River",
    "type": "Public",
    "otherName": "Town of Roann-Eel River"
  },
  {
    "department": "Indiana Department of Natural Resources",
    "state": "Indiana",
    "county": "Warrick County",
    "latitude": 38.1074178,
    "longitude": -87.46168936,
    "accessName": "Sugar Ridge Fish & Wildlife Area/Blue Grass Fish & Wildlife Area",
    "riverName": "Blue Grass Pit",
    "type": "Public",
    "otherName": "Bluegrass Creek"
  },
  {
    "department": "Indiana Department of Natural Resources",
    "state": "Indiana",
    "county": "Steuben County",
    "latitude": 41.6516789528,
    "longitude": -85.1741486823,
    "accessName": "Pigeon River Fish & Wildlife Area",
    "riverName": "Pigeon River",
    "type": "Public",
    "otherName": "Green Lake-Pigeon Creek"
  },
  {
    "department": "Indiana Department of Natural Resources",
    "state": "Indiana",
    "county": "Marshall County",
    "latitude": 41.21859233,
    "longitude": -86.11603557,
    "accessName": "Tri-County Fish & Wildlife Area - Old Tip Town",
    "riverName": "Tippecanoe River",
    "type": "Public",
    "otherName": "Clarence Baker Ditch-Tippecanoe River"
  },
  {
    "department": "Indiana Department of Natural Resources",
    "state": "Indiana",
    "county": "Steuben County",
    "latitude": 41.5363627985,
    "longitude": -85.1046853921,
    "accessName": "Pigeon River Fish & Wildlife Area",
    "riverName": "Little Turkey Lake",
    "type": "Public",
    "otherName": "Headwaters Turkey Creek"
  },
  {
    "department": "Indiana Department of Natural Resources",
    "state": "Indiana",
    "county": "Morgan County",
    "latitude": 39.373254708,
    "longitude": -86.5581947462,
    "accessName": "Atterbury Fish & Wildlife Area - Burnett Landing",
    "riverName": "White River",
    "type": "Public",
    "otherName": "Burkhart Creek-White River"
  },
  {
    "department": "Indiana Department of Natural Resources",
    "state": "Indiana",
    "county": "Bartholomew County",
    "latitude": 39.11123424,
    "longitude": -86.04563936,
    "accessName": "Grouse Ridge Public Fishing Area Public Access South",
    "riverName": "Grouse Ridge",
    "type": "Public",
    "otherName": "Headwaters White Creek"
  },
  {
    "department": "Indiana Department of Natural Resources",
    "state": "Indiana",
    "county": "Noble County",
    "latitude": 41.42545818,
    "longitude": -85.54373307,
    "accessName": "Tri-County Fish & Wildlife Area",
    "riverName": "Eagle Lake",
    "type": "Public",
    "otherName": "Diamond Lake-South Branch Elkhart River"
  },
  {
    "department": "Indiana Department of Natural Resources",
    "state": "Indiana",
    "county": "Jennings County",
    "latitude": 39.0482451197,
    "longitude": -85.5084543842,
    "accessName": "Brush Creek Public Access South",
    "riverName": "Brush Creek Reservoir",
    "type": "Public",
    "otherName": "Brush Creek Reservoir-Brush Creek"
  },
  {
    "department": "Indiana Department of Natural Resources",
    "state": "Indiana",
    "county": "Johnson County",
    "latitude": 39.37820807,
    "longitude": -86.06612855,
    "accessName": "Atterbury Fish & Wildlife Area",
    "riverName": "Teal Marsh",
    "type": "Public",
    "otherName": "Nineveh Creek"
  },
  {
    "department": "Indiana Department of Natural Resources",
    "state": "Indiana",
    "county": "Washington County",
    "latitude": 38.7654126719,
    "longitude": -86.1025755042,
    "accessName": "Milport Public Access South",
    "riverName": "Muscatatuck River",
    "type": "Public",
    "otherName": "Mill Creek-Muscatatuck River"
  },
  {
    "department": "Indiana Department of Natural Resources",
    "state": "Indiana",
    "county": "LaGrange County",
    "latitude": 41.67072726,
    "longitude": -85.19519101,
    "accessName": "Pigeon River Fish & Wildlife Area",
    "riverName": "Pigeon River",
    "type": "Public",
    "otherName": "Green Lake-Pigeon Creek"
  },
  {
    "department": "Indiana Department of Natural Resources",
    "state": "Indiana",
    "county": "Posey County",
    "latitude": 37.9800134637,
    "longitude": -88.0114598747,
    "accessName": "Hovey Lake Fish & Wildlife Area - Dogtown Ferry",
    "riverName": "Wabash River",
    "type": "Public",
    "otherName": "Pitcher Creek-Wabash River"
  },
  {
    "department": "Indiana Department of Natural Resources",
    "state": "Indiana",
    "county": "LaGrange County",
    "latitude": 41.70683827,
    "longitude": -85.38354184,
    "accessName": "Pigeon River Fish & Wildlife Area",
    "riverName": "Pigeon River",
    "type": "Public",
    "otherName": "Cline Lake-Pigeon River"
  },
  {
    "department": "Indiana Department of Natural Resources",
    "state": "Indiana",
    "county": "LaGrange County",
    "latitude": 41.71121065,
    "longitude": -85.37298693,
    "accessName": "Pigeon River Fish & Wildlife Area",
    "riverName": "Pigeon River - Aldrich Lake",
    "type": "Public",
    "otherName": "Cline Lake-Pigeon River"
  },
  {
    "department": "Indiana Department of Natural Resources",
    "state": "Indiana",
    "county": "Johnson County",
    "latitude": 39.36322626,
    "longitude": -85.99715783,
    "accessName": "Atterbury Fish & Wildlife Area",
    "riverName": "Sugar Creek",
    "type": "Public",
    "otherName": "Herriotts Creek-Sugar Creek"
  },
  {
    "department": "Indiana Department of Natural Resources",
    "state": "Indiana",
    "county": "Pike County",
    "latitude": 38.28046272,
    "longitude": -87.179964,
    "accessName": "Sugar Ridge Fish & Wildlife Area",
    "riverName": "Cattail Pit",
    "type": "Public",
    "otherName": "Houchin Ditch-South Fork Patoka River"
  },
  {
    "department": "Indiana Department of Natural Resources",
    "state": "Indiana",
    "county": "Jackson County",
    "latitude": 39.02362829,
    "longitude": -85.8897358,
    "accessName": "Public Access South",
    "riverName": "Cypress Lake",
    "type": "Public",
    "otherName": "Peters Lake-Thompson Slough"
  },
  {
    "department": "Indiana Department of Natural Resources",
    "state": "Indiana",
    "county": "Noble County",
    "latitude": 41.4350930917,
    "longitude": -85.3177964736,
    "accessName": "Pigeon River Fish & Wildlife Area",
    "riverName": "Sacarider Lake",
    "type": "Public",
    "otherName": "Jones Lake-North Branch Elkhart River"
  },
  {
    "department": "Indiana Department of Natural Resources",
    "state": "Indiana",
    "county": "Bartholomew County",
    "latitude": 39.2395432521,
    "longitude": -85.9724424331,
    "accessName": "Lowell Bridge Public Access South",
    "riverName": "Driftwood River",
    "type": "Public",
    "otherName": "Catherine Creek-Driftwood River"
  },
  {
    "department": "Indiana Department of Natural Resources",
    "state": "Indiana",
    "county": "Newton County",
    "latitude": 40.97301595,
    "longitude": -87.51847019,
    "accessName": "Willow Slough Fish & Wildlife Area",
    "riverName": "J.C. Murphey Lake",
    "type": "Public",
    "otherName": "Hooper Branch"
  },
  {
    "department": "Indiana Department of Natural Resources",
    "state": "Indiana",
    "county": "Steuben County",
    "latitude": 41.6011542154,
    "longitude": -85.0572175215,
    "accessName": "Pigeon River Fish & Wildlife Area",
    "riverName": "Big Bower Lake",
    "type": "Public",
    "otherName": "Silver Lake-Pigeon Creek"
  },
  {
    "department": "Indiana Department of Natural Resources",
    "state": "Indiana",
    "county": "Kosciusko County",
    "latitude": 41.17977531,
    "longitude": -85.9486103982,
    "accessName": "Tri-County Fish & Wildlife Area",
    "riverName": "Palestine Lake",
    "type": "Public",
    "otherName": "Palestine Lake-Trimble Creek"
  },
  {
    "department": "Indiana Department of Natural Resources",
    "state": "Indiana",
    "county": "St. Joseph County",
    "latitude": 41.5190128274,
    "longitude": -86.2770255512,
    "accessName": "Tri-County Fish & Wildlife Area",
    "riverName": "Pleasant Lake",
    "type": "Public",
    "otherName": "Headwaters Stock Ditch"
  },
  {
    "department": "Indiana Department of Natural Resources",
    "state": "Indiana",
    "county": "Kosciusko County",
    "latitude": 41.160084512,
    "longitude": -85.866101496,
    "accessName": "Tri-County Fish & Wildlife Area",
    "riverName": "Carr Lake",
    "type": "Public",
    "otherName": "Eagle Creek-Walnut Creek"
  },
  {
    "department": "Indiana Department of Natural Resources",
    "state": "Indiana",
    "county": "Pulaski County",
    "latitude": 40.9761369,
    "longitude": -86.65602833,
    "accessName": "Winamac Fish & Wildlife Area - Pulaski",
    "riverName": "Tippecanoe River",
    "type": "Public",
    "otherName": "Budd Fisher Ditch-Tippecanoe River"
  },
  {
    "department": "Indiana Department of Natural Resources",
    "state": "Indiana",
    "county": "Whitley County",
    "latitude": 41.24388474,
    "longitude": -85.43832611,
    "accessName": "Tri-County Fish & Wildlife Area",
    "riverName": "Round Lake",
    "type": "Public",
    "otherName": "Thorn Creek-Blue River"
  },
  {
    "department": "Indiana Department of Natural Resources",
    "state": "Indiana",
    "county": "Jackson County",
    "latitude": 38.97310166,
    "longitude": -85.9289705913,
    "accessName": "Bell Ford Public Access South",
    "riverName": "East Fork White River",
    "type": "Public",
    "otherName": "Heddy Run-East Fork White River"
  },
  {
    "department": "Indiana Department of Natural Resources",
    "state": "Indiana",
    "county": "Noble County",
    "latitude": 41.42774988,
    "longitude": -85.50195084,
    "accessName": "Tri-County Fish & Wildlife Area - Mallard Roost #3",
    "riverName": "Elkhart River",
    "type": "Public",
    "otherName": "Diamond Lake-South Branch Elkhart River"
  },
  {
    "department": "Indiana Department of Natural Resources",
    "state": "Indiana",
    "county": "Shelby County",
    "latitude": 39.36372109,
    "longitude": -85.85547871,
    "accessName": "Flat Rock River Public Access South",
    "riverName": "Flatrock River",
    "type": "Public",
    "otherName": "Town of Geneva-Flatrock River"
  },
  {
    "department": "Indiana Department of Natural Resources",
    "state": "Indiana",
    "county": "Bartholomew County",
    "latitude": 39.3462974518,
    "longitude": -85.9816681604,
    "accessName": "Atterbury Fish & Wildlife Area - Driftwood Public Fishing Area",
    "riverName": "Plover Pit",
    "type": "Public",
    "otherName": "Lick Creek-Driftwood River"
  },
  {
    "department": "Indiana Department of Natural Resources",
    "state": "Indiana",
    "county": "Pike County",
    "latitude": 38.27086691,
    "longitude": -87.17231515,
    "accessName": "Sugar Ridge Fish & Wildlife Area",
    "riverName": "Bass Pit",
    "type": "Public",
    "otherName": "Houchin Ditch-South Fork Patoka River"
  },
  {
    "department": "Indiana Department of Natural Resources",
    "state": "Indiana",
    "county": "Daviess County",
    "latitude": 38.56904383,
    "longitude": -87.034368194,
    "accessName": "Glendale Fish & Wildlife Area",
    "riverName": "Dove Hollow",
    "type": "Public",
    "otherName": "Dogwood Lake-Mud Creek"
  },
  {
    "department": "Indiana Department of Natural Resources",
    "state": "Indiana",
    "county": "LaGrange County",
    "latitude": 41.5344967222,
    "longitude": -85.4176011904,
    "accessName": "Pigeon River Fish & Wildlife Area",
    "riverName": "Atwood Lake",
    "type": "Public",
    "otherName": "Dallas Lake-Little Elkhart Creek"
  },
  {
    "department": "Indiana Department of Natural Resources",
    "state": "Indiana",
    "county": "Miami County",
    "latitude": 40.77266403,
    "longitude": -85.94150469,
    "accessName": "Tri-County Fish & Wildlife Area - Omar Cole (Peru)",
    "riverName": "Wabash River",
    "type": "Public",
    "otherName": "Gilbert Branch-Wabash River"
  },
  {
    "department": "Indiana Department of Natural Resources",
    "state": "Indiana",
    "county": "Pike County",
    "latitude": 38.35424484,
    "longitude": -87.25839678,
    "accessName": "Sugar Ridge Fish & Wildlife Area",
    "riverName": "Pigeon Pit",
    "type": "Public",
    "otherName": "Sugar Creek-Patoka River"
  },
  {
    "department": "Indiana Department of Natural Resources",
    "state": "Indiana",
    "county": "Whitley County",
    "latitude": 41.2277096025,
    "longitude": -85.6486720307,
    "accessName": "Tri-County Fish & Wildlife Area/Deniston Natural Resources Area",
    "riverName": "Robinson Lake",
    "type": "Public",
    "otherName": "Ridinger Lake-Grassy Creek"
  },
  {
    "department": "Indiana Department of Natural Resources",
    "state": "Indiana",
    "county": "Posey County",
    "latitude": 37.81562185,
    "longitude": -87.95862515,
    "accessName": "Hovey Lake Fish & Wildlife Area",
    "riverName": "Hovey Lake",
    "type": "Public",
    "otherName": "Beaverdam Creek-Ohio River"
  },
  {
    "department": "Indiana Department of Natural Resources",
    "state": "Indiana",
    "county": "Marshall County",
    "latitude": 41.29797187,
    "longitude": -86.33947972,
    "accessName": "Tri-County Fish & Wildlife Area",
    "riverName": "Lawrence Lake",
    "type": "Public",
    "otherName": "Eagle Creek"
  },
  {
    "department": "Indiana Department of Natural Resources",
    "state": "Indiana",
    "county": "Carroll County",
    "latitude": 40.4579531407,
    "longitude": -86.6636254745,
    "accessName": "Willow Slough Fish and Wildlife Area",
    "riverName": "Knop Lake",
    "type": "Public",
    "otherName": "Dry Run-Wildcat Creek"
  },
  {
    "department": "Indiana Department of Natural Resources",
    "state": "Indiana",
    "county": "Kosciusko County",
    "latitude": 41.24335338,
    "longitude": -86.04809477,
    "accessName": "Tri-County Fish & Wildlife Area - Mollenhour",
    "riverName": "Tippecanoe River",
    "type": "Public",
    "otherName": "Shatto Ditch-Tippecanoe River"
  },
  {
    "department": "Indiana Department of Natural Resources",
    "state": "Indiana",
    "county": "Steuben County",
    "latitude": 41.55048935,
    "longitude": -84.90934484,
    "accessName": "Pigeon River Fish & Wildlife Area",
    "riverName": "Hamilton Lake",
    "type": "Public",
    "otherName": "Hamiton Lake"
  },
  {
    "department": "Indiana Department of Natural Resources",
    "state": "Indiana",
    "county": "Wabash County",
    "latitude": 40.97256915,
    "longitude": -85.83361959,
    "accessName": "Tri-County Fish & Wildlife Area - Laketon",
    "riverName": "Eel River",
    "type": "Public",
    "otherName": "Otter Creek-Eel River"
  },
  {
    "department": "Indiana Department of Natural Resources",
    "state": "Indiana",
    "county": "Whitley County",
    "latitude": 41.23880558,
    "longitude": -85.55497298,
    "accessName": "Tri-County Fish & Wildlife Area",
    "riverName": "Goose Lake",
    "type": "Public",
    "otherName": "Smalley Lake-Tippecanoe River"
  },
  {
    "department": "Indiana Department of Natural Resources",
    "state": "Indiana",
    "county": "Steuben County",
    "latitude": 41.7098109929,
    "longitude": -85.1155733486,
    "accessName": "Pigeon River Fish & Wildlife Area",
    "riverName": "Lake Gage",
    "type": "Public",
    "otherName": "Tamarack Lake"
  },
  {
    "department": "Indiana Department of Natural Resources",
    "state": "Indiana",
    "county": "Steuben County",
    "latitude": 41.7185088698,
    "longitude": -84.9877891147,
    "accessName": "Pigeon River Fish & Wildlife Area",
    "riverName": "Marsh Lake",
    "type": "Public",
    "otherName": "Snow Lake"
  },
  {
    "department": "Indiana Department of Natural Resources",
    "state": "Indiana",
    "county": "Bartholomew County",
    "latitude": 39.08483689,
    "longitude": -85.85959484,
    "accessName": "Azalia Bridge Public Access South",
    "riverName": "East Fork White River",
    "type": "Public",
    "otherName": "Opossum Creek-East Fork White River"
  },
  {
    "department": "Indiana Department of Natural Resources",
    "state": "Indiana",
    "county": "Warrick County",
    "latitude": 38.0896386738,
    "longitude": -87.4647750115,
    "accessName": "Sugar Ridge Fish & Wildlife Area/Blue Grass Fish & Wildlife Area",
    "riverName": "Blue Grass Pit",
    "type": "Public",
    "otherName": "Bluegrass Creek"
  },
  {
    "department": "Indiana Department of Natural Resources",
    "state": "Indiana",
    "county": "LaGrange County",
    "latitude": 41.5776420215,
    "longitude": -85.4128312016,
    "accessName": "Pigeon River Fish & Wildlife Area",
    "riverName": "Oliver Lake",
    "type": "Public",
    "otherName": "Oliver Lake-Little Elkhart Creek"
  },
  {
    "department": "Indiana Department of Natural Resources",
    "state": "Indiana",
    "county": "Steuben County",
    "latitude": 41.5961169019,
    "longitude": -85.0631778142,
    "accessName": "Pigeon River Fish & Wildlife Area",
    "riverName": "Golden Lake",
    "type": "Public",
    "otherName": "Silver Lake-Pigeon Creek"
  },
  {
    "department": "Indiana Department of Natural Resources",
    "state": "Indiana",
    "county": "Johnson County",
    "latitude": 39.38582609,
    "longitude": -86.02060302,
    "accessName": "Atterbury Fish & Wildlife Area",
    "riverName": "Pisgah Lake",
    "type": "Public",
    "otherName": "Herriotts Creek-Sugar Creek"
  },
  {
    "department": "Indiana Department of Natural Resources",
    "state": "Indiana",
    "county": "Dubois County",
    "latitude": 38.4468945875,
    "longitude": -86.8084178222,
    "accessName": "Dubois",
    "riverName": "Patoka River",
    "type": "Public",
    "otherName": "Davis Creek-Patoka River"
  },
  {
    "department": "Indiana Department of Natural Resources",
    "state": "Indiana",
    "county": "Martin County",
    "latitude": 38.62247829,
    "longitude": -86.84735216,
    "accessName": "Hindostan Falls Public Fishing Area Ramp 2",
    "riverName": "East Fork White River",
    "type": "Public",
    "otherName": "Friends Creek-East Fork White River"
  },
  {
    "department": "Indiana Department of Natural Resources",
    "state": "Indiana",
    "county": "Huntington County",
    "latitude": 40.8912315013,
    "longitude": -85.4704362679,
    "accessName": "Clare Lake",
    "riverName": "Clare Lake",
    "type": "Public",
    "otherName": "Flint Creek-Little River"
  },
  {
    "department": "Indiana Department of Natural Resources",
    "state": "Indiana",
    "county": "Jackson County",
    "latitude": 38.81887407,
    "longitude": -86.14787893,
    "accessName": "Medora",
    "riverName": "East Fork White River",
    "type": "Public",
    "otherName": "Stuckwish Ditch-East Fork White River"
  },
  {
    "department": "Indiana Department of Natural Resources",
    "state": "Indiana",
    "county": "Madison County",
    "latitude": 40.1424800296,
    "longitude": -85.855488057,
    "accessName": "Perkinsville Public Access Site",
    "riverName": "White River",
    "type": "Public",
    "otherName": "Town of Perkinsville-White River"
  },
  {
    "department": "Indiana Department of Natural Resources",
    "state": "Indiana",
    "county": "Ripley County",
    "latitude": 39.276040021,
    "longitude": -85.1938507454,
    "accessName": "Bischoff Reservoir",
    "riverName": "Bischoff Reservoir",
    "type": "Public",
    "otherName": "Little Laughery Creek"
  },
  {
    "department": "Indiana Department of Natural Resources",
    "state": "Indiana",
    "county": "Grant County",
    "latitude": 40.57181852,
    "longitude": -85.66106098,
    "accessName": "Charles Mill Park",
    "riverName": "Mississinewa River",
    "type": "Public",
    "otherName": "Hummel Creek-Mississinewa River"
  },
  {
    "department": "Indiana Department of Natural Resources",
    "state": "Indiana",
    "county": "Jennings County",
    "latitude": 39.1224016596,
    "longitude": -85.759576698,
    "accessName": "Eco Park",
    "riverName": "Eco Park Pond",
    "type": "Public",
    "otherName": "Rock Creek-Sand Creek"
  },
  {
    "department": "Indiana Department of Natural Resources",
    "state": "Indiana",
    "county": "Hamilton County",
    "latitude": 39.9414797987,
    "longitude": -86.0690844777,
    "accessName": "Hazel Dell Landing",
    "riverName": "White River",
    "type": "Public",
    "otherName": "Carmel Creek-White River"
  },
  {
    "department": "Indiana Department of Natural Resources",
    "state": "Indiana",
    "county": "LaPorte County",
    "latitude": 41.6283588125,
    "longitude": -86.7386587758,
    "accessName": "Teledyne Park",
    "riverName": "Pine Lake",
    "type": "Public",
    "otherName": "Travis Ditch"
  },
  {
    "department": "Indiana Department of Natural Resources",
    "state": "Indiana",
    "county": "Fulton County",
    "latitude": 40.91207368,
    "longitude": -86.33394265,
    "accessName": "Fletcher Lake",
    "riverName": "Fletcher Lake",
    "type": "Semi-Private",
    "otherName": "Walsh Ditch-Grassy Creek"
  },
  {
    "department": "Indiana Department of Natural Resources",
    "state": "Indiana",
    "county": "Allen County",
    "latitude": 41.08145437,
    "longitude": -85.15127218,
    "accessName": "Guldlin Park",
    "riverName": "St. Marys River",
    "type": "Public",
    "otherName": "Junk Ditch-Saint Marys River"
  },
  {
    "department": "Indiana Department of Natural Resources",
    "state": "Indiana",
    "county": "Bartholomew County",
    "latitude": 39.20408973,
    "longitude": -85.92838446,
    "accessName": "Mill Race Park",
    "riverName": "Driftwood River",
    "type": "Public",
    "otherName": "City of Columbus-Flatrock River"
  },
  {
    "department": "Indiana Department of Natural Resources",
    "state": "Indiana",
    "county": "Lake County",
    "latitude": 41.2195778232,
    "longitude": -87.2740087508,
    "accessName": "Kankakee River",
    "riverName": "Kankakee River",
    "type": "Public",
    "otherName": "Brown Levee Ditch-Kankakee River"
  },
  {
    "department": "Indiana Department of Natural Resources",
    "state": "Indiana",
    "county": "White County",
    "latitude": 40.7767315009,
    "longitude": -86.759117533,
    "accessName": "Norway Dam Public Fishing Area",
    "riverName": "Tippecanoe River",
    "type": "Public",
    "otherName": "Lake Freeman-Tippecanoe River"
  },
  {
    "department": "Indiana Department of Natural Resources",
    "state": "Indiana",
    "county": "Kosciusko County",
    "latitude": 41.3162482407,
    "longitude": -85.6699618785,
    "accessName": "Backwater Lake",
    "riverName": "Backwater Lake",
    "type": "Public",
    "otherName": "Tippecanoe Lake-Tippecanoe River"
  },
  {
    "department": "Indiana Department of Natural Resources",
    "state": "Indiana",
    "county": "Parke County",
    "latitude": 39.78628507,
    "longitude": -87.3732307,
    "accessName": "Montezuma",
    "riverName": "Wabash River",
    "type": "Public",
    "otherName": "Town of Montezuma-Wabash River"
  },
  {
    "department": "Indiana Department of Natural Resources",
    "state": "Indiana",
    "county": "Jasper County",
    "latitude": 40.93408684,
    "longitude": -87.12796776,
    "accessName": "Iroquois River",
    "riverName": "Iroquois River",
    "type": "Public",
    "otherName": "Moore Ditch-Iroquois River"
  },
  {
    "department": "Indiana Department of Natural Resources",
    "state": "Indiana",
    "county": "Jasper County",
    "latitude": 40.912772,
    "longitude": -87.186124,
    "accessName": "St. Joseph College Public Access Site",
    "riverName": "Iroquois River",
    "type": "Public",
    "otherName": "Moore Ditch-Iroquois River"
  },
  {
    "department": "Indiana Department of Natural Resources",
    "state": "Indiana",
    "county": "Allen County",
    "latitude": 41.0823062211,
    "longitude": -85.1145842551,
    "accessName": "Maumee Dam Public Access Site",
    "riverName": "Maumee River",
    "type": "Public",
    "otherName": "Bullerman Ditch-Maumee River"
  },
  {
    "department": "Indiana Department of Natural Resources",
    "state": "Indiana",
    "county": "Warrick County",
    "latitude": 37.9424459271,
    "longitude": -87.4008111065,
    "accessName": "Ohio River",
    "riverName": "Ohio River",
    "type": "Public",
    "otherName": "Kolb Ditch-Ohio River"
  },
  {
    "department": "Indiana Department of Natural Resources",
    "state": "Indiana",
    "county": "Perry County",
    "latitude": 37.90985145,
    "longitude": -86.74740846,
    "accessName": "Cannelton",
    "riverName": "Ohio River",
    "type": "Public",
    "otherName": "Indian Creek-Ohio River"
  },
  {
    "department": "Indiana Department of Natural Resources",
    "state": "Indiana",
    "county": "Johnson County",
    "latitude": 39.3605352304,
    "longitude": -85.9699659362,
    "accessName": "Irwin Park Public Access Site",
    "riverName": "Big Blue River",
    "type": "Public",
    "otherName": "Shaw Ditch-Big Blue River"
  },
  {
    "department": "Indiana Department of Natural Resources",
    "state": "Indiana",
    "county": "Knox County",
    "latitude": 38.6951543098,
    "longitude": -87.5195618622,
    "accessName": "Vincennes",
    "riverName": "Wabash River",
    "type": "Semi-Private",
    "otherName": "Robeson Pond-Wabash River"
  },
  {
    "department": "Indiana Department of Natural Resources",
    "state": "Indiana",
    "county": "Bartholomew County",
    "latitude": 39.19726432,
    "longitude": -85.92303387,
    "accessName": "Columbus",
    "riverName": "Flatrock River",
    "type": "Public",
    "otherName": "City of Columbus-Flatrock River"
  },
  {
    "department": "Indiana Department of Natural Resources",
    "state": "Indiana",
    "county": "Starke County",
    "latitude": 41.30264092,
    "longitude": -86.6216124,
    "accessName": "Knox",
    "riverName": "Yellow River",
    "type": "Public",
    "otherName": "Cavanaugh Ditch-Yellow River"
  },
  {
    "department": "Indiana Department of Natural Resources",
    "state": "Indiana",
    "county": "Brown County",
    "latitude": 39.17825664,
    "longitude": -86.3378482,
    "accessName": "Yellowwood Lake",
    "riverName": "Yellowwood Lake",
    "type": "Public",
    "otherName": "Clay Lick Creek-North Fork Salt Creek"
  },
  {
    "department": "Indiana Department of Natural Resources",
    "state": "Indiana",
    "county": "Vigo County",
    "latitude": 39.49121046,
    "longitude": -87.31701388,
    "accessName": "J.I. Case Marsh",
    "riverName": "J.I. Case Marsh",
    "type": "Public",
    "otherName": "Lost Creek"
  },
  {
    "department": "Indiana Department of Natural Resources",
    "state": "Indiana",
    "county": "Perry County",
    "latitude": 37.9209186037,
    "longitude": -86.5234676806,
    "accessName": "Rome",
    "riverName": "Ohio River",
    "type": "Public",
    "otherName": "Lick Run-Ohio River"
  },
  {
    "department": "Indiana Department of Natural Resources",
    "state": "Indiana",
    "county": "Elkhart County",
    "latitude": 41.575429869,
    "longitude": -85.8403155638,
    "accessName": "Shanklin Park",
    "riverName": "Elkhart River",
    "type": "Public",
    "otherName": "Goshen Dam Pond-Elkhart River"
  },
  {
    "department": "Indiana Department of Natural Resources",
    "state": "Indiana",
    "county": "Allen County",
    "latitude": 41.23561411,
    "longitude": -84.96233286,
    "accessName": "Hurshtown Reservoir",
    "riverName": "Hurshtown Reservoir",
    "type": "Public",
    "otherName": "Cedarville Reservoir-Saint Joseph River"
  },
  {
    "department": "Indiana Department of Natural Resources",
    "state": "Indiana",
    "county": "Vermillion County",
    "latitude": 39.6580652173,
    "longitude": -87.3956796309,
    "accessName": "Clinton",
    "riverName": "Wabash River",
    "type": "Public",
    "otherName": "Feather Creek-Wabash River"
  },
  {
    "department": "Indiana Department of Natural Resources",
    "state": "Indiana",
    "county": "Hamilton County",
    "latitude": 40.04866605,
    "longitude": -86.01544907,
    "accessName": "Noblesville",
    "riverName": "White River",
    "type": "Public",
    "otherName": "Mallery Granger Ditch-White River"
  },
  {
    "department": "Indiana Department of Natural Resources",
    "state": "Indiana",
    "county": "Vigo County",
    "latitude": 39.49072355,
    "longitude": -87.32367518,
    "accessName": "Hawthorn Park",
    "riverName": "Maple Avenue Lake",
    "type": "Public",
    "otherName": "Lost Creek"
  },
  {
    "department": "Indiana Department of Natural Resources",
    "state": "Indiana",
    "county": "Carroll County",
    "latitude": 40.65322063,
    "longitude": -86.7561651,
    "accessName": "Oakdale Dam",
    "riverName": "Tippecanoe River",
    "type": "Public",
    "otherName": "Wallys Woods Lake-Tippecanoe River"
  },
  {
    "department": "Indiana Department of Natural Resources",
    "state": "Indiana",
    "county": "Martin County",
    "latitude": 38.6239474558,
    "longitude": -86.8538461484,
    "accessName": "Hindostan Falls Public Fishing Area Ramp 1",
    "riverName": "East Fork White River",
    "type": "Public",
    "otherName": "Friends Creek-East Fork White River"
  },
  {
    "department": "Indiana Department of Natural Resources",
    "state": "Indiana",
    "county": "Spencer County",
    "latitude": 37.9307371348,
    "longitude": -86.9799450555,
    "accessName": "Grandview",
    "riverName": "Ohio River",
    "type": "Public",
    "otherName": "City of Rockport-Ohio River"
  },
  {
    "department": "Indiana Department of Natural Resources",
    "state": "Indiana",
    "county": "St. Joseph County",
    "latitude": 41.6716989282,
    "longitude": -86.1562743927,
    "accessName": "Miami Island (Mishawaka)",
    "riverName": "St. Joseph River",
    "type": "Public",
    "otherName": "Willow Creek-Saint Joseph River"
  },
  {
    "department": "Indiana Department of Natural Resources",
    "state": "Indiana",
    "county": "Vigo County",
    "latitude": 39.4560290667,
    "longitude": -87.4200201824,
    "accessName": "Fairbanks Park",
    "riverName": "Wabash River",
    "type": "Public",
    "otherName": "Izaak Walton Lake-Wabash River"
  },
  {
    "department": "Indiana Department of Natural Resources",
    "state": "Indiana",
    "county": "Crawford County",
    "latitude": 38.1206317648,
    "longitude": -86.4221470293,
    "accessName": "Alton",
    "riverName": "Ohio River",
    "type": "Public",
    "otherName": "Watson Run-Ohio River"
  },
  {
    "department": "Indiana Department of Natural Resources",
    "state": "Indiana",
    "county": "Washington County",
    "latitude": 38.64980059,
    "longitude": -85.94966631,
    "accessName": "Elk Creek Public Fishing Area",
    "riverName": "Elk Creek Lake",
    "type": "Public",
    "otherName": "Elk Creek"
  },
  {
    "department": "Indiana Department of Natural Resources",
    "state": "Indiana",
    "county": "Clark County",
    "latitude": 38.40053034,
    "longitude": -85.6313035,
    "accessName": "Charlestown Landing",
    "riverName": "Ohio River",
    "type": "Public",
    "otherName": "Little Huckleberry Creek-Ohio River"
  },