[
  {
    "department": "Arkansas Highway and Transportation Department",
    "state": "Arkansas",
    "county": "Lee County",
    "latitude": 34.7797727484,
    "longitude": -90.7541283317,
    "accessName": "Miller Park",
    "riverName": "L'Anguille River",
    "type": "Public",
    "otherName": "Threemile Slough-L'Anguille River"
  },
  {
    "department": "Arkansas Highway and Transportation Department",
    "state": "Arkansas",
    "county": "Lincoln County",
    "latitude": 33.926759809,
    "longitude": -91.7486967866,
    "accessName": "Cane Creek State Park",
    "riverName": "Bayou Bartholomew",
    "type": "Public",
    "otherName": "Spring Branch-Bayou Bartholomew"
  },
  {
    "department": "Arkansas Highway and Transportation Department",
    "state": "Arkansas",
    "county": "Lincoln County",
    "latitude": 33.9257363604,
    "longitude": -91.7479598508,
    "accessName": "Cane Creek State Park",
    "riverName": "Bayou Bartholomew",
    "type": "Public",
    "otherName": "Spring Branch-Bayou Bartholomew"
  },
  {
    "department": "Arkansas Highway and Transportation Department",
    "state": "Arkansas",
    "county": "Lincoln County",
    "latitude": 33.9248289025,
    "longitude": -91.7511853057,
    "accessName": "Cane Creek State Park (East)",
    "riverName": "Cane Creek",
    "type": "Public",
    "otherName": "Spring Branch-Bayou Bartholomew"
  },
  {
    "department": "Arkansas Highway and Transportation Department",
    "state": "Arkansas",
    "county": "Lincoln County",
    "latitude": 33.9166765407,
    "longitude": -91.7660379024,
    "accessName": "Cane Creek State Park (West)",
    "riverName": "Cane Creek",
    "type": "Public",
    "otherName": "Spring Branch-Bayou Bartholomew"
  },
  {
    "department": "Arkansas Highway and Transportation Department",
    "state": "Arkansas",
    "county": "Little River County",
    "latitude": 33.5711885191,
    "longitude": -94.4098857843,
    "accessName": "Highway 41 (East)",
    "riverName": "Red River",
    "type": "Public",
    "otherName": "Red Bayou-Red River"
  },
  {
    "department": "Arkansas Highway and Transportation Department",
    "state": "Arkansas",
    "county": "Little River County",
    "latitude": 33.5698460663,
    "longitude": -94.4112718549,
    "accessName": "Highway 41 (West)",
    "riverName": "Red River",
    "type": "Public",
    "otherName": "Red Bayou-Red River"
  },
  {
    "department": "Arkansas Highway and Transportation Department",
    "state": "Arkansas",
    "county": "Little River County",
    "latitude": 33.781703313,
    "longitude": -94.1497874614,
    "accessName": "Wilton",
    "riverName": "Little River",
    "type": "Public",
    "otherName": "Blacks Branch-Millwood Lake"
  },
  {
    "department": "Arkansas Highway and Transportation Department",
    "state": "Arkansas",
    "county": "Little River County",
    "latitude": 33.7212695074,
    "longitude": -94.0579022567,
    "accessName": "Peyton",
    "riverName": "Lick Creek - Millwood Lake",
    "type": "Public",
    "otherName": "Millwood Lake"
  },
  {
    "department": "Arkansas Highway and Transportation Department",
    "state": "Arkansas",
    "county": "Little River County",
    "latitude": 33.762206794,
    "longitude": -94.0596820087,
    "accessName": "White Cliffs",
    "riverName": "Little River",
    "type": "Public",
    "otherName": "Blacks Branch-Millwood Lake"
  },
  {
    "department": "Arkansas Highway and Transportation Department",
    "state": "Arkansas",
    "county": "Little River County",
    "latitude": 33.6841301782,
    "longitude": -93.9825105717,
    "accessName": "Millwood State Park",
    "riverName": "Little River - Millwood Lake",
    "type": "Public",
    "otherName": "Millwood Lake"
  },
  {
    "department": "Arkansas Highway and Transportation Department",
    "state": "Arkansas",
    "county": "Little River County",
    "latitude": 33.6890398808,
    "longitude": -93.9631405419,
    "accessName": "Millwood Dam Tailwaters (East)",
    "riverName": "Little River",
    "type": "Public",
    "otherName": "Little River-Red River"
  },
  {
    "department": "Arkansas Highway and Transportation Department",
    "state": "Arkansas",
    "county": "Little River County",
    "latitude": 33.6873463201,
    "longitude": -93.9640848304,
    "accessName": "Millwood Dam Tailwaters (West)",
    "riverName": "Little River",
    "type": "Public",
    "otherName": "Little River-Red River"
  },
  {
    "department": "Arkansas Highway and Transportation Department",
    "state": "Arkansas",
    "county": "Little River County",
    "latitude": 33.7927536648,
    "longitude": -94.186323762,
    "accessName": "Patterson Shoals",
    "riverName": "Little River",
    "type": "Public",
    "otherName": "Little River-Upper Millwood Lake"
  },
  {
    "department": "Arkansas Highway and Transportation Department",
    "state": "Arkansas",
    "county": "Little River County",
    "latitude": 33.7180172219,
    "longitude": -94.0243607812,
    "accessName": "Yarborough",
    "riverName": "Lick Creek - Millwood Lake",
    "type": "Public",
    "otherName": "Millwood Lake"
  },
  {
    "department": "Arkansas Highway and Transportation Department",
    "state": "Arkansas",
    "county": "Little River County",
    "latitude": 33.6871280401,
    "longitude": -93.9786551574,
    "accessName": "Millwood State Park",
    "riverName": "Little River - Millwood Lake",
    "type": "Public",
    "otherName": "Millwood Lake"
  },
  {
    "department": "Arkansas Highway and Transportation Department",
    "state": "Arkansas",
    "county": "Logan County",
    "latitude": 35.0841632872,
    "longitude": -93.7710493109,
    "accessName": "Hise Hill Recreation Area",
    "riverName": "Petit Jean River",
    "type": "Public",
    "otherName": "Dry Creek-Petit Jean River"
  },
  {
    "department": "Arkansas Highway and Transportation Department",
    "state": "Arkansas",
    "county": "Logan County",
    "latitude": 35.3071594494,
    "longitude": -93.431172695,
    "accessName": "Shoal Bay Park",
    "riverName": "Arkansas River",
    "type": "Public",
    "otherName": "Mud Creek-Shoal Creek"
  },
  {
    "department": "Arkansas Highway and Transportation Department",
    "state": "Arkansas",
    "county": "Logan County",
    "latitude": 35.1058526991,
    "longitude": -93.7081287704,
    "accessName": "Ashley Creek Recreation Area",
    "riverName": "Ashley Creek - Blue Mountain Lake",
    "type": "Public",
    "otherName": "Blue Mountain Lake"
  },
  {
    "department": "Arkansas Highway and Transportation Department",
    "state": "Arkansas",
    "county": "Logan County",
    "latitude": 35.0962220903,
    "longitude": -93.8015598173,
    "accessName": "Sugar Creek",
    "riverName": "Petit Jean River",
    "type": "Public",
    "otherName": "Dry Creek-Petit Jean River"
  },
  {
    "department": "Arkansas Highway and Transportation Department",
    "state": "Arkansas",
    "county": "Logan County",
    "latitude": 35.2275107277,
    "longitude": -93.6252410601,
    "accessName": "Cove Lake Recreation Area",
    "riverName": "Short Mountain Creek - Cove Lake",
    "type": "Public",
    "otherName": "Upper Short Mountain Creek"
  },
  {
    "department": "Arkansas Highway and Transportation Department",
    "state": "Arkansas",
    "county": "Lonoke County",
    "latitude": 34.913636507,
    "longitude": -92.069738853,
    "accessName": "Unknown",
    "riverName": "Lake Pickthorne",
    "type": "Public",
    "otherName": "Jacks Bayou-Bayou Two Prairie"
  },
  {
    "department": "Arkansas Highway and Transportation Department",
    "state": "Arkansas",
    "county": "Marion County",
    "latitude": 36.3868837945,
    "longitude": -92.562013987,
    "accessName": "Point Return",
    "riverName": "White River - Bull Shoals Lake",
    "type": "Public",
    "otherName": "Sister Creek-Bull Shoals Lake"
  },
  {
    "department": "Arkansas Highway and Transportation Department",
    "state": "Arkansas",
    "county": "Marion County",
    "latitude": 36.3839681307,
    "longitude": -92.5996747415,
    "accessName": "Lighthouse Point",
    "riverName": "Jimmie Creek - Bull Shoals Lake",
    "type": "Public",
    "otherName": "Jimmie Creek-Bull Shoals Lake"
  },
  {
    "department": "Arkansas Highway and Transportation Department",
    "state": "Arkansas",
    "county": "Marion County",
    "latitude": 36.4410017824,
    "longitude": -92.6318782225,
    "accessName": "Oakland Marina",
    "riverName": "Gulley Spring Creek - Bull Shoals Lake",
    "type": "Semi-Private",
    "otherName": "Sister Creek-Bull Shoals Lake"
  },
  {
    "department": "Arkansas Highway and Transportation Department",
    "state": "Arkansas",
    "county": "Marion County",
    "latitude": 36.4443229856,
    "longitude": -92.6310008946,
    "accessName": "Gilberts Resort",
    "riverName": "Gulley Spring Creek - Bull Shoals Lake",
    "type": "Semi-Private",
    "otherName": "Sister Creek-Bull Shoals Lake"
  },
  {
    "department": "Arkansas Highway and Transportation Department",
    "state": "Arkansas",
    "county": "Marion County",
    "latitude": 36.4352834302,
    "longitude": -92.6546599353,
    "accessName": "Ozark Isle Park (West)",
    "riverName": "White River - Bull Shoals Lake",
    "type": "Public",
    "otherName": "Sister Creek-Bull Shoals Lake"
  },
  {
    "department": "Arkansas Highway and Transportation Department",
    "state": "Arkansas",
    "county": "Marion County",
    "latitude": 36.4291869073,
    "longitude": -92.6461147847,
    "accessName": "Ozark Isle Park (East)",
    "riverName": "White River - Bull Shoals Lake",
    "type": "Public",
    "otherName": "Sister Creek-Bull Shoals Lake"
  },
  {
    "department": "Arkansas Highway and Transportation Department",
    "state": "Arkansas",
    "county": "Marion County",
    "latitude": 36.486451467,
    "longitude": -92.7900910566,
    "accessName": "Buck Creek Park",
    "riverName": "White River - Bull Shoals Lake",
    "type": "Public",
    "otherName": "Buck Creek-Bull Shoals Lake"
  },
  {
    "department": "Arkansas Highway and Transportation Department",
    "state": "Arkansas",
    "county": "Marion County",
    "latitude": 36.4900718235,
    "longitude": -92.7719349004,
    "accessName": "Highway 125 Marina",
    "riverName": "White River - Bull Shoals Lake",
    "type": "Semi-Private",
    "otherName": "Buck Creek-Bull Shoals Lake"
  },
  {
    "department": "Arkansas Highway and Transportation Department",
    "state": "Arkansas",
    "county": "Marion County",
    "latitude": 36.2040119491,
    "longitude": -92.4781541394,
    "accessName": "White River Ranchette",
    "riverName": "White River",
    "type": "Public",
    "otherName": "Dry Creek-White River"
  },
  {
    "department": "Arkansas Highway and Transportation Department",
    "state": "Arkansas",
    "county": "Marion County",
    "latitude": 36.3444655764,
    "longitude": -92.6240895752,
    "accessName": "Jimmy Creek",
    "riverName": "Jimmy Creek - Bull Shoals Lake",
    "type": "Public",
    "otherName": "Jimmie Creek-Bull Shoals Lake"
  },
  {
    "department": "Arkansas Highway and Transportation Department",
    "state": "Arkansas",
    "county": "Miller County",
    "latitude": 33.4977567075,
    "longitude": -93.7705499131,
    "accessName": "First Old River Lake",
    "riverName": "First Old River Lake",
    "type": "Public",
    "otherName": "Red Chute"
  },
  {
    "department": "Arkansas Highway and Transportation Department",
    "state": "Arkansas",
    "county": "Mississippi County",
    "latitude": 35.6552920538,
    "longitude": -89.9259634093,
    "accessName": "Sans Souci Landing",
    "riverName": "Mississippi River",
    "type": "Public",
    "otherName": "Fletcher Towhead-Mississippi River"
  },
  {
    "department": "Arkansas Highway and Transportation Department",
    "state": "Arkansas",
    "county": "Mississippi County",
    "latitude": 35.8532277354,
    "longitude": -90.1322421247,
    "accessName": "Big Lake National Wildlife Refuge (South)",
    "riverName": "Big Lake",
    "type": "Public",
    "otherName": "Big Lake"
  },
  {
    "department": "Arkansas Highway and Transportation Department",
    "state": "Arkansas",
    "county": "Mississippi County",
    "latitude": 35.8966308573,
    "longitude": -90.1334920725,
    "accessName": "Big Lake National Wildlife Refuge (North)",
    "riverName": "Big Lake",
    "type": "Public",
    "otherName": "Big Lake"
  },
  {
    "department": "Arkansas Highway and Transportation Department",
    "state": "Arkansas",
    "county": "Mississippi County",
    "latitude": 35.8857810382,
    "longitude": -89.7738135973,
    "accessName": "County Road 955",
    "riverName": "Mississippi River",
    "type": "Public",
    "otherName": "Tamm Bend-Mississippi River"
  },
  {
    "department": "Arkansas Highway and Transportation Department",
    "state": "Arkansas",
    "county": "Monroe County",
    "latitude": 34.6921519744,
    "longitude": -91.3159725392,
    "accessName": "River Road",
    "riverName": "White River",
    "type": "Public",
    "otherName": "Miller Creek-White River"
  },
  {
    "department": "Arkansas Highway and Transportation Department",
    "state": "Arkansas",
    "county": "Monroe County",
    "latitude": 34.3824372003,
    "longitude": -91.0681085922,
    "accessName": "Cooper Road",
    "riverName": "Indian Bay",
    "type": "Public",
    "otherName": "Indian Bay-Indian Bayou"
  },
  {
    "department": "Arkansas Highway and Transportation Department",
    "state": "Arkansas",
    "county": "Ouachita County",
    "latitude": 33.7026817809,
    "longitude": -93.0883260399,
    "accessName": "White Oak Lake Dam Site",
    "riverName": "White Oak Creek -  White Oak Lake",
    "type": "Public",
    "otherName": "Upper White Oak Creek"
  },
  {
    "department": "Arkansas Highway and Transportation Department",
    "state": "Arkansas",
    "county": "Ouachita County",
    "latitude": 33.4614837985,
    "longitude": -92.7255964912,
    "accessName": "Road 99",
    "riverName": "Ouachita River",
    "type": "Public",
    "otherName": "Doris Creek-Ouachita River"
  },
  {
    "department": "Arkansas Highway and Transportation Department",
    "state": "Arkansas",
    "county": "Ouachita County",
    "latitude": 33.3970875687,
    "longitude": -92.635151682,
    "accessName": "Road 71",
    "riverName": "Ouachita River",
    "type": "Public",
    "otherName": "Ditch Lake-Ouachita River"
  },
  {
    "department": "Arkansas Highway and Transportation Department",
    "state": "Arkansas",
    "county": "Perry County",
    "latitude": 34.9919706516,
    "longitude": -92.6030118563,
    "accessName": "Taylor Creek",
    "riverName": "Arkansas River",
    "type": "Public",
    "otherName": "Taylor Creek-Arkansas River"
  },
  {
    "department": "Arkansas Highway and Transportation Department",
    "state": "Arkansas",
    "county": "Perry County",
    "latitude": 34.9837684372,
    "longitude": -92.7645925057,
    "accessName": "Chittan",
    "riverName": "Harris Brake Lake",
    "type": "Public",
    "otherName": "Harris Brake"
  },
  {
    "department": "Arkansas Highway and Transportation Department",
    "state": "Arkansas",
    "county": "Perry County",
    "latitude": 34.9738072839,
    "longitude": -92.79226021,
    "accessName": "Vuris Landing",
    "riverName": "Harris Brake Lake",
    "type": "Public",
    "otherName": "Harris Brake"
  },
  {
    "department": "Arkansas Highway and Transportation Department",
    "state": "Arkansas",
    "county": "Perry County",
    "latitude": 34.9264266768,
    "longitude": -92.9605425358,
    "accessName": "South Fourche Site Six Reservoir",
    "riverName": "South Fourche Site Six Reservoir",
    "type": "Public",
    "otherName": "Tyndall Slough-Fourche La Fave River"
  },
  {
    "department": "Arkansas Highway and Transportation Department",
    "state": "Arkansas",
    "county": "Perry County",
    "latitude": 34.9559170577,
    "longitude": -93.1636656748,
    "accessName": "Quarry Cove Recreation Area",
    "riverName": "Fourche La Fave River - Nimrod Lake",
    "type": "Public",
    "otherName": "Nimrod Lake Dam"
  },
  {
    "department": "Arkansas Highway and Transportation Department",
    "state": "Arkansas",
    "county": "Phillips County",
    "latitude": 34.5982499069,
    "longitude": -90.6113680978,
    "accessName": "Storm Creek Lake",
    "riverName": "Storm Creek - Storm Creek Lake",
    "type": "Public",
    "otherName": "Tunica Lake-Mississippi River"
  },
  {
    "department": "Arkansas Highway and Transportation Department",
    "state": "Arkansas",
    "county": "Phillips County",
    "latitude": 34.522056321,
    "longitude": -90.5843444112,
    "accessName": "Helena River Park (West)",
    "riverName": "Mississippi River",
    "type": "Public",
    "otherName": "Tunica Lake-Mississippi River"
  },
  {
    "department": "Arkansas Highway and Transportation Department",
    "state": "Arkansas",
    "county": "Phillips County",
    "latitude": 34.5217330497,
    "longitude": -90.5820588053,
    "accessName": "Helena River Park (East)",
    "riverName": "Mississippi River",
    "type": "Public",
    "otherName": "Tunica Lake-Mississippi River"
  },
  {
    "department": "Arkansas Highway and Transportation Department",
    "state": "Arkansas",
    "county": "Coahoma County",
    "latitude": 34.1600583828,
    "longitude": -90.8052122128,
    "accessName": "Desoto Lake (East)",
    "riverName": "Desoto Lake",
    "type": "Public",
    "otherName": "DeSoto Lake-Mississippi River"
  },
  {
    "department": "Arkansas Highway and Transportation Department",
    "state": "Arkansas",
    "county": "Coahoma County",
    "latitude": 34.1347957229,
    "longitude": -90.8429726661,
    "accessName": "Desoto Lake (South)",
    "riverName": "Desoto Lake",
    "type": "Public",
    "otherName": "DeSoto Lake-Mississippi River"
  },
  {
    "department": "Arkansas Highway and Transportation Department",
    "state": "Arkansas",
    "county": "Coahoma County",
    "latitude": 34.1396625914,
    "longitude": -90.8678897979,
    "accessName": "Topper Landing",
    "riverName": "Desoto Lake",
    "type": "Public",
    "otherName": "DeSoto Lake-Mississippi River"
  },
  {
    "department": "Arkansas Highway and Transportation Department",
    "state": "Arkansas",
    "county": "Pike County",
    "latitude": 34.2439443063,
    "longitude": -93.8107598089,
    "accessName": "Highway 70 Landing and Marina",
    "riverName": "Little Missouri River - Lake Greeson",
    "type": "Semi-Private",
    "otherName": "Brickyard Creek-Lake Greeson-Little Missouri River"
  },
  {
    "department": "Arkansas Highway and Transportation Department",
    "state": "Arkansas",
    "county": "Pike County",
    "latitude": 34.2344495991,
    "longitude": -93.7546652065,
    "accessName": "Daisy State Park - Self Creek",
    "riverName": "Self Creek - Lake Greeson",
    "type": "Public",
    "otherName": "Self Creek-Lake Greeson"
  },
  {
    "department": "Arkansas Highway and Transportation Department",
    "state": "Arkansas",
    "county": "Pike County",
    "latitude": 34.2300270729,
    "longitude": -93.6935218837,
    "accessName": "Kirby",
    "riverName": "Bear Creek - Lake Greeson",
    "type": "Public",
    "otherName": "Bear Creek-Lake Greeson-Little Missouri River"
  },
  {
    "department": "Arkansas Highway and Transportation Department",
    "state": "Arkansas",
    "county": "Pike County",
    "latitude": 34.2365750469,
    "longitude": -93.6676929952,
    "accessName": "Bear Creek",
    "riverName": "Bear Creek - Lake Greeson",
    "type": "Public",
    "otherName": "Bear Creek-Lake Greeson-Little Missouri River"
  },
  {
    "department": "Arkansas Highway and Transportation Department",
    "state": "Arkansas",
    "county": "Pike County",
    "latitude": 34.2302746152,
    "longitude": -93.7504586708,
    "accessName": "Daisy State Park Area B",
    "riverName": "Little Missouri River - Lake Greeson",
    "type": "Public",
    "otherName": "Bear Creek-Lake Greeson-Little Missouri River"
  },
  {
    "department": "Arkansas Highway and Transportation Department",
    "state": "Arkansas",
    "county": "Pike County",
    "latitude": 34.173294412,
    "longitude": -93.6826300434,
    "accessName": "New Cowhide Cove Campground",
    "riverName": "Cowhide Creek - Lake Gleeson",
    "type": "Public",
    "otherName": "Cowhide Creek-Lake Greeson-Little Missouri River"
  },
  {
    "department": "Arkansas Highway and Transportation Department",
    "state": "Arkansas",
    "county": "Pike County",
    "latitude": 34.1539506366,
    "longitude": -93.7141406725,
    "accessName": "Narrows Dam",
    "riverName": "Little Missouri River - Lake Greeson",
    "type": "Public",
    "otherName": "Cowhide Creek-Lake Greeson-Little Missouri River"
  },
  {
    "department": "Arkansas Highway and Transportation Department",
    "state": "Arkansas",
    "county": "Pike County",
    "latitude": 34.1696582467,
    "longitude": -93.7301788762,
    "accessName": "Pikeville",
    "riverName": "Little Missouri River - Lake Greeson",
    "type": "Public",
    "otherName": "Cowhide Creek-Lake Greeson-Little Missouri River"
  },
  {
    "department": "Arkansas Highway and Transportation Department",
    "state": "Arkansas",
    "county": "Pike County",
    "latitude": 34.1589820789,
    "longitude": -93.7419938204,
    "accessName": "Unknown",
    "riverName": "Parker Creek - Lake Greeson",
    "type": "Public",
    "otherName": "Cowhide Creek-Lake Greeson-Little Missouri River"
  },
  {
    "department": "Arkansas Highway and Transportation Department",
    "state": "Arkansas",
    "county": "Poinsett County",
    "latitude": 35.6825137649,
    "longitude": -90.9461366001,
    "accessName": "Ok Lake",
    "riverName": "OK Lake",
    "type": "Semi-Private",
    "otherName": "O K Lake-Bayou De View"
  },
  {
    "department": "Arkansas Highway and Transportation Department",
    "state": "Arkansas",
    "county": "Poinsett County",
    "latitude": 35.5844649232,
    "longitude": -90.9571848591,
    "accessName": "Lake Hogue (South)",
    "riverName": "Lake Hogue",
    "type": "Public",
    "otherName": "Lake Hogue-Bayou De View"
  },
  {
    "department": "Arkansas Highway and Transportation Department",
    "state": "Arkansas",
    "county": "Poinsett County",
    "latitude": 35.5884258693,
    "longitude": -90.9598323508,
    "accessName": "Lake Hogue (North)",
    "riverName": "Lake Hogue",
    "type": "Public",
    "otherName": "Lake Hogue-Bayou De View"
  },
  {
    "department": "Arkansas Highway and Transportation Department",
    "state": "Arkansas",
    "county": "Poinsett County",
    "latitude": 35.5218887345,
    "longitude": -90.9040010967,
    "accessName": "Bushy Creek Ditch",
    "riverName": "unnamed reservoir",
    "type": "Public",
    "otherName": "Upper Brushy Creek Ditch"
  },
  {
    "department": "Arkansas Highway and Transportation Department",
    "state": "Arkansas",
    "county": "Poinsett County",
    "latitude": 35.5235557269,
    "longitude": -90.6795382381,
    "accessName": "Lake Poinsett State Park (South)",
    "riverName": "Lake Poinsett",
    "type": "Public",
    "otherName": "Outlet Ditch Number 1"
  },
  {
    "department": "Arkansas Highway and Transportation Department",
    "state": "Arkansas",
    "county": "Poinsett County",
    "latitude": 35.530312262,
    "longitude": -90.6832062208,
    "accessName": "Lake Poinsett State Park (Central)",
    "riverName": "Lake Poinsett",
    "type": "Public",
    "otherName": "Outlet Ditch Number 1"
  },
  {
    "department": "Arkansas Highway and Transportation Department",
    "state": "Arkansas",
    "county": "Poinsett County",
    "latitude": 35.5342432802,
    "longitude": -90.6789394315,
    "accessName": "Lake Poinsett State Park (North)",
    "riverName": "Lake Poinsett",
    "type": "Public",
    "otherName": "Outlet Ditch Number 1"
  },
  {
    "department": "Arkansas Highway and Transportation Department",
    "state": "Arkansas",
    "county": "Poinsett County",
    "latitude": 35.6572511531,
    "longitude": -90.3972680849,
    "accessName": "St. Francis Sunken Lands State Wildlife Management Area",
    "riverName": "Ditch No. 59",
    "type": "Public",
    "otherName": "Ditch Number 1"
  },
  {
    "department": "Arkansas Highway and Transportation Department",
    "state": "Arkansas",
    "county": "Poinsett County",
    "latitude": 35.6785497165,
    "longitude": -90.4738424626,
    "accessName": "St. Francis Sunken Lands Wildlife Management Area",
    "riverName": "St. Francis River",
    "type": "Public",
    "otherName": "Saint Francis Bay Floodway-Saint Francis River"
  },
  {
    "department": "Arkansas Highway and Transportation Department",
    "state": "Arkansas",
    "county": "Poinsett County",
    "latitude": 35.6357044643,
    "longitude": -90.4557984128,
    "accessName": "St. Francis Sunken Lands Wildlife Management Area",
    "riverName": "St. Francis River",
    "type": "Public",
    "otherName": "Saint Francis Bay Floodway-Saint Francis River"
  },
  {
    "department": "Arkansas Highway and Transportation Department",
    "state": "Arkansas",
    "county": "Poinsett County",
    "latitude": 35.6100502496,
    "longitude": -90.4681382436,
    "accessName": "St. Francis Sunken Lands Wildlife Management Area - Oak Donick",
    "riverName": "St. Francis River",
    "type": "Public",
    "otherName": "Saint Francis Bay Floodway-Saint Francis River"
  },
  {
    "department": "Arkansas Highway and Transportation Department",
    "state": "Arkansas",
    "county": "Poinsett County",
    "latitude": 35.5867525019,
    "longitude": -90.4387393984,
    "accessName": "St. Francis Sunken Lands State Wildlife Management Area - Lock and Dam",
    "riverName": "St. Francis River",
    "type": "Public",
    "otherName": "Saint Francis Bay Floodway-Saint Francis River"
  },
  {
    "department": "Arkansas Highway and Transportation Department",
    "state": "Arkansas",
    "county": "Poinsett County",
    "latitude": 35.5436680091,
    "longitude": -90.4832721097,
    "accessName": "St. Francis Sunken Lands State Wildlife Management Area",
    "riverName": "Ditch No. 60",
    "type": "Public",
    "otherName": "Saint Francis Bay Floodway-Saint Francis River"
  },
  {
    "department": "Arkansas Highway and Transportation Department",
    "state": "Arkansas",
    "county": "Poinsett County",
    "latitude": 35.532444927,
    "longitude": -90.4241105661,
    "accessName": "Marked Tree",
    "riverName": "St. Francis River",
    "type": "Public",
    "otherName": "Ditch Number 1-Saint Francis River"
  },
  {
    "department": "Arkansas Highway and Transportation Department",
    "state": "Arkansas",
    "county": "Poinsett County",
    "latitude": 35.6722766245,
    "longitude": -90.3398506387,
    "accessName": "Unknown",
    "riverName": "Righthand Chute Little River",
    "type": "Public",
    "otherName": "Ditch Number 1"
  },
  {
    "department": "Arkansas Highway and Transportation Department",
    "state": "Arkansas",
    "county": "Polk County",
    "latitude": 34.6511630946,
    "longitude": -94.1210638832,
    "accessName": "Irons Fork Lake",
    "riverName": "Irons Fork - Irons Fork Lake",
    "type": "Public",
    "otherName": "Irons Fork"
  },
  {
    "department": "Arkansas Highway and Transportation Department",
    "state": "Arkansas",
    "county": "Polk County",
    "latitude": 34.6006233224,
    "longitude": -94.3562796647,
    "accessName": "Lake Wilhelmina",
    "riverName": "Powell Creek - Lake Wilhelmina",
    "type": "Public",
    "otherName": "Powell Creek-Mountain Fork"
  },
  {
    "department": "Arkansas Highway and Transportation Department",
    "state": "Arkansas",
    "county": "Pope County",
    "latitude": 35.2096247955,
    "longitude": -92.961642681,
    "accessName": "Twin Dikes Road",
    "riverName": "Kuhn Bayou - Lake Atkins",
    "type": "Public",
    "otherName": "Khun Bayou-Arkansas River"
  },
  {
    "department": "Arkansas Highway and Transportation Department",
    "state": "Arkansas",
    "county": "Pope County",
    "latitude": 35.2088773225,
    "longitude": -92.953046461,
    "accessName": "Lucky Landing",
    "riverName": "Kuhn Bayou - Lake Atkins",
    "type": "Public",
    "otherName": "Khun Bayou-Arkansas River"
  },
  {
    "department": "Arkansas Highway and Transportation Department",
    "state": "Arkansas",
    "county": "Pope County",
    "latitude": 35.1682572632,
    "longitude": -93.011008353,
    "accessName": "Sweeden Island Recreation Area",
    "riverName": "Arkansas River",
    "type": "Public",
    "otherName": "Khun Bayou-Arkansas River"
  },
  {
    "department": "Arkansas Highway and Transportation Department",
    "state": "Arkansas",
    "county": "Pope County",
    "latitude": 35.38580031,
    "longitude": -93.1994525761,
    "accessName": "Huckleberry Creek",
    "riverName": "Huckleberry Creek - Huckleberry Creek Reservoir",
    "type": "Public",
    "otherName": "Huckleberry Creek-Illinois Bayou"
  },
  {
    "department": "Arkansas Highway and Transportation Department",
    "state": "Arkansas",
    "county": "Pope County",
    "latitude": 35.3022912691,
    "longitude": -93.2359343546,
    "accessName": "ANO Effluent Bay",
    "riverName": "Arkansas River - Lake Dardanelle",
    "type": "Public",
    "otherName": "Delaware Creek-Lake Dardanelle"
  },
  {
    "department": "Arkansas Highway and Transportation Department",
    "state": "Arkansas",
    "county": "Prairie County",
    "latitude": 34.8390010801,
    "longitude": -91.4588256781,
    "accessName": "Interstate 40 Bridge",
    "riverName": "White River",
    "type": "Public",
    "otherName": "Miller Creek-White River"
  },
  {
    "department": "Arkansas Highway and Transportation Department",
    "state": "Arkansas",
    "county": "Prairie County",
    "latitude": 34.7873400837,
    "longitude": -91.4559129732,
    "accessName": "The Basin",
    "riverName": "WHite River",
    "type": "Public",
    "otherName": "Miller Creek-White River"
  },
  {
    "department": "Arkansas Highway and Transportation Department",
    "state": "Arkansas",
    "county": "Prairie County",
    "latitude": 34.7907257088,
    "longitude": -91.4443000268,
    "accessName": "Twin City Riverfront Park",
    "riverName": "White River",
    "type": "Public",
    "otherName": "Miller Creek-White River"
  },
  {
    "department": "Arkansas Highway and Transportation Department",
    "state": "Arkansas",
    "county": "Prairie County",
    "latitude": 35.018933927,
    "longitude": -91.5170915816,
    "accessName": "Bayou Des Arc Wildlife Management Area",
    "riverName": "Lake Des Arc",
    "type": "Public",
    "otherName": "Lake Des Arc-Bayou Des Arc"
  },
  {
    "department": "Arkansas Highway and Transportation Department",
    "state": "Arkansas",
    "county": "Prairie County",
    "latitude": 34.6836920675,
    "longitude": -91.5200486053,
    "accessName": "Peckerwood Lake",
    "riverName": "Peckerwood Lake",
    "type": "Public",
    "otherName": "Hartz Reservoir-La Grue Bayou"
  },
  {
    "department": "Arkansas Highway and Transportation Department",
    "state": "Arkansas",
    "county": "Pulaski County",
    "latitude": 34.8384116562,
    "longitude": -92.4910089347,
    "accessName": "Unknown",
    "riverName": "Little Maumelle RIver",
    "type": "Public",
    "otherName": "Little Maumelle River-Maumelle River"
  },
  {
    "department": "Arkansas Highway and Transportation Department",
    "state": "Arkansas",
    "county": "Pulaski County",
    "latitude": 34.8646731686,
    "longitude": -92.5657463099,
    "accessName": "Westrock Landing",
    "riverName": "Maumelle River - Lake Maumelle",
    "type": "Public",
    "otherName": "Reece Creek-Maumelle River"
  },
  {
    "department": "Arkansas Highway and Transportation Department",
    "state": "Arkansas",
    "county": "Pulaski County",
    "latitude": 34.8309063173,
    "longitude": -92.4303491918,
    "accessName": "Maumelle Park",
    "riverName": "Arkansas River",
    "type": "Public",
    "otherName": "Maumelle River-Arkansas River"
  },
  {
    "department": "Arkansas Highway and Transportation Department",
    "state": "Arkansas",
    "county": "Pulaski County",
    "latitude": 34.8359499945,
    "longitude": -92.2871069583,
    "accessName": "Camp Robinson Lake Number One",
    "riverName": "Camp Robinson Lake Number One",
    "type": "Public",
    "otherName": "Fivemile Creek-Bayou Meto"
  },
  {
    "department": "Arkansas Highway and Transportation Department",
    "state": "Arkansas",
    "county": "Pulaski County",
    "latitude": 34.8010514117,
    "longitude": -92.3555105069,
    "accessName": "Cooks Landing Park",
    "riverName": "Arkansas River",
    "type": "Public",
    "otherName": "White Oak Bayou"
  },
  {
    "department": "Arkansas Highway and Transportation Department",
    "state": "Arkansas",
    "county": "Pulaski County",
    "latitude": 34.6651969367,
    "longitude": -92.1484544933,
    "accessName": "David D. Terry Park (East)",
    "riverName": "Arkansas River",
    "type": "Public",
    "otherName": "Fourche Creek-Arkansas River"
  },
  {
    "department": "Arkansas Highway and Transportation Department",
    "state": "Arkansas",
    "county": "Pulaski County",
    "latitude": 34.6725177952,
    "longitude": -92.1248914345,
    "accessName": "Old River Lake",
    "riverName": "Old River Lake",
    "type": "Public",
    "otherName": "Fourche Creek-Arkansas River"
  },
  {
    "department": "Arkansas Highway and Transportation Department",
    "state": "Arkansas",
    "county": "Pulaski County",
    "latitude": 34.8766824682,
    "longitude": -92.6039096094,
    "accessName": "Marina Lane",
    "riverName": "Maumelle River - Lake Maumelle",
    "type": "Public",
    "otherName": "Reece Creek-Maumelle River"
  },
  {
    "department": "Arkansas Highway and Transportation Department",
    "state": "Arkansas",
    "county": "Pulaski County",
    "latitude": 34.8472100208,
    "longitude": -92.4640371808,
    "accessName": "Pinnacle Mountain State Park",
    "riverName": "Maumelle River",
    "type": "Public",
    "otherName": "Reece Creek-Maumelle River"
  },
  {
    "department": "Arkansas Highway and Transportation Department",
    "state": "Arkansas",
    "county": "Pulaski County",
    "latitude": 34.7870855848,
    "longitude": -92.3079700885,
    "accessName": "Shilcotts Bayou",
    "riverName": "Arkansas River",
    "type": "Public",
    "otherName": "White Oak Bayou"
  },
  {
    "department": "Arkansas Highway and Transportation Department",
    "state": "Arkansas",
    "county": "Pulaski County",
    "latitude": 34.7518485295,
    "longitude": -92.2620073911,
    "accessName": "North Little Rock RIver Front Park",
    "riverName": "Arkansas River",
    "type": "Public",
    "otherName": "Faulkner Lake-Arkansas River"
  },
  {
    "department": "Arkansas Highway and Transportation Department",
    "state": "Arkansas",
    "county": "Pulaski County",
    "latitude": 34.7990051236,
    "longitude": -92.3851079687,
    "accessName": "Two Rivers Park",
    "riverName": "Arkansas River",
    "type": "Public",
    "otherName": "Little Maumelle River-Maumelle River"
  },
  {
    "department": "Arkansas Highway and Transportation Department",
    "state": "Arkansas",
    "county": "Pulaski County",
    "latitude": 34.7857819031,
    "longitude": -92.3364033097,
    "accessName": "Murray Park (West)",
    "riverName": "Arkansas River",
    "type": "Public",
    "otherName": "White Oak Bayou"
  },
  {
    "department": "Arkansas Highway and Transportation Department",
    "state": "Arkansas",
    "county": "Pulaski County",
    "latitude": 34.7869639357,
    "longitude": -92.3343247566,
    "accessName": "Murray Park (East)",
    "riverName": "Arkansas River",
    "type": "Public",
    "otherName": "White Oak Bayou"
  },
  {
    "department": "Arkansas Highway and Transportation Department",
    "state": "Arkansas",
    "county": "Pulaski County",
    "latitude": 34.6751308234,
    "longitude": -92.1619188124,
    "accessName": "David D. Terry Park (West)",
    "riverName": "Arkansas River",
    "type": "Public",
    "otherName": "Fourche Creek-Arkansas River"
  },
  {
    "department": "Arkansas Highway and Transportation Department",
    "state": "Arkansas",
    "county": "Pulaski County",
    "latitude": 34.7168417987,
    "longitude": -92.2066191125,
    "accessName": "Remmel Park",
    "riverName": "Fourche Creek",
    "type": "Public",
    "otherName": "Coleman Creek-Maumelle River"
  },
  {
    "department": "Arkansas Highway and Transportation Department",
    "state": "Arkansas",
    "county": "Randolph County",
    "latitude": 36.2532044764,
    "longitude": -90.9708945615,
    "accessName": "Riverside Park",
    "riverName": "Black River",
    "type": "Public",
    "otherName": "Mill Creek-Black River"
  },
  {
    "department": "Arkansas Highway and Transportation Department",
    "state": "Arkansas",
    "county": "Randolph County",
    "latitude": 36.2503853515,
    "longitude": -91.0861583687,
    "accessName": "Dunn Road",
    "riverName": "Eleven Point River",
    "type": "Public",
    "otherName": "Hubble Creek-Eleven Point River"
  },
  {
    "department": "Arkansas Highway and Transportation Department",
    "state": "Arkansas",
    "county": "Randolph County",
    "latitude": 36.2904392721,
    "longitude": -90.8163882747,
    "accessName": "Murray Creek",
    "riverName": "Black River",
    "type": "Public",
    "otherName": "Big Slough-Black River"
  },
  {
    "department": "Arkansas Highway and Transportation Department",
    "state": "Arkansas",
    "county": "Randolph County",
    "latitude": 36.1523471523,
    "longitude": -91.0546166271,
    "accessName": "Davidsonville Historic State Park",
    "riverName": "Black River",
    "type": "Public",
    "otherName": "Bay Creek-Black River"
  },
  {
    "department": "Arkansas Highway and Transportation Department",
    "state": "Arkansas",
    "county": "Saline County",
    "latitude": 34.7202545884,
    "longitude": -92.6411585068,
    "accessName": "Unknown",
    "riverName": "Dry Branch - Lake Norrell",
    "type": "Public",
    "otherName": "Lower North Fork Saline River"
  },
  {
    "department": "Arkansas Highway and Transportation Department",
    "state": "Arkansas",
    "county": "Saline County",
    "latitude": 34.5871647919,
    "longitude": -92.6048206123,
    "accessName": "Lyle Park",
    "riverName": "Saline River",
    "type": "Public",
    "otherName": "Depot Creek-Saline River"
  },
  {
    "department": "Arkansas Highway and Transportation Department",
    "state": "Arkansas",
    "county": "Saline County",
    "latitude": 34.5558023118,
    "longitude": -92.6209249992,
    "accessName": "Interstate 30 Bridge",
    "riverName": "Saline River",
    "type": "Public",
    "otherName": "Depot Creek-Saline River"
  },
  {
    "department": "Arkansas Highway and Transportation Department",
    "state": "Arkansas",
    "county": "Scott County",
    "latitude": 34.854850727,
    "longitude": -94.2525339253,
    "accessName": "Lake Hinkle (East)",
    "riverName": "Jones Creek - Lake Hinkle",
    "type": "Public",
    "otherName": "Upper Jones Creek"
  },
  {
    "department": "Arkansas Highway and Transportation Department",
    "state": "Arkansas",
    "county": "Scott County",
    "latitude": 34.858265263,
    "longitude": -94.2866885598,
    "accessName": "Lake Hinkle (West)",
    "riverName": "Jones Creek - Lake Hinkle",
    "type": "Public",
    "otherName": "Upper Jones Creek"
  },
  {
    "department": "Arkansas Highway and Transportation Department",
    "state": "Arkansas",
    "county": "Scott County",
    "latitude": 34.9425306576,
    "longitude": -94.0471897834,
    "accessName": "Poteau River Site Five Lake",
    "riverName": "East Fork Poteau River",
    "type": "Public",
    "otherName": "East Fork-Poteau River"
  },
  {
    "department": "Arkansas Highway and Transportation Department",
    "state": "Arkansas",
    "county": "Sebastian County",
    "latitude": 35.3489519708,
    "longitude": -94.2342151034,
    "accessName": "Vache Grasse",
    "riverName": "Arkansas River",
    "type": "Public",
    "otherName": "Little Vache Grasse Creek Outlet-Arkansas River"
  },
  {
    "department": "Arkansas Highway and Transportation Department",
    "state": "Arkansas",
    "county": "Sebastian County",
    "latitude": 35.4323934916,
    "longitude": -94.3698358387,
    "accessName": "Fort Smith Park",
    "riverName": "Arkansas River",
    "type": "Public",
    "otherName": "City of Fort Smith-Arkansas River"
  },
  {
    "department": "Arkansas Highway and Transportation Department",
    "state": "Arkansas",
    "county": "Sebastian County",
    "latitude": 35.3422607651,
    "longitude": -94.2851000416,
    "accessName": "Dam Site",
    "riverName": "Arkansas River",
    "type": "Public",
    "otherName": "Little Vache Grasse Creek Outlet-Arkansas River"
  },
  {
    "department": "Arkansas Highway and Transportation Department",
    "state": "Arkansas",
    "county": "Sebastian County",
    "latitude": 35.3496663912,
    "longitude": -94.3115851474,
    "accessName": "Massard Creek",
    "riverName": "Massard Creek",
    "type": "Public",
    "otherName": "Massard Creek"
  },
  {
    "department": "Arkansas Highway and Transportation Department",
    "state": "Arkansas",
    "county": "Sebastian County",
    "latitude": 35.350687882,
    "longitude": -94.3077031745,
    "accessName": "Springhill Park",
    "riverName": "Massard Creek",
    "type": "Public",
    "otherName": "Massard Creek"
  },
  {
    "department": "Arkansas Highway and Transportation Department",
    "state": "Arkansas",
    "county": "Sebastian County",
    "latitude": 35.0959914339,
    "longitude": -94.397436474,
    "accessName": "Sugarloaf Lake (East)",
    "riverName": "Sugarloaf Lake",
    "type": "Public",
    "otherName": "Johnson Branch-James Fork"
  },
  {
    "department": "Arkansas Highway and Transportation Department",
    "state": "Arkansas",
    "county": "Sebastian County",
    "latitude": 35.0946017622,
    "longitude": -94.4072925866,
    "accessName": "Sugarloaf Lake (West)",
    "riverName": "Sugarloaf Lake",
    "type": "Public",
    "otherName": "Johnson Branch-James Fork"
  },
  {
    "department": "Arkansas Highway and Transportation Department",
    "state": "Arkansas",
    "county": "Sevier County",
    "latitude": 34.1555383916,
    "longitude": -94.0976031313,
    "accessName": "Jefferson Ridge (East)",
    "riverName": "Cave Creek - Dierks Lake",
    "type": "Public",
    "otherName": "Caney Creek-Saline River"
  },
  {
    "department": "Arkansas Highway and Transportation Department",
    "state": "Arkansas",
    "county": "Sevier County",
    "latitude": 33.7829442875,
    "longitude": -94.0072325894,
    "accessName": "Paraloma Park",
    "riverName": "Little River - Millwood Lake",
    "type": "Public",
    "otherName": "Millwood Lake"
  },
  {
    "department": "Arkansas Highway and Transportation Department",
    "state": "Arkansas",
    "county": "Sevier County",
    "latitude": 34.1117861044,
    "longitude": -94.3622378045,
    "accessName": "Stony Creek",
    "riverName": "Rolling Fork - De Queen Lake",
    "type": "Public",
    "otherName": "Dequeen Lake"
  },
  {
    "department": "Arkansas Highway and Transportation Department",
    "state": "Arkansas",
    "county": "Sevier County",
    "latitude": 34.128646331,
    "longitude": -94.3895678974,
    "accessName": "Bellah Creek",
    "riverName": "Rolling Fork - DeQueen Lake",
    "type": "Public",
    "otherName": "Dequeen Lake"
  },
  {
    "department": "Arkansas Highway and Transportation Department",
    "state": "Arkansas",
    "county": "Sevier County",
    "latitude": 34.1263656431,
    "longitude": -94.3997070286,
    "accessName": "Bellah Mine Campground",
    "riverName": "Rolling Fork - DeQueen Lake",
    "type": "Public",
    "otherName": "Dequeen Lake"
  },
  {
    "department": "Arkansas Highway and Transportation Department",
    "state": "Arkansas",
    "county": "Sevier County",
    "latitude": 34.104398569,
    "longitude": -94.3929323583,
    "accessName": "Pine Ridge Park",
    "riverName": "Rolling Fork - De Queen Lake",
    "type": "Public",
    "otherName": "Dequeen Lake"
  },
  {
    "department": "Arkansas Highway and Transportation Department",
    "state": "Arkansas",
    "county": "Little River County",
    "latitude": 33.9190846448,
    "longitude": -94.3882230803,
    "accessName": "Highway 41 Bridge",
    "riverName": "Little River",
    "type": "Public",
    "otherName": "Red Creek-Little River"
  },
  {
    "department": "Arkansas Highway and Transportation Department",
    "state": "Arkansas",
    "county": "Sharp County",
    "latitude": 36.2535176885,
    "longitude": -91.4071073524,
    "accessName": "Williford",
    "riverName": "Spring River",
    "type": "Public",
    "otherName": "Rock Creek-Spring River"
  },
  {
    "department": "Arkansas Highway and Transportation Department",
    "state": "Arkansas",
    "county": "St. Francis County",
    "latitude": 34.9789924009,
    "longitude": -90.6773342378,
    "accessName": "Jarvis Bend",
    "riverName": "St. Francis River",
    "type": "Public",
    "otherName": "Horseshoe Lake-Saint Francis River"
  },
  {
    "department": "Arkansas Highway and Transportation Department",
    "state": "Arkansas",
    "county": "Izard County",
    "latitude": 35.9257261701,
    "longitude": -91.947773518,
    "accessName": "Highway 58 Bridge",
    "riverName": "White River",
    "type": "Public",
    "otherName": "Hidden Creek-White River"
  },
  {
    "department": "Arkansas Highway and Transportation Department",
    "state": "Arkansas",
    "county": "Stone County",
    "latitude": 35.9413767118,
    "longitude": -92.1143949729,
    "accessName": "North Sylamore Creek (West)",
    "riverName": "White River",
    "type": "Public",
    "otherName": "Outlet South Sylamore Creek"
  },
  {
    "department": "Arkansas Highway and Transportation Department",
    "state": "Arkansas",
    "county": "Union County",
    "latitude": 33.3237850206,
    "longitude": -92.5359340553,
    "accessName": "Smith Street",
    "riverName": "Calion Lake",
    "type": "Public",
    "otherName": "Amason Creek"
  },
  {
    "department": "Arkansas Highway and Transportation Department",
    "state": "Arkansas",
    "county": "Union County",
    "latitude": 33.3257451898,
    "longitude": -92.5264316424,
    "accessName": "Unknown",
    "riverName": "Ouachita River",
    "type": "Public",
    "otherName": "Crooked Slough-Ouachita River"
  },
  {
    "department": "Arkansas Highway and Transportation Department",
    "state": "Arkansas",
    "county": "Union County",
    "latitude": 33.2940339583,
    "longitude": -92.4741805172,
    "accessName": "Salt Spring Bend",
    "riverName": "Ouachita River",
    "type": "Public",
    "otherName": "Mill Creek"
  },
  {
    "department": "Arkansas Highway and Transportation Department",
    "state": "Arkansas",
    "county": "Union County",
    "latitude": 33.2988383251,
    "longitude": -92.3517686333,
    "accessName": "Unknown",
    "riverName": "Ouachita River",
    "type": "Public",
    "otherName": "Lick Creek-Ouachita River"
  },
  {
    "department": "Arkansas Highway and Transportation Department",
    "state": "Arkansas",
    "county": "Union County",
    "latitude": 33.2648924845,
    "longitude": -92.3089516238,
    "accessName": "Caryville Landing",
    "riverName": "Ouachita River",
    "type": "Public",
    "otherName": "Lick Creek-Ouachita River"
  },
  {
    "department": "Arkansas Highway and Transportation Department",
    "state": "Arkansas",
    "county": "Union County",
    "latitude": 33.1927750768,
    "longitude": -92.2148390165,
    "accessName": "Jones Lake",
    "riverName": "Jones Lake - Caney Bayou",
    "type": "Public",
    "otherName": "Caney Bayou"
  },
  {
    "department": "Arkansas Highway and Transportation Department",
    "state": "Arkansas",
    "county": "Union County",
    "latitude": 33.1473782796,
    "longitude": -92.1596190983,
    "accessName": "Deep Slough",
    "riverName": "Deep Slough",
    "type": "Public",
    "otherName": "Lapile Creek-Ouachita River"
  },
  {
    "department": "Arkansas Highway and Transportation Department",
    "state": "Arkansas",
    "county": "Union County",
    "latitude": 33.1140283923,
    "longitude": -92.1594443106,
    "accessName": "Felsenthal National Wildlife Refuge",
    "riverName": "Glaze Creek",
    "type": "Public",
    "otherName": "Lapile Creek-Ouachita River"
  },
  {
    "department": "Arkansas Highway and Transportation Department",
    "state": "Arkansas",
    "county": "Union County",
    "latitude": 33.0671744695,
    "longitude": -92.1297993818,
    "accessName": "Marcus",
    "riverName": "Ouachita River",
    "type": "Public",
    "otherName": "Lapile Creek-Ouachita River"
  },
  {
    "department": "Arkansas Highway and Transportation Department",
    "state": "Arkansas",
    "county": "Union County",
    "latitude": 33.0567650151,
    "longitude": -92.1251743443,
    "accessName": "New Lock 6 Road",
    "riverName": "Ouachita River",
    "type": "Public",
    "otherName": "Lapile Creek-Ouachita River"
  },
  {
    "department": "Arkansas Highway and Transportation Department",
    "state": "Arkansas",
    "county": "Union County",
    "latitude": 33.0589084384,
    "longitude": -92.1442886983,
    "accessName": "Grand Marais Recreation Site",
    "riverName": "Grand Marais",
    "type": "Public",
    "otherName": "Lapile Creek-Ouachita River"
  },
  {
    "department": "Arkansas Highway and Transportation Department",
    "state": "Arkansas",
    "county": "Union County",
    "latitude": 33.1580163602,
    "longitude": -92.1120177562,
    "accessName": "HIghway 82",
    "riverName": "Ouachita River",
    "type": "Public",
    "otherName": "Lapile Creek-Ouachita River"
  },
  {
    "department": "Arkansas Highway and Transportation Department",
    "state": "Arkansas",
    "county": "Van Buren County",
    "latitude": 35.5685149492,
    "longitude": -92.2959387026,
    "accessName": "Greers Ferry Lake",
    "riverName": "LIttle Red River - Greers Ferry Lake",
    "type": "Public",
    "otherName": "Lazy Creek-Greers Ferry Lake"
  },
  {
    "department": "Arkansas Highway and Transportation Department",
    "state": "Arkansas",
    "county": "Van Buren County",
    "latitude": 35.5676407895,
    "longitude": -92.2985258943,
    "accessName": "Greers Ferry Lake",
    "riverName": "LIttle Red River - Greers Ferry Lake",
    "type": "Public",
    "otherName": "Lazy Creek-Greers Ferry Lake"
  },
  {
    "department": "Arkansas Highway and Transportation Department",
    "state": "Arkansas",
    "county": "Van Buren County",
    "latitude": 35.5541918973,
    "longitude": -92.3237522928,
    "accessName": "Greers Ferry Lake",
    "riverName": "LIttle Red River - Greers Ferry Lake",
    "type": "Public",
    "otherName": "Lazy Creek-Greers Ferry Lake"
  },
  {
    "department": "Arkansas Highway and Transportation Department",
    "state": "Arkansas",
    "county": "Van Buren County",
    "latitude": 35.5299441126,
    "longitude": -92.3782611272,
    "accessName": "Greers Ferry Lake",
    "riverName": "Little Red River - Greers Ferry Lake",
    "type": "Public",
    "otherName": "Choctaw Creek-Greers Ferry Lake"
  },
  {
    "department": "Arkansas Highway and Transportation Department",
    "state": "Arkansas",
    "county": "Washington County",
    "latitude": 36.2020203215,
    "longitude": -93.9728324052,
    "accessName": "Natural Walk Road",
    "riverName": "White River - Beaver Lake",
    "type": "Public",
    "otherName": "Beaver Lake-War Eagle Creek"
  },
  {
    "department": "Arkansas Highway and Transportation Department",
    "state": "Arkansas",
    "county": "Washington County",
    "latitude": 36.1612375202,
    "longitude": -94.0024459744,
    "accessName": "Blue Springs",
    "riverName": "Brush Creek",
    "type": "Public",
    "otherName": "Brush Creek-Beaver Lake"
  },
  {
    "department": "Arkansas Highway and Transportation Department",
    "state": "Arkansas",
    "county": "Washington County",
    "latitude": 36.1654522508,
    "longitude": -94.0141738779,
    "accessName": "Boat Ramp Road",
    "riverName": "White River",
    "type": "Public",
    "otherName": "Beaver Lake"
  },
  {
    "department": "Arkansas Highway and Transportation Department",
    "state": "Arkansas",
    "county": "Washington County",
    "latitude": 36.1456491678,
    "longitude": -94.0352564101,
    "accessName": "Shoreline Way",
    "riverName": "White River",
    "type": "Public",
    "otherName": "Roberts Creek-Beaver Lake"
  },
  {
    "department": "Arkansas Highway and Transportation Department",
    "state": "Arkansas",
    "county": "Washington County",
    "latitude": 35.9726599761,
    "longitude": -94.3550272122,
    "accessName": "Budd Kidd Lake",
    "riverName": "Budd Kidd Creek - Budd Kidd Lake",
    "type": "Public",
    "otherName": "Upper Muddy Fork-Illinois River"
  },
  {
    "department": "Arkansas Highway and Transportation Department",
    "state": "Arkansas",
    "county": "White County",
    "latitude": 35.1865564175,
    "longitude": -91.4779815719,
    "accessName": "Nimmo",
    "riverName": "Little Red River",
    "type": "Public",
    "otherName": "Black Creek-Little Red River"
  },
  {
    "department": "Arkansas Highway and Transportation Department",
    "state": "Arkansas",
    "county": "White County",
    "latitude": 35.4522126469,
    "longitude": -91.7762455905,
    "accessName": "Ramsey",
    "riverName": "Little Red River",
    "type": "Public",
    "otherName": "Cedar Branch-Little Red River"
  },
  {
    "department": "Arkansas Highway and Transportation Department",
    "state": "Arkansas",
    "county": "Arkansas County",
    "latitude": 34.3443099918,
    "longitude": -91.7045701872,
    "accessName": "Mulberry Grove Road",
    "riverName": "Salt Bayou Ditch",
    "type": "Public",
    "otherName": "Bear Bayou-Salt Bayou Drainage Ditch"
  },
  {
    "department": "Arkansas Highway and Transportation Department",
    "state": "Arkansas",
    "county": "Arkansas County",
    "latitude": 34.0970887452,
    "longitude": -91.1682343401,
    "accessName": "Jacks Bay Landing",
    "riverName": "White River",
    "type": "Public",
    "otherName": "La Grue Bayou-White River"
  },
  {
    "department": "Arkansas Highway and Transportation Department",
    "state": "Arkansas",
    "county": "Arkansas County",
    "latitude": 34.0326574503,
    "longitude": -91.2674776085,
    "accessName": "Merrisach Lake",
    "riverName": "Merrisach Lake",
    "type": "Public",
    "otherName": "Little Post Bayou-Arkansas River"
  },
  {
    "department": "Arkansas Highway and Transportation Department",
    "state": "Arkansas",
    "county": "Arkansas County",
    "latitude": 34.0255940875,
    "longitude": -91.3623710158,
    "accessName": "Moore Bayou Recreation Area",
    "riverName": "Moore Bayou",
    "type": "Public",
    "otherName": "Little Post Bayou-Arkansas River"
  },
  {
    "department": "Arkansas Highway and Transportation Department",
    "state": "Arkansas",
    "county": "Arkansas County",
    "latitude": 33.9786573818,
    "longitude": -91.3075715071,
    "accessName": "Wilbur D. Mills Campground",
    "riverName": "Arkansas River",
    "type": "Public",
    "otherName": "Saw Mill Bend Cutoff-Arkansas River"
  },
  {
    "department": "Arkansas Highway and Transportation Department",
    "state": "Arkansas",
    "county": "Arkansas County",
    "latitude": 33.9876399202,
    "longitude": -91.3092186578,
    "accessName": "Notrebes Bend Recreation Area",
    "riverName": "Arkansas River",
    "type": "Public",
    "otherName": "Saw Mill Bend Cutoff-Arkansas River"
  },
  {
    "department": "Arkansas Highway and Transportation Department",
    "state": "Arkansas",
    "county": "Arkansas County",
    "latitude": 34.3769059397,
    "longitude": -91.125957314,
    "accessName": "River View Drive",
    "riverName": "White River",
    "type": "Public",
    "otherName": "Stinking Bay-White River"
  },
  {
    "department": "Arkansas Highway and Transportation Department",
    "state": "Arkansas",
    "county": "Ashley County",
    "latitude": 33.1505142914,
    "longitude": -92.1073383704,
    "accessName": "Highway 82 Bridge",
    "riverName": "Ouachita River",
    "type": "Public",
    "otherName": "Lapile Creek-Ouachita River"
  },
  {
    "department": "Arkansas Highway and Transportation Department",
    "state": "Arkansas",
    "county": "Ashley County",
    "latitude": 33.1479582267,
    "longitude": -92.099535578,
    "accessName": "Crossett Harbor",
    "riverName": "Ouachita River",
    "type": "Public",
    "otherName": "Lapile Creek-Ouachita River"
  },
  {
    "department": "Arkansas Highway and Transportation Department",
    "state": "Arkansas",
    "county": "Ashley County",
    "latitude": 33.2269789766,
    "longitude": -92.0218105249,
    "accessName": "Lake Georgia Pacific",
    "riverName": "Lake Georgia Pacific",
    "type": "Public",
    "otherName": "Miller Branch-Saline River"
  },
  {
    "department": "Arkansas Highway and Transportation Department",
    "state": "Arkansas",
    "county": "Ashley County",
    "latitude": 33.0867636772,
    "longitude": -92.0954949571,
    "accessName": "Felsenthal National Wildlife Refuge - Wildcat Lake",
    "riverName": "canal off Bull Brake",
    "type": "Public",
    "otherName": "Lapile Creek-Ouachita River"
  },
  {
    "department": "Arkansas Highway and Transportation Department",
    "state": "Arkansas",
    "county": "Ashley County",
    "latitude": 33.3132274837,
    "longitude": -91.5531269374,
    "accessName": "Lake Grampus",
    "riverName": "Lake Grampus",
    "type": "Public",
    "otherName": "Bearhouse Creek-Bayou Bartholomew"
  },
  {
    "department": "Arkansas Highway and Transportation Department",
    "state": "Arkansas",
    "county": "Baxter County",
    "latitude": 36.3125052658,
    "longitude": -92.5406598599,
    "accessName": "Valley Airport Drive",
    "riverName": "White River",
    "type": "Semi-Private",
    "otherName": "Outlet Bull Shoals Lake-White River"
  },
  {
    "department": "Arkansas Highway and Transportation Department",
    "state": "Arkansas",
    "county": "Baxter County",
    "latitude": 36.2132625467,
    "longitude": -92.3567874493,
    "accessName": "Road 61",
    "riverName": "White River",
    "type": "Public",
    "otherName": "Perry Creek-White River"
  },
  {
    "department": "Arkansas Highway and Transportation Department",
    "state": "Arkansas",
    "county": "Baxter County",
    "latitude": 36.4783641072,
    "longitude": -92.2569614229,
    "accessName": "Road 24",
    "riverName": "North Fork White River - Norfork Lake",
    "type": "Public",
    "otherName": "Briar Creek-Norfork Lake"
  },
  {
    "department": "Arkansas Highway and Transportation Department",
    "state": "Arkansas",
    "county": "Baxter County",
    "latitude": 36.4063013259,
    "longitude": -92.2352557783,
    "accessName": "Blue Lady Resort",
    "riverName": "North Fork River - Norfork Lake",
    "type": "Semi-Private",
    "otherName": "Float Creek-Norfork Lake"
  },
  {
    "department": "Arkansas Highway and Transportation Department",
    "state": "Arkansas",
    "county": "Baxter County",
    "latitude": 36.3851221462,
    "longitude": -92.2378155431,
    "accessName": "Bidwell Park (East)",
    "riverName": "North Fork White River - Norfork Lake",
    "type": "Public",
    "otherName": "Float Creek-Norfork Lake"
  },
  {
    "department": "Arkansas Highway and Transportation Department",
    "state": "Arkansas",
    "county": "Baxter County",
    "latitude": 36.2947386699,
    "longitude": -92.1727066207,
    "accessName": "Wood Point",
    "riverName": "Big Creek - Norfork Lake",
    "type": "Public",
    "otherName": "Outlet Big Creek-Norfork Lake"
  },
  {
    "department": "Arkansas Highway and Transportation Department",
    "state": "Arkansas",
    "county": "Baxter County",
    "latitude": 36.2851376221,
    "longitude": -92.2014786568,
    "accessName": "Hand Cove Resort",
    "riverName": "Big Creek - Norfork Lake",
    "type": "Semi-Private",
    "otherName": "Barren Fork-Norfork Lake"
  },
  {
    "department": "Arkansas Highway and Transportation Department",
    "state": "Arkansas",
    "county": "Baxter County",
    "latitude": 36.2701797799,
    "longitude": -92.1905093499,
    "accessName": "Jordan",
    "riverName": "Big Creek - Norfork Lake",
    "type": "Public",
    "otherName": "Barren Fork-Norfork Lake"
  },
  {
    "department": "Arkansas Highway and Transportation Department",
    "state": "Arkansas",
    "county": "Baxter County",
    "latitude": 36.3746976585,
    "longitude": -92.2341590961,
    "accessName": "Henderson Park",
    "riverName": "North Fork White River - Norfork Lake",
    "type": "Public",
    "otherName": "Float Creek-Norfork Lake"
  },
  {
    "department": "Arkansas Highway and Transportation Department",
    "state": "Arkansas",
    "county": "Baxter County",
    "latitude": 36.3712720521,
    "longitude": -92.2319919485,
    "accessName": "Henderson Park",
    "riverName": "North Fork White River - Norfork Lake",
    "type": "Public",
    "otherName": "Float Creek-Norfork Lake"
  },
  {
    "department": "Arkansas Highway and Transportation Department",
    "state": "Arkansas",
    "county": "Baxter County",
    "latitude": 36.3676843123,
    "longitude": -92.2222605086,
    "accessName": "Wilderness Point Road",
    "riverName": "North Fork White River - Norfork Lake",
    "type": "Public",
    "otherName": "Float Creek-Norfork Lake"
  },
  {
    "department": "Arkansas Highway and Transportation Department",
    "state": "Arkansas",
    "county": "Baxter County",
    "latitude": 36.3552592795,
    "longitude": -92.2388679469,
    "accessName": "Robinson Point Park (North)",
    "riverName": "North Fork White River - Norfork Lake",
    "type": "Public",
    "otherName": "Float Creek-Norfork Lake"
  },
  {
    "department": "Arkansas Highway and Transportation Department",
    "state": "Arkansas",
    "county": "Baxter County",
    "latitude": 36.3521631201,
    "longitude": -92.2395144393,
    "accessName": "Robinson Point Park (South)",
    "riverName": "North Fork White River - Norfork Lake",
    "type": "Public",
    "otherName": "Diamond Creek-Norfork Lake"
  },
  {
    "department": "Arkansas Highway and Transportation Department",
    "state": "Arkansas",
    "county": "Baxter County",
    "latitude": 36.4493360503,
    "longitude": -92.2674065678,
    "accessName": "Red Bank",
    "riverName": "North Fork White River - Norfork Lake",
    "type": "Public",
    "otherName": "Briar Creek-Norfork Lake"
  },
  {
    "department": "Arkansas Highway and Transportation Department",
    "state": "Arkansas",
    "county": "Baxter County",
    "latitude": 36.4083151898,
    "longitude": -92.3373893116,
    "accessName": "Pigeon Creek",
    "riverName": "North Fork White River - Norfork Lake",
    "type": "Public",
    "otherName": "Little Pigeon Creek-Norfork Lake"
  },
  {
    "department": "Arkansas Highway and Transportation Department",
    "state": "Arkansas",
    "county": "Baxter County",
    "latitude": 36.4051916025,
    "longitude": -92.3389915589,
    "accessName": "Unknown",
    "riverName": "North Fork White River - Norfork Lake",
    "type": "Public",
    "otherName": "Little Pigeon Creek-Norfork Lake"
  },
  {
    "department": "Arkansas Highway and Transportation Department",
    "state": "Arkansas",
    "county": "Baxter County",
    "latitude": 36.4019243078,
    "longitude": -92.3242317272,
    "accessName": "Unknown",
    "riverName": "North Fork White River - Norfork Lake",
    "type": "Public",
    "otherName": "Briar Creek-Norfork Lake"
  },
  {
    "department": "Arkansas Highway and Transportation Department",
    "state": "Arkansas",
    "county": "Baxter County",
    "latitude": 36.402869251,
    "longitude": -92.3203598796,
    "accessName": "Unknown",
    "riverName": "North Fork White River - Norfork Lake",
    "type": "Public",
    "otherName": "Briar Creek-Norfork Lake"
  },
  {
    "department": "Arkansas Highway and Transportation Department",
    "state": "Arkansas",
    "county": "Baxter County",
    "latitude": 36.3744425953,
    "longitude": -92.2529718546,
    "accessName": "Panther Bay (South)",
    "riverName": "North Fork White River - Norfork Lake",
    "type": "Public",
    "otherName": "Float Creek-Norfork Lake"
  },
  {
    "department": "Arkansas Highway and Transportation Department",
    "state": "Arkansas",
    "county": "Baxter County",
    "latitude": 36.2092691265,
    "longitude": -92.2912930784,
    "accessName": "Riverview Trail",
    "riverName": "White River",
    "type": "Public",
    "otherName": "Farris Creek-White River"
  },
  {
    "department": "Arkansas Highway and Transportation Department",
    "state": "Arkansas",
    "county": "Baxter County",
    "latitude": 36.2095772375,
    "longitude": -92.289481817,
    "accessName": "Norfolk River Road",
    "riverName": "White River",
    "type": "Public",
    "otherName": "Farris Creek-White River"
  },
  {
    "department": "Arkansas Highway and Transportation Department",
    "state": "Arkansas",
    "county": "Baxter County",
    "latitude": 36.1647038502,
    "longitude": -92.4406366215,
    "accessName": "White Buffalo Lane",
    "riverName": "White River",
    "type": "Semi-Private",
    "otherName": "Dry Creek-White River"
  },
  {
    "department": "Arkansas Highway and Transportation Department",
    "state": "Arkansas",
    "county": "Baxter County",
    "latitude": 36.420208387,
    "longitude": -92.2243578455,
    "accessName": "Gamaliel",
    "riverName": "North Fork River - Norfork Lake",
    "type": "Public",
    "otherName": "Float Creek-Norfork Lake"
  },
  {
    "department": "Arkansas Highway and Transportation Department",
    "state": "Arkansas",
    "county": "Baxter County",
    "latitude": 36.4046615758,
    "longitude": -92.2212311404,
    "accessName": "Talbert",
    "riverName": "North Fork River - Norfork Lake",
    "type": "Public",
    "otherName": "Float Creek-Norfork Lake"
  },
  {
    "department": "Arkansas Highway and Transportation Department",
    "state": "Arkansas",
    "county": "Baxter County",
    "latitude": 36.3015566063,
    "longitude": -92.1659661664,
    "accessName": "Big Creek Way",
    "riverName": "Big Creek - Norfork Lake",
    "type": "Public",
    "otherName": "Outlet Big Creek-Norfork Lake"
  },
  {
    "department": "Arkansas Highway and Transportation Department",
    "state": "Arkansas",
    "county": "Baxter County",
    "latitude": 36.3066064779,
    "longitude": -92.2223649608,
    "accessName": "The Bluffs Drive",
    "riverName": "North Fork White River - Norfork Lake",
    "type": "Public",
    "otherName": "Diamond Creek-Norfork Lake"
  },
  {
    "department": "Arkansas Highway and Transportation Department",
    "state": "Arkansas",
    "county": "Baxter County",
    "latitude": 36.2929369485,
    "longitude": -92.2465956875,
    "accessName": "Unknown",
    "riverName": "North Fork White River - Norfork Lake",
    "type": "Public",
    "otherName": "Diamond Creek-Norfork Lake"
  },
  {
    "department": "Arkansas Highway and Transportation Department",
    "state": "Arkansas",
    "county": "Baxter County",
    "latitude": 36.2561703494,
    "longitude": -92.2394939801,
    "accessName": "Norfolk Dam Park",
    "riverName": "North Fork White River - Norfork Lake",
    "type": "Public",
    "otherName": "Outlet Norfork Lake-North Fork River"
  },
  {
    "department": "Arkansas Highway and Transportation Department",
    "state": "Arkansas",
    "county": "Baxter County",
    "latitude": 36.3864812838,
    "longitude": -92.2789584645,
    "accessName": "Teal Point Resort",
    "riverName": "North Fork White River - Norfork Lake",
    "type": "Semi-Private",
    "otherName": "Float Creek-Norfork Lake"
  },
  {
    "department": "Arkansas Highway and Transportation Department",
    "state": "Arkansas",
    "county": "Baxter County",
    "latitude": 36.3908537967,
    "longitude": -92.2842641753,
    "accessName": "Teal Point",
    "riverName": "North Fork White River - Norfork Lake",
    "type": "Public",
    "otherName": "Briar Creek-Norfork Lake"
  },
  {
    "department": "Arkansas Highway and Transportation Department",
    "state": "Arkansas",
    "county": "Baxter County",
    "latitude": 36.4301163024,
    "longitude": -92.3393123704,
    "accessName": "Unknown",
    "riverName": "North Fork White River - Norfork Lake",
    "type": "Public",
    "otherName": "East Pigeon Creek-Norfork Lake"
  },
  {
    "department": "Arkansas Highway and Transportation Department",
    "state": "Arkansas",
    "county": "Baxter County",
    "latitude": 36.375473791,
    "longitude": -92.2513605031,
    "accessName": "Panther Bay (North)",
    "riverName": "North Fork White River - Norfork Lake",
    "type": "Public",
    "otherName": "Float Creek-Norfork Lake"
  },
  {
    "department": "Arkansas Highway and Transportation Department",
    "state": "Arkansas",
    "county": "Baxter County",
    "latitude": 36.2997440138,
    "longitude": -92.268661056,
    "accessName": "Tracy",
    "riverName": "North Fork White River - Norfork Lake",
    "type": "Public",
    "otherName": "Diamond Creek-Norfork Lake"
  },
  {
    "department": "Arkansas Highway and Transportation Department",
    "state": "Arkansas",
    "county": "Baxter County",
    "latitude": 36.3499305881,
    "longitude": -92.2923754325,
    "accessName": "Buzzard Roost",
    "riverName": "Fall Creek - Norfork Lake",
    "type": "Public",
    "otherName": "Fall Creek-Norfork Lake"
  },
  {
    "department": "Arkansas Highway and Transportation Department",
    "state": "Arkansas",
    "county": "Baxter County",
    "latitude": 36.1606980651,
    "longitude": -92.255237097,
    "accessName": "Red's Landing Lane",
    "riverName": "White River",
    "type": "Public",
    "otherName": "Sneeds Creek-White River"
  },
  {
    "department": "Arkansas Highway and Transportation Department",
    "state": "Arkansas",
    "county": "Baxter County",
    "latitude": 36.308130095,
    "longitude": -92.5745819971,
    "accessName": "Wildcat Shoals",
    "riverName": "White River",
    "type": "Public",
    "otherName": "Outlet Bull Shoals Lake-White River"
  },
  {
    "department": "Arkansas Highway and Transportation Department",
    "state": "Arkansas",
    "county": "Benton County",
    "latitude": 36.3958679103,
    "longitude": -93.903678499,
    "accessName": "Lost Bridge Park (North)",
    "riverName": "White River - Beaver Lake",
    "type": "Public",
    "otherName": "Beaver Dam-Beaver Lake"
  },
  {
    "department": "Arkansas Highway and Transportation Department",
    "state": "Arkansas",
    "county": "Benton County",
    "latitude": 36.3277291494,
    "longitude": -93.9157207483,
    "accessName": "Twin Coves Resort",
    "riverName": "White River - Beaver Lake",
    "type": "Semi-Private",
    "otherName": "West Fork Little Clifty Creek-Beaver Lake"
  },
  {
    "department": "Arkansas Highway and Transportation Department",
    "state": "Arkansas",
    "county": "Benton County",
    "latitude": 36.3433593425,
    "longitude": -93.9351127975,
    "accessName": "Rocky Branch Park",
    "riverName": "White River - Beaver Lake",
    "type": "Public",
    "otherName": "Fords Creek-Beaver Lake"
  },
  {
    "department": "Arkansas Highway and Transportation Department",
    "state": "Arkansas",
    "county": "Benton County",
    "latitude": 36.3547734522,
    "longitude": -93.9851471416,
    "accessName": "Ventris",
    "riverName": "White River - Beaver Lake",
    "type": "Public",
    "otherName": "Fords Creek-Beaver Lake"
  },
  {
    "department": "Arkansas Highway and Transportation Department",
    "state": "Arkansas",
    "county": "Benton County",
    "latitude": 36.3321412996,
    "longitude": -94.0213235612,
    "accessName": "Highway 12",
    "riverName": "White River - Beaver Lake",
    "type": "Public",
    "otherName": "Bear Creek-Beaver Lake"
  },
  {
    "department": "Arkansas Highway and Transportation Department",
    "state": "Arkansas",
    "county": "Benton County",
    "latitude": 36.3560665463,
    "longitude": -94.0517180929,
    "accessName": "Prairie Creek",
    "riverName": "White River - Beaver Lake",
    "type": "Public",
    "otherName": "Bear Creek-Beaver Lake"
  },
  {
    "department": "Arkansas Highway and Transportation Department",
    "state": "Arkansas",
    "county": "Benton County",
    "latitude": 36.4714934811,
    "longitude": -94.2810635719,
    "accessName": "Lake Avalon",
    "riverName": "Lake Avalon",
    "type": "Public",
    "otherName": "Tanyard Creek-Little Sugar Creek"
  },
  {
    "department": "Arkansas Highway and Transportation Department",
    "state": "Arkansas",
    "county": "Benton County",
    "latitude": 36.4683176693,
    "longitude": -94.2623291305,
    "accessName": "Lake Windsor",
    "riverName": "Lake Windsor",
    "type": "Public",
    "otherName": "Tanyard Creek-Little Sugar Creek"
  },
  {
    "department": "Arkansas Highway and Transportation Department",
    "state": "Arkansas",
    "county": "Benton County",
    "latitude": 36.4504417956,
    "longitude": -94.2629469519,
    "accessName": "London",
    "riverName": "Lake Windsor",
    "type": "Public",
    "otherName": "Tanyard Creek-Little Sugar Creek"
  },
  {
    "department": "Arkansas Highway and Transportation Department",
    "state": "Arkansas",
    "county": "Benton County",
    "latitude": 36.4567430456,
    "longitude": -94.3207572709,
    "accessName": "Granton",
    "riverName": "Lock Lonond",
    "type": "Public",
    "otherName": "Browning Creek-Little Sugar Creek"
  },
  {
    "department": "Arkansas Highway and Transportation Department",
    "state": "Arkansas",
    "county": "Benton County",
    "latitude": 36.4524818836,
    "longitude": -94.3450587727,
    "accessName": "Tiree Park",
    "riverName": "Lock Lomond",
    "type": "Public",
    "otherName": "Browning Creek-Little Sugar Creek"
  },
  {
    "department": "Arkansas Highway and Transportation Department",
    "state": "Arkansas",
    "county": "Washington County",
    "latitude": 36.2194549301,
    "longitude": -94.0197226547,
    "accessName": "War Eagle Marina",
    "riverName": "White River - Beaver Lake",
    "type": "Semi-Private",
    "otherName": "Beaver Lake"
  },
  {
    "department": "Arkansas Highway and Transportation Department",
    "state": "Arkansas",
    "county": "Benton County",
    "latitude": 36.2435505784,
    "longitude": -94.0306478195,
    "accessName": "Hickory Creek Marin",
    "riverName": "White River - Beaver Lake",
    "type": "Semi-Private",
    "otherName": "Beaver Lake"
  },
  {
    "department": "Arkansas Highway and Transportation Department",
    "state": "Arkansas",
    "county": "Benton County",
    "latitude": 36.32890987,
    "longitude": -93.9622257218,
    "accessName": "Coppermine Lodge",
    "riverName": "White River - Beaver Lake",
    "type": "Semi-Private",
    "otherName": "Fords Creek-Beaver Lake"
  },
  {
    "department": "Arkansas Highway and Transportation Department",
    "state": "Arkansas",
    "county": "Benton County",
    "latitude": 36.3666280609,
    "longitude": -93.9619755612,
    "accessName": "Unknown",
    "riverName": "White River - Beaver Lake",
    "type": "Public",
    "otherName": "Fords Creek-Beaver Lake"
  },
  {
    "department": "Arkansas Highway and Transportation Department",
    "state": "Arkansas",
    "county": "Carroll County",
    "latitude": 36.3913802484,
    "longitude": -93.8721674493,
    "accessName": "Starkey Marina",
    "riverName": "White River - Beaver Lake",
    "type": "Semi-Private",
    "otherName": "Beaver Dam-Beaver Lake"
  },
  {
    "department": "Arkansas Highway and Transportation Department",
    "state": "Arkansas",
    "county": "Benton County",
    "latitude": 36.3026364613,
    "longitude": -93.8729507478,
    "accessName": "Cobble Lane",
    "riverName": "Rambo Creek - Beaver Lake",
    "type": "Public",
    "otherName": "West Fork Little Clifty Creek-Beaver Lake"
  },
  {
    "department": "Arkansas Highway and Transportation Department",
    "state": "Arkansas",
    "county": "Benton County",
    "latitude": 36.3142894608,
    "longitude": -94.0177615797,
    "accessName": "Unknown",
    "riverName": "White River - Beaver Lake",
    "type": "Public",
    "otherName": "Phillips Creek-Beaver Lake"
  },
  {
    "department": "Arkansas Highway and Transportation Department",
    "state": "Arkansas",
    "county": "Benton County",
    "latitude": 36.2896054856,
    "longitude": -94.0205861129,
    "accessName": "Unknown",
    "riverName": "White River - Beaver Lake",
    "type": "Public",
    "otherName": "Phillips Creek-Beaver Lake"
  },
  {
    "department": "Arkansas Highway and Transportation Department",
    "state": "Arkansas",
    "county": "Benton County",
    "latitude": 36.2399036296,
    "longitude": -94.0325330617,
    "accessName": "Unknown",
    "riverName": "White River - Beaver Lake",
    "type": "Public",
    "otherName": "Beaver Lake"
  },
  {
    "department": "Arkansas Highway and Transportation Department",
    "state": "Arkansas",
    "county": "Boone County",
    "latitude": 36.4730407092,
    "longitude": -92.924571069,
    "accessName": "Lead Hill Campground",
    "riverName": "White River - Bull Shoals Lake",
    "type": "Public",
    "otherName": "West Sugarloaf Creek-Bull Shoals Lake"
  },
  {
    "department": "Arkansas Highway and Transportation Department",
    "state": "Arkansas",
    "county": "Boone County",
    "latitude": 36.4751360356,
    "longitude": -92.9191407888,
    "accessName": "Shoreline Drive",
    "riverName": "White River - Bull Shoals Lake",
    "type": "Public",
    "otherName": "Buck Creek-Bull Shoals Lake"
  },
  {
    "department": "Arkansas Highway and Transportation Department",
    "state": "Arkansas",
    "county": "Boone County",
    "latitude": 36.4768881389,
    "longitude": -93.0062506605,
    "accessName": "Unknown",
    "riverName": "White River - Bull Shoals Lake",
    "type": "Public",
    "otherName": "Elbow Creek-Bull Shoals Lake"
  },
  {
    "department": "Arkansas Highway and Transportation Department",
    "state": "Arkansas",
    "county": "Boone County",
    "latitude": 36.4818841308,
    "longitude": -93.2934161017,
    "accessName": "Cricket Creek Park",
    "riverName": "White River - Table Rock Lake",
    "type": "Public",
    "otherName": "Cricket Creek-Table Rock Lake"
  },
  {
    "department": "Arkansas Highway and Transportation Department",
    "state": "Arkansas",
    "county": "Bradley County",
    "latitude": 33.2996070395,
    "longitude": -92.3495268056,
    "accessName": "Moro Bay State Park (North)",
    "riverName": "Moro Bay",
    "type": "Public",
    "otherName": "Crooked Slough-Ouachita River"
  },
  {
    "department": "Arkansas Highway and Transportation Department",
    "state": "Arkansas",
    "county": "Bradley County",
    "latitude": 33.3003767078,
    "longitude": -92.3498712619,
    "accessName": "Moro Bay State Park (South)",
    "riverName": "Moro Bay",
    "type": "Public",
    "otherName": "La Baum Creek-Moro Creek"
  },
  {
    "department": "Arkansas Highway and Transportation Department",
    "state": "Arkansas",
    "county": "Bradley County",
    "latitude": 33.2408901448,
    "longitude": -92.1650826996,
    "accessName": "L'Aigle Creek",
    "riverName": "L'Aigle Creek",
    "type": "Public",
    "otherName": "L'Aigle Creek-Saline River"
  },
  {
    "department": "Arkansas Highway and Transportation Department",
    "state": "Arkansas",
    "county": "Bradley County",
    "latitude": 33.7013302929,
    "longitude": -92.0259282286,
    "accessName": "Highway 63 Bridge",
    "riverName": "Saline River",
    "type": "Public",
    "otherName": "Seay Creek-Saline River"
  },
  {
    "department": "Arkansas Highway and Transportation Department",
    "state": "Arkansas",
    "county": "Bradley County",
    "latitude": 33.2098206827,
    "longitude": -92.1269989396,
    "accessName": "Unknown",
    "riverName": "Saline River",
    "type": "Public",
    "otherName": "Miller Branch-Saline River"
  },
  {
    "department": "Arkansas Highway and Transportation Department",
    "state": "Arkansas",
    "county": "Bradley County",
    "latitude": 33.2390284202,
    "longitude": -92.2015465796,
    "accessName": "Pereogeethe Lake",
    "riverName": "Pereogeethe Lake",
    "type": "Public",
    "otherName": "Lick Creek-Ouachita River"
  },
  {
    "department": "Arkansas Highway and Transportation Department",
    "state": "Arkansas",
    "county": "Bradley County",
    "latitude": 33.2921453405,
    "longitude": -92.2765966647,
    "accessName": "Green Lake",
    "riverName": "Green Lake",
    "type": "Public",
    "otherName": "Lick Creek-Ouachita River"
  },
  {
    "department": "Arkansas Highway and Transportation Department",
    "state": "Arkansas",
    "county": "Bradley County",
    "latitude": 33.6069328295,
    "longitude": -92.011440218,
    "accessName": "Highway 278 Bridge",
    "riverName": "Saline River",
    "type": "Public",
    "otherName": "Big Slough-Saline River"
  },
  {
    "department": "Arkansas Highway and Transportation Department",
    "state": "Arkansas",
    "county": "Calhoun County",
    "latitude": 33.4587341138,
    "longitude": -92.7028903304,
    "accessName": "Locust Bayou",
    "riverName": "Ouachita River",
    "type": "Public",
    "otherName": "Locust Bayou"
  },
  {
    "department": "Arkansas Highway and Transportation Department",
    "state": "Arkansas",
    "county": "Calhoun County",
    "latitude": 33.4307040765,
    "longitude": -92.6268352893,
    "accessName": "Backwater Creek - Little Bay Lake",
    "riverName": "Backwater Creek - Little Bay Lake",
    "type": "Public",
    "otherName": "Ditch Lake-Ouachita River"
  },
  {
    "department": "Arkansas Highway and Transportation Department",
    "state": "Arkansas",
    "county": "Calhoun County",
    "latitude": 33.4038726275,
    "longitude": -92.5919347323,
    "accessName": "Road 504",
    "riverName": "Ouachita River",
    "type": "Public",
    "otherName": "Ditch Lake-Ouachita River"
  },
  {
    "department": "Arkansas Highway and Transportation Department",
    "state": "Arkansas",
    "county": "Calhoun County",
    "latitude": 33.4103514138,
    "longitude": -92.5675497266,
    "accessName": "Long Lake",
    "riverName": "Long Lake",
    "type": "Public",
    "otherName": "Dunn Creek-Champagnolle Creek"
  },
  {
    "department": "Arkansas Highway and Transportation Department",
    "state": "Arkansas",
    "county": "Calhoun County",
    "latitude": 33.38866184,
    "longitude": -92.5403277135,
    "accessName": "Champagnolle Creek",
    "riverName": "Champagnolle Creek",
    "type": "Public",
    "otherName": "Dunn Creek-Champagnolle Creek"
  },
  {
    "department": "Arkansas Highway and Transportation Department",
    "state": "Arkansas",
    "county": "Calhoun County",
    "latitude": 33.3012338254,
    "longitude": -92.4610164519,
    "accessName": "Lock Bend",
    "riverName": "Ouachita River",
    "type": "Public",
    "otherName": "Crooked Slough-Ouachita River"
  },
  {
    "department": "Arkansas Highway and Transportation Department",
    "state": "Arkansas",
    "county": "Carroll County",
    "latitude": 36.4352043311,
    "longitude": -93.7590852648,
    "accessName": "Lake Leatherwood Park",
    "riverName": "West Leatherwood Creek - Lake Leatherwood",
    "type": "Public",
    "otherName": "Leatherwood Creek"
  },
  {
    "department": "Arkansas Highway and Transportation Department",
    "state": "Arkansas",
    "county": "Carroll County",
    "latitude": 36.3115414171,
    "longitude": -93.8235216724,
    "accessName": "Hogscald",
    "riverName": "Big Clifty Creek - Beaver Lake",
    "type": "Public",
    "otherName": "Long Hollow-Beaver Lake"
  },
  {
    "department": "Arkansas Highway and Transportation Department",
    "state": "Arkansas",
    "county": "Carroll County",
    "latitude": 36.3934683325,
    "longitude": -93.8728356073,
    "accessName": "Starkey",
    "riverName": "White River - Beaver Lake",
    "type": "Public",
    "otherName": "Beaver Dam-Beaver Lake"
  },
  {
    "department": "Arkansas Highway and Transportation Department",
    "state": "Arkansas",
    "county": "Boone County",
    "latitude": 36.4824507067,
    "longitude": -93.3004835534,
    "accessName": "Cricket Creek Marina",
    "riverName": "White River - Table Rock Lake",
    "type": "Semi-Private",
    "otherName": "Cricket Creek-Table Rock Lake"
  },
  {
    "department": "Arkansas Highway and Transportation Department",
    "state": "Arkansas",
    "county": "Carroll County",
    "latitude": 36.4627561097,
    "longitude": -93.8144855469,
    "accessName": "Houseman",
    "riverName": "White River - Table Rock Lake",
    "type": "Public",
    "otherName": "Cedar Creek-Table Rock Lake"
  },
  {
    "department": "Arkansas Highway and Transportation Department",
    "state": "Arkansas",
    "county": "Carroll County",
    "latitude": 36.4306867432,
    "longitude": -93.8220729656,
    "accessName": "Dicks Creek",
    "riverName": "White River",
    "type": "Public",
    "otherName": "Cedar Creek-Table Rock Lake"
  },
  {
    "department": "Arkansas Highway and Transportation Department",
    "state": "Arkansas",
    "county": "Carroll County",
    "latitude": 36.4295271356,
    "longitude": -93.8568372262,
    "accessName": "Unknown",
    "riverName": "White River - Beaver Lake",
    "type": "Public",
    "otherName": "Beaver Dam-Beaver Lake"
  },
  {
    "department": "Arkansas Highway and Transportation Department",
    "state": "Arkansas",
    "county": "Carroll County",
    "latitude": 36.4205481283,
    "longitude": -93.8562555583,
    "accessName": "Dam Site Lake Park",
    "riverName": "White River - Beaver Lake",
    "type": "Public",
    "otherName": "Beaver Dam-Beaver Lake"
  },
  {
    "department": "Arkansas Highway and Transportation Department",
    "state": "Arkansas",
    "county": "Carroll County",
    "latitude": 36.4918820419,
    "longitude": -93.3005226409,
    "accessName": "Ozark RV Resort",
    "riverName": "White River - Table Rock Lake",
    "type": "Semi-Private",
    "otherName": "Cricket Creek-Table Rock Lake"
  },
  {
    "department": "Arkansas Highway and Transportation Department",
    "state": "Arkansas",
    "county": "Carroll County",
    "latitude": 36.4646638098,
    "longitude": -93.3101753968,
    "accessName": "Yocham",
    "riverName": "White River - Table Rock Lake",
    "type": "Public",
    "otherName": "Yocum Creek-Table Rock Lake"
  },
  {
    "department": "Arkansas Highway and Transportation Department",
    "state": "Arkansas",
    "county": "Chicot County",
    "latitude": 33.3772061411,
    "longitude": -91.2108770966,
    "accessName": "Lakeshore",
    "riverName": "Lake Chicot",
    "type": "Semi-Private",
    "otherName": "Lake Chicot-Bayou Macon"
  },
  {
    "department": "Arkansas Highway and Transportation Department",
    "state": "Arkansas",
    "county": "Chicot County",
    "latitude": 33.368392158,
    "longitude": -91.1984410883,
    "accessName": "Lake Chicot State Park",
    "riverName": "Lake Chicot",
    "type": "Public",
    "otherName": "Lake Chicot-Bayou Macon"
  },
  {
    "department": "Arkansas Highway and Transportation Department",
    "state": "Arkansas",
    "county": "Chicot County",
    "latitude": 33.2927524041,
    "longitude": -91.164701473,
    "accessName": "Greenville Bridge",
    "riverName": "Mississippi River",
    "type": "Public",
    "otherName": "Lake Ferguson-Mississippi River"
  },
  {
    "department": "Arkansas Highway and Transportation Department",
    "state": "Arkansas",
    "county": "Chicot County",
    "latitude": 33.2794744769,
    "longitude": -91.2240718451,
    "accessName": "Chicot County RV Park (West)",
    "riverName": "Lake Chicot",
    "type": "Public",
    "otherName": "Lake Chicot-Bayou Macon"
  },
  {
    "department": "Arkansas Highway and Transportation Department",
    "state": "Arkansas",
    "county": "Chicot County",
    "latitude": 33.2789925103,
    "longitude": -91.2191474089,
    "accessName": "Chicot County RV Park (East)",
    "riverName": "Lake Chicot",
    "type": "Public",
    "otherName": "Lake Chicot-Bayou Macon"
  },
  {
    "department": "Arkansas Highway and Transportation Department",
    "state": "Arkansas",
    "county": "Chicot County",
    "latitude": 33.2631523393,
    "longitude": -91.2212802954,
    "accessName": "Ditch Bayou",
    "riverName": "Ditch Bayou",
    "type": "Public",
    "otherName": "Lake Chicot-Bayou Macon"
  },
  {
    "department": "Arkansas Highway and Transportation Department",
    "state": "Arkansas",
    "county": "Chicot County",
    "latitude": 33.0997166814,
    "longitude": -91.1873380207,
    "accessName": "Cariola Road",
    "riverName": "Mississippi River",
    "type": "Public",
    "otherName": "Cottonwood Chute-Mississippi River"
  },
  {
    "department": "Arkansas Highway and Transportation Department",
    "state": "Arkansas",
    "county": "Chicot County",
    "latitude": 33.3708058015,
    "longitude": -91.258472365,
    "accessName": "Connelly Bayou",
    "riverName": "Lake Chicot",
    "type": "Public",
    "otherName": "Lake Chicot-Bayou Macon"
  },
  {
    "department": "Arkansas Highway and Transportation Department",
    "state": "Arkansas",
    "county": "Chicot County",
    "latitude": 33.330701623,
    "longitude": -91.2813810378,
    "accessName": "Rhodes Lakefront Park",
    "riverName": "Lake Chicot",
    "type": "Public",
    "otherName": "Lake Chicot-Bayou Macon"
  },
  {
    "department": "Arkansas Highway and Transportation Department",
    "state": "Arkansas",
    "county": "Chicot County",
    "latitude": 33.2967918317,
    "longitude": -91.2750825039,
    "accessName": "Pecan Grove RV Park",
    "riverName": "Lake Chicot",
    "type": "Public",
    "otherName": "Lake Chicot-Bayou Macon"
  },
  {
    "department": "Arkansas Highway and Transportation Department",
    "state": "Arkansas",
    "county": "Chicot County",
    "latitude": 33.4776293,
    "longitude": -91.4509656051,
    "accessName": "Lake Wallace",
    "riverName": "Lake Wallace",
    "type": "Public",
    "otherName": "Lake Wallace-Bayou Bartholomew"
  },
  {
    "department": "Arkansas Highway and Transportation Department",
    "state": "Arkansas",
    "county": "Chicot County",
    "latitude": 33.0849617006,
    "longitude": -91.2143843858,
    "accessName": "Unknown",
    "riverName": "Grand Lake",
    "type": "Public",
    "otherName": "Grand Lake-Bayou Macon"
  },
  {
    "department": "Arkansas Highway and Transportation Department",
    "state": "Arkansas",
    "county": "Clark County",
    "latitude": 34.2658314941,
    "longitude": -93.3638739888,
    "accessName": "Caddo Road",
    "riverName": "Caddo River",
    "type": "Public",
    "otherName": "Caddo River-Lake Catherine"
  },
  {
    "department": "Arkansas Highway and Transportation Department",
    "state": "Arkansas",
    "county": "Clark County",
    "latitude": 34.2623733542,
    "longitude": -93.3554428476,
    "accessName": "Amity Landing Recreation Area",
    "riverName": "Caddo River",
    "type": "Public",
    "otherName": "Caddo River-Lake Catherine"
  },
  {
    "department": "Arkansas Highway and Transportation Department",
    "state": "Arkansas",
    "county": "Clark County",
    "latitude": 34.2768159744,
    "longitude": -93.3232407359,
    "accessName": "Cox Creek Landing Area",
    "riverName": "Caddo River",
    "type": "Public",
    "otherName": "Caddo River-Lake Catherine"
  },
  {
    "department": "Arkansas Highway and Transportation Department",
    "state": "Arkansas",
    "county": "Clark County",
    "latitude": 34.2359235993,
    "longitude": -93.2523844887,
    "accessName": "Brushy Creek Landing",
    "riverName": "Brushy Creek - DeGray Lake",
    "type": "Public",
    "otherName": "Brushy Creek-Lake Catherine"
  },
  {
    "department": "Arkansas Highway and Transportation Department",
    "state": "Arkansas",
    "county": "Clark County",
    "latitude": 34.257908942,
    "longitude": -93.2343488508,
    "accessName": "Alpine Ridge Recreation Area",
    "riverName": "Caddo River - DeGray Lake",
    "type": "Public",
    "otherName": "De Gray Dam-Lake Catherine"
  },
  {
    "department": "Arkansas Highway and Transportation Department",
    "state": "Arkansas",
    "county": "Clark County",
    "latitude": 34.2701403005,
    "longitude": -93.2271015779,
    "accessName": "Lenox Marcus",
    "riverName": "Caddo River - DeGray Lake",
    "type": "Public",
    "otherName": "De Gray Dam-Lake Catherine"
  },
  {
    "department": "Arkansas Highway and Transportation Department",
    "state": "Arkansas",
    "county": "Clark County",
    "latitude": 34.2681681191,
    "longitude": -93.2013093879,
    "accessName": "Arlie Moore Landing (South)",
    "riverName": "Caddo River - DeGray Lake",
    "type": "Public",
    "otherName": "Big Hill Creek-Lake Catherine"
  },
  {
    "department": "Arkansas Highway and Transportation Department",
    "state": "Arkansas",
    "county": "Clark County",
    "latitude": 34.2713947638,
    "longitude": -93.2051090082,
    "accessName": "Arlie Moore Landing (North)",
    "riverName": "Caddo River - DeGray Lake",
    "type": "Public",
    "otherName": "Big Hill Creek-Lake Catherine"
  },
  {
    "department": "Arkansas Highway and Transportation Department",
    "state": "Arkansas",
    "county": "Clark County",
    "latitude": 34.241998511,
    "longitude": -93.2084428283,
    "accessName": "Ozan Point Recreation Area",
    "riverName": "Caddo River - DeGray Lake",
    "type": "Public",
    "otherName": "De Gray Dam-Lake Catherine"
  },
  {
    "department": "Arkansas Highway and Transportation Department",
    "state": "Arkansas",
    "county": "Clark County",
    "latitude": 34.2443546211,
    "longitude": -93.1702063534,
    "accessName": "Campground Road",
    "riverName": "Caddo River - DeGray Lake",
    "type": "Public",
    "otherName": "De Gray Dam-Lake Catherine"
  },
  {
    "department": "Arkansas Highway and Transportation Department",
    "state": "Arkansas",
    "county": "Clark County",
    "latitude": 33.8157260094,
    "longitude": -93.1399165261,
    "accessName": "Highway 53 Bridge",
    "riverName": "Little Missouri River",
    "type": "Public",
    "otherName": "Horse Branch-Little Missouri River"
  },
  {
    "department": "Arkansas Highway and Transportation Department",
    "state": "Arkansas",
    "county": "Clark County",
    "latitude": 34.2451445641,
    "longitude": -93.119084534,
    "accessName": "Small Dike Road",
    "riverName": "Caddo River - DeGray Lake",
    "type": "Public",
    "otherName": "De Gray Dam-Lake Catherine"
  },
  {
    "department": "Arkansas Highway and Transportation Department",
    "state": "Arkansas",
    "county": "Clark County",
    "latitude": 34.2241525703,
    "longitude": -93.1189229248,
    "accessName": "Iron Mountain Ramp Road",
    "riverName": "Caddo River - DeGray Lake",
    "type": "Public",
    "otherName": "De Gray Dam-Lake Catherine"
  },
  {
    "department": "Arkansas Highway and Transportation Department",
    "state": "Arkansas",
    "county": "Clark County",
    "latitude": 34.2188608283,
    "longitude": -93.1213353005,
    "accessName": "Iron Mountain Marina",
    "riverName": "Caddo River - DeGray Lake",
    "type": "Semi-Private",
    "otherName": "De Gray Dam-Lake Catherine"
  },
  {
    "department": "Arkansas Highway and Transportation Department",
    "state": "Arkansas",
    "county": "Clark County",
    "latitude": 34.219674113,
    "longitude": -93.101363177,
    "accessName": "Spillway Dam Recreation Area",
    "riverName": "Caddo River - DeGray Lake",
    "type": "Public",
    "otherName": "De Gray Dam-Lake Catherine"
  },
  {
    "department": "Arkansas Highway and Transportation Department",
    "state": "Arkansas",
    "county": "Clark County",
    "latitude": 34.1998492316,
    "longitude": -93.1074049347,
    "accessName": "Capps Road",
    "riverName": "Caddo River",
    "type": "Public",
    "otherName": "Outlet Caddo River"
  },
  {
    "department": "Arkansas Highway and Transportation Department",
    "state": "Arkansas",
    "county": "Clark County",
    "latitude": 34.1747102824,
    "longitude": -93.0973936268,
    "accessName": "Caddo River Drop Off",
    "riverName": "Caddo River",
    "type": "Public",
    "otherName": "Outlet Caddo River"
  },
  {
    "department": "Arkansas Highway and Transportation Department",
    "state": "Arkansas",
    "county": "Clark County",
    "latitude": 34.116578763,
    "longitude": -93.0411875445,
    "accessName": "Road 138",
    "riverName": "Ouachita River",
    "type": "Public",
    "otherName": "Deceiper Creek-Ouachita River"
  },
  {
    "department": "Arkansas Highway and Transportation Department",
    "state": "Arkansas",
    "county": "Clay County",
    "latitude": 36.3506266538,
    "longitude": -90.6783187934,
    "accessName": "Murphy Lake",
    "riverName": "Murphy Lake Ditch",
    "type": "Public",
    "otherName": "Murray Creek Ditch"
  },
  {
    "department": "Arkansas Highway and Transportation Department",
    "state": "Arkansas",
    "county": "Clay County",
    "latitude": 36.3556920216,
    "longitude": -90.5812839799,
    "accessName": "Black River",
    "riverName": "Black River",
    "type": "Public",
    "otherName": "Kramer Ditch-Black River"
  },
  {
    "department": "Arkansas Highway and Transportation Department",
    "state": "Arkansas",
    "county": "Cleburne County",
    "latitude": 35.4360335025,
    "longitude": -91.8584961069,
    "accessName": "Dripping Springs",
    "riverName": "LIttle Red River",
    "type": "Public",
    "otherName": "Sulphur Creek-Little Red River"
  },
  {
    "department": "Arkansas Highway and Transportation Department",
    "state": "Arkansas",
    "county": "Cleburne County",
    "latitude": 35.5041588188,
    "longitude": -92.0666441597,
    "accessName": "Greers Ferry Lake",
    "riverName": "LIttle Red River - Greers Ferry Lake",
    "type": "Public",
    "otherName": "Drip Creek-Greers Ferry Lake"
  },
  {
    "department": "Arkansas Highway and Transportation Department",
    "state": "Arkansas",
    "county": "Cleburne County",
    "latitude": 35.5523304595,
    "longitude": -92.0769939298,
    "accessName": "Greers Ferry Lake",
    "riverName": "LIttle Red River - Greers Ferry Lake",
    "type": "Public",
    "otherName": "Drip Creek-Greers Ferry Lake"
  },
  {
    "department": "Arkansas Highway and Transportation Department",
    "state": "Arkansas",
    "county": "Cleburne County",
    "latitude": 35.4660435353,
    "longitude": -92.1527108053,
    "accessName": "Greers Ferry Lake",
    "riverName": "Little Red River - Greers Ferry Lake",
    "type": "Public",
    "otherName": "Drip Creek-Greers Ferry Lake"
  },