[
  {
    "department": "North Carolina Wildlife Resources Commission",
    "state": "North Carolina",
    "county": "Dare County",
    "latitude": 36.0356043383,
    "longitude": -75.686559343,
    "accessName": "Avalon Beach",
    "riverName": "Colington Creek",
    "type": "Public",
    "otherName": "Town of Kill Devil Hills-Kitty Hawk Bay"
  },
  {
    "department": "North Carolina Wildlife Resources Commission",
    "state": "North Carolina",
    "county": "Dare County",
    "latitude": 35.8938506161,
    "longitude": -75.6376281116,
    "accessName": "Washington Baum Bridge",
    "riverName": "Roanoke Sound",
    "type": "Public",
    "otherName": "Broad Creek-Roanoke Sound"
  },
  {
    "department": "North Carolina Wildlife Resources Commission",
    "state": "North Carolina",
    "county": "Dare County",
    "latitude": 35.9282291274,
    "longitude": -75.8147145942,
    "accessName": "Mashoes",
    "riverName": "East Lake",
    "type": "Public",
    "otherName": "South Lake-East Lake"
  },
  {
    "department": "North Carolina Wildlife Resources Commission",
    "state": "North Carolina",
    "county": "Dare County",
    "latitude": 35.8974330686,
    "longitude": -75.9704738336,
    "accessName": "East Lake Ferry",
    "riverName": "Alligator River",
    "type": "Public",
    "otherName": "Alligator River"
  },
  {
    "department": "North Carolina Wildlife Resources Commission",
    "state": "North Carolina",
    "county": "Dare County",
    "latitude": 35.6893954311,
    "longitude": -75.7369657086,
    "accessName": "Stumpy Point",
    "riverName": "Stumpy Point Bay",
    "type": "Public",
    "otherName": "Stumpy Point Bay-Pamlico Sound"
  },
  {
    "department": "North Carolina Wildlife Resources Commission",
    "state": "North Carolina",
    "county": "Beaufort County",
    "latitude": 35.5390208673,
    "longitude": -76.6252720668,
    "accessName": "Belhaven",
    "riverName": "Pantego Creek",
    "type": "Public",
    "otherName": "Pantego Creek"
  },
  {
    "department": "North Carolina Wildlife Resources Commission",
    "state": "North Carolina",
    "county": "Martin County",
    "latitude": 35.9472893007,
    "longitude": -77.2026240127,
    "accessName": "Hamilton",
    "riverName": "Roanoke River",
    "type": "Public",
    "otherName": "Town of Hamilton-Roanoke River"
  },
  {
    "department": "North Carolina Wildlife Resources Commission",
    "state": "North Carolina",
    "county": "Pitt County",
    "latitude": 35.695170646,
    "longitude": -77.4902423288,
    "accessName": "Falkland",
    "riverName": "Tar River",
    "type": "Public",
    "otherName": "Town of Falkland-Tar River"
  },
  {
    "department": "North Carolina Wildlife Resources Commission",
    "state": "North Carolina",
    "county": "Halifax County",
    "latitude": 36.208412252,
    "longitude": -77.3834818968,
    "accessName": "Edwards Ferry",
    "riverName": "Roanoke River",
    "type": "Public",
    "otherName": "Sandy Run-Roanoke River"
  },
  {
    "department": "North Carolina Wildlife Resources Commission",
    "state": "North Carolina",
    "county": "Northampton County",
    "latitude": 36.4826381297,
    "longitude": -77.6443112194,
    "accessName": "Gaston",
    "riverName": "Roanoke River",
    "type": "Public",
    "otherName": "City of Roanoke Rapids-Roanoke River"
  },
  {
    "department": "North Carolina Wildlife Resources Commission",
    "state": "North Carolina",
    "county": "Warren County",
    "latitude": 36.4868074999,
    "longitude": -77.9471121422,
    "accessName": "Salmons Landing",
    "riverName": "Roanoke River (Lake Gaston)",
    "type": "Public",
    "otherName": "Lizard Creek-Lake Gaston"
  },
  {
    "department": "North Carolina Wildlife Resources Commission",
    "state": "North Carolina",
    "county": "Halifax County",
    "latitude": 36.4846270481,
    "longitude": -77.8272305504,
    "accessName": "Summit",
    "riverName": "Roanoke River (Lake Gaston)",
    "type": "Public",
    "otherName": "Pea Hill Creek-Lake Gaston"
  },
  {
    "department": "North Carolina Wildlife Resources Commission",
    "state": "North Carolina",
    "county": "Halifax County",
    "latitude": 36.4274347872,
    "longitude": -77.590952586,
    "accessName": "Weldon",
    "riverName": "Roanoke River",
    "type": "Public",
    "otherName": "Arthurs Creek-Roanoke River"
  },
  {
    "department": "North Carolina Wildlife Resources Commission",
    "state": "North Carolina",
    "county": "Warren County",
    "latitude": 36.5428418578,
    "longitude": -78.1304427035,
    "accessName": "Hawtree Creek",
    "riverName": "Hawtree Creek (Lake Gaston)",
    "type": "Public",
    "otherName": "Hawtree Creek"
  },
  {
    "department": "North Carolina Wildlife Resources Commission",
    "state": "North Carolina",
    "county": "Halifax County",
    "latitude": 36.485355453,
    "longitude": -77.7815241041,
    "accessName": "Thelma",
    "riverName": "Roanoke River (Roanoke Rapids Lake)",
    "type": "Public",
    "otherName": "Roanoke Rapids Lake"
  },
  {
    "department": "North Carolina Wildlife Resources Commission",
    "state": "North Carolina",
    "county": "Durham County",
    "latitude": 36.0580254555,
    "longitude": -78.773700812,
    "accessName": "Hickory Hill",
    "riverName": "Neuse River (Falls Lake)",
    "type": "Public",
    "otherName": "Panther Creek-Neuse River"
  },
  {
    "department": "North Carolina Wildlife Resources Commission",
    "state": "North Carolina",
    "county": "Richmond County",
    "latitude": 34.9873980033,
    "longitude": -79.875136751,
    "accessName": "Blewetts Grave",
    "riverName": "Pee Dee River",
    "type": "Public",
    "otherName": "Island Creek-Pee Dee River"
  },
  {
    "department": "North Carolina Wildlife Resources Commission",
    "state": "North Carolina",
    "county": "Davidson County",
    "latitude": 35.5964951283,
    "longitude": -80.2300405857,
    "accessName": "Bringle Ferry",
    "riverName": "Yadkin River (Tuckertown Lake)",
    "type": "Public",
    "otherName": "Tuckertown Reservoir-Yadkin River"
  },
  {
    "department": "North Carolina Wildlife Resources Commission",
    "state": "North Carolina",
    "county": "Montgomery County",
    "latitude": 35.5037576481,
    "longitude": -80.1037782734,
    "accessName": "Circle Drive",
    "riverName": "Yadkin River (Badin Lake)",
    "type": "Public",
    "otherName": "Beaverdam Creek-Yadkin River"
  },
  {
    "department": "North Carolina Wildlife Resources Commission",
    "state": "North Carolina",
    "county": "Davie County",
    "latitude": 35.8382445051,
    "longitude": -80.4847240215,
    "accessName": "Concord Church",
    "riverName": "Yadkin River",
    "type": "Public",
    "otherName": "Farabee Creek-Yadkin River"
  },
  {
    "department": "North Carolina Wildlife Resources Commission",
    "state": "North Carolina",
    "county": "Davie County",
    "latitude": 35.8227581288,
    "longitude": -80.5844840343,
    "accessName": "Cooleemee",
    "riverName": "South Yadkin River",
    "type": "Public",
    "otherName": "Beaverdam Branch-South Yadkin River"
  },
  {
    "department": "North Carolina Wildlife Resources Commission",
    "state": "North Carolina",
    "county": "Richmond County",
    "latitude": 35.0548435698,
    "longitude": -79.8765002176,
    "accessName": "Grassy Island",
    "riverName": "Mountain Creek",
    "type": "Public",
    "otherName": "Mountain Creek"
  },
  {
    "department": "North Carolina Wildlife Resources Commission",
    "state": "North Carolina",
    "county": "Montgomery County",
    "latitude": 35.4848012788,
    "longitude": -80.0904713333,
    "accessName": "Lakemont",
    "riverName": "Yadkin River (Badin Lake)",
    "type": "Public",
    "otherName": "Beaverdam Creek-Yadkin River"
  },
  {
    "department": "North Carolina Wildlife Resources Commission",
    "state": "North Carolina",
    "county": "Iredell County",
    "latitude": 35.5608300523,
    "longitude": -80.9523024088,
    "accessName": "Hager Creek",
    "riverName": "Catawba River (Lake Norman)",
    "type": "Public",
    "otherName": "Little Creek-Lake Norman"
  },
  {
    "department": "North Carolina Wildlife Resources Commission",
    "state": "North Carolina",
    "county": "Lincoln County",
    "latitude": 35.4824391347,
    "longitude": -80.956635461,
    "accessName": "Beatties Ford",
    "riverName": "Catawba River (Lake Norman)",
    "type": "Public",
    "otherName": "Catawba River-Lake Norman"
  },
  {
    "department": "North Carolina Wildlife Resources Commission",
    "state": "North Carolina",
    "county": "Lincoln County",
    "latitude": 35.5386837376,
    "longitude": -80.980312921,
    "accessName": "Little Creek",
    "riverName": "Catawba River (Lake Norman)",
    "type": "Public",
    "otherName": "Little Creek-Lake Norman"
  },
  {
    "department": "North Carolina Wildlife Resources Commission",
    "state": "North Carolina",
    "county": "Catawba County",
    "latitude": 35.6802016744,
    "longitude": -80.9835004478,
    "accessName": "Long Island",
    "riverName": "Catawba River (Lake Norman)",
    "type": "Public",
    "otherName": "Terrapin Creek-Lake Norman"
  },
  {
    "department": "North Carolina Wildlife Resources Commission",
    "state": "North Carolina",
    "county": "Mecklenburg County",
    "latitude": 35.3697090659,
    "longitude": -80.933234569,
    "accessName": "Neck Road",
    "riverName": "Catawba River (Mountain Island Lake)",
    "type": "Public",
    "otherName": "Mountain Island Lake"
  },
  {
    "department": "North Carolina Wildlife Resources Commission",
    "state": "North Carolina",
    "county": "Iredell County",
    "latitude": 35.6034907131,
    "longitude": -80.928975756,
    "accessName": "McCrary Creek",
    "riverName": "Catawba River (Lake Norman)",
    "type": "Public",
    "otherName": "Little Creek-Lake Norman"
  },
  {
    "department": "North Carolina Wildlife Resources Commission",
    "state": "North Carolina",
    "county": "Gaston County",
    "latitude": 35.3534022367,
    "longitude": -80.9729438199,
    "accessName": "Riverbend",
    "riverName": "Catawba River (Mountain Island Lake)",
    "type": "Public",
    "otherName": "Mountain Island Lake"
  },
  {
    "department": "North Carolina Wildlife Resources Commission",
    "state": "North Carolina",
    "county": "Gaston County",
    "latitude": 35.1557140232,
    "longitude": -81.0122039898,
    "accessName": "South Point",
    "riverName": "Catawba River (Lake Wylie)",
    "type": "Public",
    "otherName": "Lake Wylie-Catawba River"
  },
  {
    "department": "North Carolina Wildlife Resources Commission",
    "state": "North Carolina",
    "county": "Alexander County",
    "latitude": 35.8052887946,
    "longitude": -81.3132321926,
    "accessName": "Wittenburg",
    "riverName": "Catawba River (Lake Hickory)",
    "type": "Public",
    "otherName": "Lake Hickory-Catawba River"
  },
  {
    "department": "North Carolina Wildlife Resources Commission",
    "state": "North Carolina",
    "county": "Caldwell County",
    "latitude": 35.7840282738,
    "longitude": -81.4847344759,
    "accessName": "Conley Creek",
    "riverName": "Freemason Creek",
    "type": "Public",
    "otherName": "Freemason Creek-Catawba River"
  },
  {
    "department": "North Carolina Wildlife Resources Commission",
    "state": "North Carolina",
    "county": "Burke County",
    "latitude": 35.7930872082,
    "longitude": -81.8690391417,
    "accessName": "Linville River",
    "riverName": "Catawba River (Lake James)",
    "type": "Public",
    "otherName": "Lake James-Catawba River"
  },
  {
    "department": "North Carolina Wildlife Resources Commission",
    "state": "North Carolina",
    "county": "Alexander County",
    "latitude": 35.8149265293,
    "longitude": -81.2301760159,
    "accessName": "Dusty Ridge",
    "riverName": "Catawba River (Lake Hickory)",
    "type": "Public",
    "otherName": "Lake Hickory-Catawba River"
  },
  {
    "department": "North Carolina Wildlife Resources Commission",
    "state": "North Carolina",
    "county": "Caldwell County",
    "latitude": 35.7933052922,
    "longitude": -81.3746759159,
    "accessName": "Gunpowder",
    "riverName": "Gunpowder Creek (Lake Hickory)",
    "type": "Public",
    "otherName": "Gunpowder Creek"
  },
  {
    "department": "North Carolina Wildlife Resources Commission",
    "state": "North Carolina",
    "county": "Caldwell County",
    "latitude": 35.7954341854,
    "longitude": -81.3496388044,
    "accessName": "Lovelady",
    "riverName": "Catawba River (Lake Hickory)",
    "type": "Public",
    "otherName": "Lake Hickory-Catawba River"
  },
  {
    "department": "North Carolina Wildlife Resources Commission",
    "state": "North Carolina",
    "county": "Caldwell County",
    "latitude": 35.7819478399,
    "longitude": -81.5244282233,
    "accessName": "Castle Bridge",
    "riverName": "Catawba River (Rhodhiss Lake)",
    "type": "Public",
    "otherName": "Freemason Creek-Catawba River"
  },
  {
    "department": "North Carolina Wildlife Resources Commission",
    "state": "North Carolina",
    "county": "Burke County",
    "latitude": 35.7931878266,
    "longitude": -81.6767903749,
    "accessName": "Johns River",
    "riverName": "Johns River",
    "type": "Public",
    "otherName": "Lower Johns River"
  },
  {
    "department": "North Carolina Wildlife Resources Commission",
    "state": "North Carolina",
    "county": "Burke County",
    "latitude": 35.7715460186,
    "longitude": -81.4424242433,
    "accessName": "Rhodhiss",
    "riverName": "Catawba River (Rhodhiss Lake)",
    "type": "Public",
    "otherName": "Freemason Creek-Catawba River"
  },
  {
    "department": "North Carolina Wildlife Resources Commission",
    "state": "North Carolina",
    "county": "McDowell County",
    "latitude": 35.748195792,
    "longitude": -81.9669289596,
    "accessName": "Black Bear",
    "riverName": "Catawba River (Lake James)",
    "type": "Public",
    "otherName": "Lake James-Catawba River"
  },
  {
    "department": "North Carolina Wildlife Resources Commission",
    "state": "North Carolina",
    "county": "Cherokee County",
    "latitude": 35.1468072092,
    "longitude": -84.1800895016,
    "accessName": "Apalachia",
    "riverName": "Hiwasee River (Apalachia Lake)",
    "type": "Public",
    "otherName": "Apalachia Lake-Hiwassee River"
  },
  {
    "department": "North Carolina Wildlife Resources Commission",
    "state": "North Carolina",
    "county": "Graham County",
    "latitude": 35.3721071417,
    "longitude": -83.9058936677,
    "accessName": "Avey Creek",
    "riverName": "Cheoah River (Lake Santeetlah)",
    "type": "Public",
    "otherName": "Santeetlah Creek"
  },
  {
    "department": "North Carolina Wildlife Resources Commission",
    "state": "North Carolina",
    "county": "Jackson County",
    "latitude": 35.2457250234,
    "longitude": -83.089111084,
    "accessName": "Cedar Cliff",
    "riverName": "Tuckasegee River (Cedar Cliff Lake)",
    "type": "Public",
    "otherName": "Cedar Cliff Lake-Tuckasegee River"
  },
  {
    "department": "North Carolina Wildlife Resources Commission",
    "state": "North Carolina",
    "county": "Macon County",
    "latitude": 35.1791008365,
    "longitude": -83.6862855146,
    "accessName": "Choga Road",
    "riverName": "Nantahala River (Nantahala Lake)",
    "type": "Public",
    "otherName": "Nantahala Lake-Nantahala River"
  },
  {
    "department": "North Carolina Wildlife Resources Commission",
    "state": "North Carolina",
    "county": "Swain County",
    "latitude": 35.4388931268,
    "longitude": -83.5512783608,
    "accessName": "Flat Branch",
    "riverName": "Tuckasegee River (Fontana Lake)",
    "type": "Public",
    "otherName": "Fontana Lake-Tuckasegee River"
  },
  {
    "department": "North Carolina Wildlife Resources Commission",
    "state": "North Carolina",
    "county": "Cherokee County",
    "latitude": 35.1243258507,
    "longitude": -84.1201772332,
    "accessName": "Grape Creek",
    "riverName": "Hiwassee River (Hiwassee Lake)",
    "type": "Public",
    "otherName": "Grape Creek-Hiwassee Lake"
  },
  {
    "department": "North Carolina Wildlife Resources Commission",
    "state": "North Carolina",
    "county": "Cherokee County",
    "latitude": 35.0973733827,
    "longitude": -84.0926138019,
    "accessName": "Hanging Dog",
    "riverName": "Hiwassee River (Hiwassee Lake)",
    "type": "Public",
    "otherName": "Grape Creek-Hiwassee Lake"
  },
  {
    "department": "North Carolina Wildlife Resources Commission",
    "state": "North Carolina",
    "county": "Clay County",
    "latitude": 35.0111611641,
    "longitude": -83.7692227077,
    "accessName": "Jackrabbit",
    "riverName": "Hiwassee River (Chatuge Lake)",
    "type": "Public",
    "otherName": "Shooting Creek"
  },
  {
    "department": "North Carolina Wildlife Resources Commission",
    "state": "North Carolina",
    "county": "Cherokee County",
    "latitude": 35.0909645071,
    "longitude": -84.0936377787,
    "accessName": "Ramsey Bluff",
    "riverName": "Hiwassee River (Hiwassee Lake)",
    "type": "Public",
    "otherName": "Grape Creek-Hiwassee Lake"
  },
  {
    "department": "North Carolina Wildlife Resources Commission",
    "state": "North Carolina",
    "county": "Graham County",
    "latitude": 35.3351399743,
    "longitude": -83.8281941431,
    "accessName": "Ranger Station",
    "riverName": "Cheoah River (Lake Santeetlah)",
    "type": "Public",
    "otherName": "Santeetlah Lake"
  },
  {
    "department": "North Carolina Wildlife Resources Commission",
    "state": "North Carolina",
    "county": "Macon County",
    "latitude": 35.1818007759,
    "longitude": -83.6568373225,
    "accessName": "Rocky Branch",
    "riverName": "Nantahala River (Nantahala Lake)",
    "type": "Public",
    "otherName": "Nantahala Lake-Nantahala River"
  },
  {
    "department": "North Carolina Wildlife Resources Commission",
    "state": "North Carolina",
    "county": "Swain County",
    "latitude": 35.4050563358,
    "longitude": -83.5802977709,
    "accessName": "Tsali",
    "riverName": "Little Tennessee River (Fontana Lake)",
    "type": "Public",
    "otherName": "Upper Fontana Lake-Little Tennessee River"
  },
  {
    "department": "North Carolina Wildlife Resources Commission",
    "state": "North Carolina",
    "county": "Jackson County",
    "latitude": 35.2238652164,
    "longitude": -82.997998937,
    "accessName": "Wolf Creek",
    "riverName": "Wolf Creek (Wolf Creek Lake)",
    "type": "Public",
    "otherName": "Wolf Creek-Tuckasegee River"
  },
  {
    "department": "North Carolina Wildlife Resources Commission",
    "state": "North Carolina",
    "county": "Graham County",
    "latitude": 35.3741081182,
    "longitude": -83.8695127596,
    "accessName": "Cheoah Point",
    "riverName": "Cheoah River (Lake Santeetlah)",
    "type": "Public",
    "otherName": "Santeetlah Lake"
  },
  {
    "department": "North Carolina Wildlife Resources Commission",
    "state": "North Carolina",
    "county": "Graham County",
    "latitude": 35.4378225351,
    "longitude": -83.7478589712,
    "accessName": "Cable Cove",
    "riverName": "Little Tennessee River (Fontana Lake)",
    "type": "Public",
    "otherName": "Lower Fontana Lake-Little Tennessee River"
  },
  {
    "department": "North Carolina Wildlife Resources Commission",
    "state": "North Carolina",
    "county": "Jackson County",
    "latitude": 35.1948888486,
    "longitude": -83.1728266309,
    "accessName": "Pine Creek",
    "riverName": "West Fork Tuckaseegee River (Thorpe Lake)",
    "type": "Public",
    "otherName": "Lake Glenville-West Fork Tuckasegee River"
  },
  {
    "department": "North Carolina Wildlife Resources Commission",
    "state": "North Carolina",
    "county": "Clay County",
    "latitude": 35.0271904019,
    "longitude": -83.7670701243,
    "accessName": "Ledfords Chapel",
    "riverName": "Hiwassee River (Chatuge Lake)",
    "type": "Public",
    "otherName": "Shooting Creek"
  },
  {
    "department": "North Carolina Wildlife Resources Commission",
    "state": "North Carolina",
    "county": "Swain County",
    "latitude": 35.4305058306,
    "longitude": -83.4866183721,
    "accessName": "Old 288",
    "riverName": "Tuckasegee River (Fontana Lake)",
    "type": "Public",
    "otherName": "Fontana Lake-Tuckasegee River"
  },
  {
    "department": "North Carolina Wildlife Resources Commission",
    "state": "North Carolina",
    "county": "Jackson County",
    "latitude": 35.1944441773,
    "longitude": -83.1493725852,
    "accessName": "Powerhouse Site",
    "riverName": "West Fork Tuckaseegee River (Thorpe Lake)",
    "type": "Public",
    "otherName": "Lake Glenville-West Fork Tuckasegee River"
  },
  {
    "department": "North Carolina Wildlife Resources Commission",
    "state": "North Carolina",
    "county": "Currituck County",
    "latitude": 36.3590634025,
    "longitude": -75.945007975,
    "accessName": "Coinjock",
    "riverName": "Unnamed Canal (Intracoastal Waterway)",
    "type": "Public",
    "otherName": "Coinjock Bay-Currituck Sound"
  },
  {
    "department": "North Carolina Wildlife Resources Commission",
    "state": "North Carolina",
    "county": "Tyrrell County",
    "latitude": 35.9164287177,
    "longitude": -76.2783147142,
    "accessName": "Columbia",
    "riverName": "Unnamed Canal (Scuppernong River)",
    "type": "Public",
    "otherName": "Riders Creek-Scuppernong River"
  },
  {
    "department": "North Carolina Wildlife Resources Commission",
    "state": "North Carolina",
    "county": "Washington County",
    "latitude": 35.8961786637,
    "longitude": -76.7042875706,
    "accessName": "Conaby Creek",
    "riverName": "Conaby Creek",
    "type": "Public",
    "otherName": "Conaby Creek"
  },
  {
    "department": "North Carolina Wildlife Resources Commission",
    "state": "North Carolina",
    "county": "Washington County",
    "latitude": 35.8619485038,
    "longitude": -76.3842651002,
    "accessName": "Creswell",
    "riverName": "Scuppernong River",
    "type": "Public",
    "otherName": "Old Canal-Scuppernong River"
  },
  {
    "department": "North Carolina Wildlife Resources Commission",
    "state": "North Carolina",
    "county": "Chowan County",
    "latitude": 36.0549475043,
    "longitude": -76.683878786,
    "accessName": "Edenhouse Bridge",
    "riverName": "Chowan River",
    "type": "Public",
    "otherName": "Edenhouse Point-Chowan River"
  },
  {
    "department": "North Carolina Wildlife Resources Commission",
    "state": "North Carolina",
    "county": "Chowan County",
    "latitude": 36.0108669726,
    "longitude": -76.5647257832,
    "accessName": "Midway Drive",
    "riverName": "Albermarle Sound",
    "type": "Public",
    "otherName": "Sandy Point-Nixous Beach"
  },
  {
    "department": "North Carolina Wildlife Resources Commission",
    "state": "North Carolina",
    "county": "Hyde County",
    "latitude": 35.5137462265,
    "longitude": -75.9884669663,
    "accessName": "Engelhard",
    "riverName": "Unnamed Canal (Kitty Creek)",
    "type": "Public",
    "otherName": "Otter Creek-Far Creek"
  },
  {
    "department": "North Carolina Wildlife Resources Commission",
    "state": "North Carolina",
    "county": "Tyrrell County",
    "latitude": 35.8045113745,
    "longitude": -76.1084858016,
    "accessName": "Frying Pan",
    "riverName": "The Frying Pan",
    "type": "Public",
    "otherName": "The Frying Pan-The Straights"
  },
  {
    "department": "North Carolina Wildlife Resources Commission",
    "state": "North Carolina",
    "county": "Tyrrell County",
    "latitude": 35.6971189349,
    "longitude": -76.1095698937,
    "accessName": "Gum Neck Landing",
    "riverName": "Gum Neck Creek",
    "type": "Public",
    "otherName": "Gum Neck Creek-Alligator River"
  },
  {
    "department": "North Carolina Wildlife Resources Commission",
    "state": "North Carolina",
    "county": "Pasquotank County",
    "latitude": 36.2192961363,
    "longitude": -76.2759767469,
    "accessName": "Halls Creek",
    "riverName": "Halls Creek",
    "type": "Public",
    "otherName": "Rabbit Corner-Middle Little River"
  },
  {
    "department": "North Carolina Wildlife Resources Commission",
    "state": "North Carolina",
    "county": "Beaufort County",
    "latitude": 35.2695344749,
    "longitude": -76.6315498224,
    "accessName": "Smiths Creek",
    "riverName": "Smith Creek",
    "type": "Public",
    "otherName": "Campbell Creek-Goose Creek"
  },
  {
    "department": "North Carolina Wildlife Resources Commission",
    "state": "North Carolina",
    "county": "Beaufort County",
    "latitude": 35.3045083599,
    "longitude": -76.7796765047,
    "accessName": "Aurora",
    "riverName": "South Creek",
    "type": "Public",
    "otherName": "Indian Island-South Creek"
  },
  {
    "department": "North Carolina Wildlife Resources Commission",
    "state": "North Carolina",
    "county": "Craven County",
    "latitude": 35.0494838575,
    "longitude": -77.0489619665,
    "accessName": "Brices Creek",
    "riverName": "Brice Creek",
    "type": "Public",
    "otherName": "Outlet Brice Creek"
  },
  {
    "department": "North Carolina Wildlife Resources Commission",
    "state": "North Carolina",
    "county": "Craven County",
    "latitude": 35.1446857791,
    "longitude": -77.0477153243,
    "accessName": "Bridgeton",
    "riverName": "Neuse River",
    "type": "Public",
    "otherName": "City of New Bern-Neuse River"
  },
  {
    "department": "North Carolina Wildlife Resources Commission",
    "state": "North Carolina",
    "county": "Pamlico County",
    "latitude": 34.9976601532,
    "longitude": -76.7490866817,
    "accessName": "Dawson Creek",
    "riverName": "Dawson Creek",
    "type": "Public",
    "otherName": "Dawson Creek"
  },
  {
    "department": "North Carolina Wildlife Resources Commission",
    "state": "North Carolina",
    "county": "Pamlico County",
    "latitude": 35.10671363,
    "longitude": -76.9339049913,
    "accessName": "Lees Landing",
    "riverName": "Upper Broad Creek",
    "type": "Public",
    "otherName": "Outlet Upper Broad Creek"
  },
  {
    "department": "North Carolina Wildlife Resources Commission",
    "state": "North Carolina",
    "county": "Pamlico County",
    "latitude": 35.0256399704,
    "longitude": -76.7004925704,
    "accessName": "Oriental",
    "riverName": "Smiths Creek & Greens Creek",
    "type": "Public",
    "otherName": "Greens Creek"
  },
  {
    "department": "North Carolina Wildlife Resources Commission",
    "state": "North Carolina",
    "county": "Jones County",
    "latitude": 35.0096450766,
    "longitude": -77.2181746723,
    "accessName": "Pollocksville",
    "riverName": "Trent River",
    "type": "Public",
    "otherName": "Town of Pollocksville-Trent River"
  },
  {
    "department": "North Carolina Wildlife Resources Commission",
    "state": "North Carolina",
    "county": "Duplin County",
    "latitude": 34.8317214889,
    "longitude": -77.8327316157,
    "accessName": "Chinquapin",
    "riverName": "Northeast Cape Fear River",
    "type": "Public",
    "otherName": "Oakie Branch-Northeast Cape Fear River"
  },
  {
    "department": "North Carolina Wildlife Resources Commission",
    "state": "North Carolina",
    "county": "Carteret County",
    "latitude": 34.7097580301,
    "longitude": -76.6319673786,
    "accessName": "Beaufort",
    "riverName": "Taylor Creek",
    "type": "Public",
    "otherName": "Carrot Island-Beaufort Inlet"
  },
  {
    "department": "North Carolina Wildlife Resources Commission",
    "state": "North Carolina",
    "county": "Carteret County",
    "latitude": 34.6778674245,
    "longitude": -77.1089039387,
    "accessName": "Cedar Point",
    "riverName": "White Oak River",
    "type": "Public",
    "otherName": "Bogue Sound-Bogue Inlet"
  },
  {
    "department": "North Carolina Wildlife Resources Commission",
    "state": "North Carolina",
    "county": "Carteret County",
    "latitude": 34.7223814498,
    "longitude": -76.7510982518,
    "accessName": "Morehead City",
    "riverName": "Bogue Sound (Intracoastal Waterway)",
    "type": "Public",
    "otherName": "Morehead City-Drum Shoals"
  },
  {
    "department": "North Carolina Wildlife Resources Commission",
    "state": "North Carolina",
    "county": "Carteret County",
    "latitude": 34.7780361235,
    "longitude": -76.859570805,
    "accessName": "Newport",
    "riverName": "Unnamed Canal (Newport River)",
    "type": "Public",
    "otherName": "Middle Newport River"
  },
  {
    "department": "North Carolina Wildlife Resources Commission",
    "state": "North Carolina",
    "county": "Carteret County",
    "latitude": 34.8922387875,
    "longitude": -76.4000305134,
    "accessName": "Salters Creek",
    "riverName": "Salters Creek",
    "type": "Public",
    "otherName": "Styron Bay-Cedar Inlet"
  },
  {
    "department": "North Carolina Wildlife Resources Commission",
    "state": "North Carolina",
    "county": "Carteret County",
    "latitude": 34.7219484874,
    "longitude": -76.575158472,
    "accessName": "Straits Landing",
    "riverName": "The Straits",
    "type": "Public",
    "otherName": "Outlet North River"
  },
  {
    "department": "North Carolina Wildlife Resources Commission",
    "state": "North Carolina",
    "county": "Onslow County",
    "latitude": 34.6533193073,
    "longitude": -77.1655007662,
    "accessName": "Shell Rock Landing",
    "riverName": "Unnamed Canal (Intracoastal Waterway)",
    "type": "Public",
    "otherName": "Bogue Sound-Bogue Inlet"
  },
  {
    "department": "North Carolina Wildlife Resources Commission",
    "state": "North Carolina",
    "county": "Craven County",
    "latitude": 34.8913600628,
    "longitude": -76.9236195528,
    "accessName": "Slocum Creek",
    "riverName": "Southwest Prong Slocum Creek",
    "type": "Public",
    "otherName": "Cherry Point Marine Corps Air Station-Slocum Creek"
  },
  {
    "department": "North Carolina Wildlife Resources Commission",
    "state": "North Carolina",
    "county": "Carteret County",
    "latitude": 34.8188378941,
    "longitude": -76.4509365795,
    "accessName": "Oyster Creek",
    "riverName": "Core Sound",
    "type": "Public",
    "otherName": "Great Island-Horse Island"
  },
  {
    "department": "North Carolina Wildlife Resources Commission",
    "state": "North Carolina",
    "county": "Onslow County",
    "latitude": 34.6452873282,
    "longitude": -77.2113959893,
    "accessName": "Willis Landing",
    "riverName": "Bear Creek",
    "type": "Public",
    "otherName": "Bear Creek-Bear Inlet"
  },
  {
    "department": "North Carolina Wildlife Resources Commission",
    "state": "North Carolina",
    "county": "Carteret County",
    "latitude": 35.0184210095,
    "longitude": -76.3142700221,
    "accessName": "Cedar Island",
    "riverName": "Pamlico Sound",
    "type": "Public",
    "otherName": "Portsmouth Island-Pamlico Sound"
  },
  {
    "department": "North Carolina Wildlife Resources Commission",
    "state": "North Carolina",
    "county": "Craven County",
    "latitude": 34.8598463388,
    "longitude": -77.0521725951,
    "accessName": "Great Lake",
    "riverName": "Hunters Creek (Great Lake)",
    "type": "Public",
    "otherName": "Hunters Creek"
  },
  {
    "department": "North Carolina Wildlife Resources Commission",
    "state": "North Carolina",
    "county": "Craven County",
    "latitude": 34.9174928922,
    "longitude": -76.8531515459,
    "accessName": "Hancock Creek",
    "riverName": "Hancock Creek",
    "type": "Public",
    "otherName": "Cherry Point-Hancock Creek"
  },
  {
    "department": "North Carolina Wildlife Resources Commission",
    "state": "North Carolina",
    "county": "Jones County",
    "latitude": 34.8197374238,
    "longitude": -77.1856957088,
    "accessName": "Haywood Landing",
    "riverName": "White Oak River",
    "type": "Public",
    "otherName": "Mulberry Creek-White Oak River"
  },
  {
    "department": "North Carolina Wildlife Resources Commission",
    "state": "North Carolina",
    "county": "Jones County",
    "latitude": 35.0624626412,
    "longitude": -77.3415551449,
    "accessName": "Trenton",
    "riverName": "Trent River",
    "type": "Public",
    "otherName": "Beaverdam Creek-Trent River"
  },
  {
    "department": "North Carolina Wildlife Resources Commission",
    "state": "North Carolina",
    "county": "Iredell County",
    "latitude": 35.763645899,
    "longitude": -81.0830558552,
    "accessName": "Sharon",
    "riverName": "Catawba River (Lookout Shoals Lake)",
    "type": "Public",
    "otherName": "Lookout Shoals Lake"
  },
  {
    "department": "North Carolina Wildlife Resources Commission",
    "state": "North Carolina",
    "county": "Catawba County",
    "latitude": 35.7577165822,
    "longitude": -81.096304726,
    "accessName": "Lookout Shoals",
    "riverName": "Catawba River (Lookout Shoals Lake)",
    "type": "Public",
    "otherName": "Lookout Shoals Lake"
  },
  {
    "department": "North Carolina Wildlife Resources Commission",
    "state": "North Carolina",
    "county": "Catawba County",
    "latitude": 35.8194475351,
    "longitude": -81.1960553046,
    "accessName": "Oxford",
    "riverName": "Catawba River - Lake Hickory",
    "type": "Public",
    "otherName": "Lake Hickory-Catawba River"
  },
  {
    "department": "North Carolina Wildlife Resources Commission",
    "state": "North Carolina",
    "county": "Swain County",
    "latitude": 35.3946428249,
    "longitude": -83.5773591411,
    "accessName": "Lemmons Branch",
    "riverName": "Little Tennessee River (Fontana Lake)",
    "type": "Public",
    "otherName": "Upper Fontana Lake-Little Tennessee River"
  },
  {
    "department": "North Carolina Wildlife Resources Commission",
    "state": "North Carolina",
    "county": "Jackson County",
    "latitude": 35.2442764054,
    "longitude": -83.0639730182,
    "accessName": "Bear Creek",
    "riverName": "Tuckasegee River (Bear Creek Lake)",
    "type": "Public",
    "otherName": "Cedar Cliff Lake-Tuckasegee River"
  },
  {
    "department": "North Carolina Wildlife Resources Commission",
    "state": "North Carolina",
    "county": "Craven County",
    "latitude": 35.1924302799,
    "longitude": -77.0836694514,
    "accessName": "Cool Springs",
    "riverName": "Swift Creek",
    "type": "Public",
    "otherName": "Swift Creek"
  },
  {
    "department": "North Carolina Wildlife Resources Commission",
    "state": "North Carolina",
    "county": "Hyde County",
    "latitude": 35.4212866066,
    "longitude": -76.2089490391,
    "accessName": "Hydeland Canal",
    "riverName": "Hydeland Canal",
    "type": "Public",
    "otherName": "Juniper Bay Creek-Juniper Bay"
  },
  {
    "department": "North Carolina Wildlife Resources Commission",
    "state": "North Carolina",
    "county": "Pasquotank County",
    "latitude": 36.1501732386,
    "longitude": -76.1331136469,
    "accessName": "Big Flatty",
    "riverName": "Big Flatty Creek",
    "type": "Public",
    "otherName": "Big Flatty Creek"
  },
  {
    "department": "North Carolina Wildlife Resources Commission",
    "state": "North Carolina",
    "county": "Currituck County",
    "latitude": 36.507939836,
    "longitude": -75.9101564002,
    "accessName": "Brumley Road",
    "riverName": "Knotts Island Bay",
    "type": "Public",
    "otherName": "Coinjock Bay-Currituck Sound"
  },
  {
    "department": "North Carolina Wildlife Resources Commission",
    "state": "North Carolina",
    "county": "Chowan County",
    "latitude": 36.2680096977,
    "longitude": -76.6709548667,
    "accessName": "Cannons Ferry",
    "riverName": "Chowan River",
    "type": "Public",
    "otherName": "Holiday Island-Chowan River"
  },
  {
    "department": "North Carolina Wildlife Resources Commission",
    "state": "North Carolina",
    "county": "Iredell County",
    "latitude": 35.6067675371,
    "longitude": -80.938374571,
    "accessName": "Pinnacle",
    "riverName": "Catawba River - Lake Norman",
    "type": "Public",
    "otherName": "Stumpy Creek-Lake Norman"
  },
  {
    "department": "North Carolina Wildlife Resources Commission",
    "state": "North Carolina",
    "county": "Perquimans County",
    "latitude": 36.1337588186,
    "longitude": -76.3196549032,
    "accessName": "Perquimans",
    "riverName": "Perquimans River",
    "type": "Public",
    "otherName": "Lower Perquimmans River"
  },
  {
    "department": "North Carolina Wildlife Resources Commission",
    "state": "North Carolina",
    "county": "Washington County",
    "latitude": 35.9126209025,
    "longitude": -76.7206053137,
    "accessName": "Plymouth",
    "riverName": "Roanoke River",
    "type": "Public",
    "otherName": "Town of Plymouth-Roanoke River"
  },
  {
    "department": "North Carolina Wildlife Resources Commission",
    "state": "North Carolina",
    "county": "Currituck County",
    "latitude": 36.2871878633,
    "longitude": -75.8837396096,
    "accessName": "Poplar Branch",
    "riverName": "Currituck Sound",
    "type": "Public",
    "otherName": "Sanders Bay-Currituck Sound"
  },
  {
    "department": "North Carolina Wildlife Resources Commission",
    "state": "North Carolina",
    "county": "Currituck County",
    "latitude": 36.4684663016,
    "longitude": -76.0767580224,
    "accessName": "Poyners Road",
    "riverName": "Unnamed Canal (Tull Creek)",
    "type": "Public",
    "otherName": "Tull Creek"
  },
  {
    "department": "North Carolina Wildlife Resources Commission",
    "state": "North Carolina",
    "county": "Bertie County",
    "latitude": 35.9111774105,
    "longitude": -76.8171344777,
    "accessName": "Sans Souci Ferry",
    "riverName": "Cashie River",
    "type": "Public",
    "otherName": "Broad Creek-Cashie River"
  },
  {
    "department": "North Carolina Wildlife Resources Commission",
    "state": "North Carolina",
    "county": "Camden County",
    "latitude": 36.3317347991,
    "longitude": -76.1796497625,
    "accessName": "Sawyers Creek",
    "riverName": "Sawyer'S Creek",
    "type": "Public",
    "otherName": "Town of Camden-Sawyers Creek"
  },
  {
    "department": "North Carolina Wildlife Resources Commission",
    "state": "North Carolina",
    "county": "Hyde County",
    "latitude": 35.4623979361,
    "longitude": -76.4219456865,
    "accessName": "Rose Bay",
    "riverName": "Unnamed Canal (Rose Bay)",
    "type": "Public",
    "otherName": "Rose Bay Canal-Rose Bay Creek"
  },
  {
    "department": "North Carolina Wildlife Resources Commission",
    "state": "North Carolina",
    "county": "Wayne County",
    "latitude": 35.3566641118,
    "longitude": -78.1369115028,
    "accessName": "Coxs Ferry",
    "riverName": "Neuse River",
    "type": "Public",
    "otherName": "Quaker Neck Lake-Neuse River"
  },
  {
    "department": "North Carolina Wildlife Resources Commission",
    "state": "North Carolina",
    "county": "Wayne County",
    "latitude": 35.3482308643,
    "longitude": -78.0236168733,
    "accessName": "Goldsboro",
    "riverName": "Neuse River",
    "type": "Public",
    "otherName": "Quaker Neck Lake-Neuse River"
  },
  {
    "department": "North Carolina Wildlife Resources Commission",
    "state": "North Carolina",
    "county": "Wake County",
    "latitude": 35.6086019232,
    "longitude": -78.9389890325,
    "accessName": "Hollemans Crossing",
    "riverName": "Buckhorn Creek (Harris Lake)",
    "type": "Public",
    "otherName": "White Oak Creek"
  },
  {
    "department": "North Carolina Wildlife Resources Commission",
    "state": "North Carolina",
    "county": "Johnston County",
    "latitude": 35.3754006247,
    "longitude": -78.197980773,
    "accessName": "Richardsons Bridge",
    "riverName": "Neuse River",
    "type": "Public",
    "otherName": "Polecat Branch-Neuse River"
  },
  {
    "department": "North Carolina Wildlife Resources Commission",
    "state": "North Carolina",
    "county": "Wayne County",
    "latitude": 35.2287189037,
    "longitude": -77.8460419437,
    "accessName": "Seven Springs",
    "riverName": "Neuse River",
    "type": "Public",
    "otherName": "Walnut Creek-Neuse River"
  },
  {
    "department": "North Carolina Wildlife Resources Commission",
    "state": "North Carolina",
    "county": "Wayne County",
    "latitude": 35.3137892179,
    "longitude": -77.9450567315,
    "accessName": "Prices Landing",
    "riverName": "Neuse River",
    "type": "Public",
    "otherName": "Seymour Johnson Air Force Base-Neuse River"
  },
  {
    "department": "North Carolina Wildlife Resources Commission",
    "state": "North Carolina",
    "county": "Wayne County",
    "latitude": 35.3671248085,
    "longitude": -78.0672749183,
    "accessName": "Stevens Mill",
    "riverName": "Neuse River",
    "type": "Public",
    "otherName": "Quaker Neck Lake-Neuse River"
  },
  {
    "department": "North Carolina Wildlife Resources Commission",
    "state": "North Carolina",
    "county": "Cumberland County",
    "latitude": 34.9966745881,
    "longitude": -78.8506218252,
    "accessName": "Fayetteville",
    "riverName": "Cape Fear River",
    "type": "Public",
    "otherName": "Locks Creek-Cape Fear River"
  },
  {
    "department": "North Carolina Wildlife Resources Commission",
    "state": "North Carolina",
    "county": "Harnett County",
    "latitude": 35.3975161785,
    "longitude": -78.7737506108,
    "accessName": "Lillington",
    "riverName": "Cape Fear River",
    "type": "Public",
    "otherName": "Dry Creek-Cape Fear River"
  },
  {
    "department": "North Carolina Wildlife Resources Commission",
    "state": "North Carolina",
    "county": "Hoke County",
    "latitude": 34.9010287207,
    "longitude": -79.3483931819,
    "accessName": "Wagram",
    "riverName": "Lumber River",
    "type": "Public",
    "otherName": "Town of Wagram-Lumber River"
  },
  {
    "department": "North Carolina Wildlife Resources Commission",
    "state": "North Carolina",
    "county": "Cumberland County",
    "latitude": 35.0327182131,
    "longitude": -79.0403152569,
    "accessName": "Lake Rim",
    "riverName": "Bones Creek (Lake Rim)",
    "type": "Public",
    "otherName": "Bones Creek"
  },
  {
    "department": "North Carolina Wildlife Resources Commission",
    "state": "North Carolina",
    "county": "Chatham County",
    "latitude": 35.5504774596,
    "longitude": -79.0252247403,
    "accessName": "Avents Ferry Bridge",
    "riverName": "Cape Fear River",
    "type": "Public",
    "otherName": "Gulf Creek-Cape Fear River"
  },
  {
    "department": "North Carolina Wildlife Resources Commission",
    "state": "North Carolina",
    "county": "Chatham County",
    "latitude": 35.5731892761,
    "longitude": -78.9758862473,
    "accessName": "Cross Point Landing",
    "riverName": "Buckhorn Creek (Harris Lake)",
    "type": "Public",
    "otherName": "Buckhorn Creek"
  },
  {
    "department": "North Carolina Wildlife Resources Commission",
    "state": "North Carolina",
    "county": "New Hanover County",
    "latitude": 34.2183916639,
    "longitude": -77.8112286128,
    "accessName": "Wrightsville Beach",
    "riverName": "Wrightsville Recreational Area",
    "type": "Public",
    "otherName": "Masonboro Inlet-Mason Inlet"
  },
  {
    "department": "North Carolina Wildlife Resources Commission",
    "state": "North Carolina",
    "county": "Pender County",
    "latitude": 34.428672691,
    "longitude": -77.5499663909,
    "accessName": "Surf City",
    "riverName": "Topsail Sound",
    "type": "Public",
    "otherName": "Beckys Creek-New Topsail Inlet"
  },
  {
    "department": "North Carolina Wildlife Resources Commission",
    "state": "North Carolina",
    "county": "New Hanover County",
    "latitude": 34.363509211,
    "longitude": -77.8965935689,
    "accessName": "Castle Hayne",
    "riverName": "Northeast Cape Fear River",
    "type": "Public",
    "otherName": "Prince George Creek-Northeast Cape Fear River"
  },
  {
    "department": "North Carolina Wildlife Resources Commission",
    "state": "North Carolina",
    "county": "New Hanover County",
    "latitude": 33.9588516181,
    "longitude": -77.9415972915,
    "accessName": "Federal Point",
    "riverName": "The Basin",
    "type": "Public",
    "otherName": "Town of Southport-Cape Fear River"
  },
  {
    "department": "North Carolina Wildlife Resources Commission",
    "state": "North Carolina",
    "county": "Pitt County",
    "latitude": 35.5975073935,
    "longitude": -77.3140570503,
    "accessName": "Greenville",
    "riverName": "Tar River",
    "type": "Public",
    "otherName": "Town of Grimesland-Tar River"
  },
  {
    "department": "North Carolina Wildlife Resources Commission",
    "state": "North Carolina",
    "county": "Pitt County",
    "latitude": 35.3686057164,
    "longitude": -77.4342338593,
    "accessName": "Grifton",
    "riverName": "Contentnea Creek",
    "type": "Public",
    "otherName": "Eagle Swamp-Contentnea Creek"
  },
  {
    "department": "North Carolina Wildlife Resources Commission",
    "state": "North Carolina",
    "county": "Pender County",
    "latitude": 34.5486003632,
    "longitude": -77.8163111492,
    "accessName": "Holly Shelter",
    "riverName": "Northeast Cape Fear River",
    "type": "Public",
    "otherName": "Lewis Creek-Northeast Cape Fear River"
  },
  {
    "department": "North Carolina Wildlife Resources Commission",
    "state": "North Carolina",
    "county": "Duplin County",
    "latitude": 34.9375701724,
    "longitude": -77.8588881405,
    "accessName": "Kenansville",
    "riverName": "Northeast Cape Fear River",
    "type": "Public",
    "otherName": "Persimmon Branch-Northeast Cape Fear River"
  },
  {
    "department": "North Carolina Wildlife Resources Commission",
    "state": "North Carolina",
    "county": "Pender County",
    "latitude": 34.5865284452,
    "longitude": -77.8218046596,
    "accessName": "Sawpit Landing",
    "riverName": "Northeast Cape Fear River",
    "type": "Public",
    "otherName": "Lewis Creek-Northeast Cape Fear River"
  },
  {
    "department": "North Carolina Wildlife Resources Commission",
    "state": "North Carolina",
    "county": "Pender County",
    "latitude": 34.6124144155,
    "longitude": -77.8031597599,
    "accessName": "Shelter Creek",
    "riverName": "Holly Shelter Creek",
    "type": "Public",
    "otherName": "Lower Holly Shelter Creek"
  },
  {
    "department": "North Carolina Wildlife Resources Commission",
    "state": "North Carolina",
    "county": "Greene County",
    "latitude": 35.4570435669,
    "longitude": -77.6676179949,
    "accessName": "Snow Hill",
    "riverName": "Contentnea Creek",
    "type": "Public",
    "otherName": "Rainbow Creek-Contentnea Creek"
  },
  {
    "department": "North Carolina Wildlife Resources Commission",
    "state": "North Carolina",
    "county": "New Hanover County",
    "latitude": 34.0570933156,
    "longitude": -77.8916683601,
    "accessName": "Snows Cut",
    "riverName": "Carolina Beach Yacht Basin",
    "type": "Public",
    "otherName": "Everett Creek-Carolina Beach Inlet"
  },
  {
    "department": "North Carolina Wildlife Resources Commission",
    "state": "North Carolina",
    "county": "Beaufort County",
    "latitude": 35.5626673754,
    "longitude": -77.0861191537,
    "accessName": "Masons Landing",
    "riverName": "Tranters Creek",
    "type": "Public",
    "otherName": "Cherry Run-Lower Tranters Creek"
  },
  {
    "department": "North Carolina Wildlife Resources Commission",
    "state": "North Carolina",
    "county": "New Hanover County",
    "latitude": 34.30104025,
    "longitude": -77.9936247954,
    "accessName": "Sutton Lake",
    "riverName": "Catfish Creek (Sutton Lake)",
    "type": "Public",
    "otherName": "Indian Creek-Cape Fear River"
  },
  {
    "department": "North Carolina Wildlife Resources Commission",
    "state": "North Carolina",
    "county": "Onslow County",
    "latitude": 34.4940780387,
    "longitude": -77.4652420768,
    "accessName": "Turkey Creek",
    "riverName": "Turkey Creek",
    "type": "Public",
    "otherName": "Ashe Island-Stump Sound"
  },
  {
    "department": "North Carolina Wildlife Resources Commission",
    "state": "North Carolina",
    "county": "Onslow County",
    "latitude": 34.4977474782,
    "longitude": -77.4281920868,
    "accessName": "West Onslow Beach",
    "riverName": "Unnamed Canal (Intracoastal Waterway)",
    "type": "Public",
    "otherName": "Ashe Island-Stump Sound"
  },
  {
    "department": "North Carolina Wildlife Resources Commission",
    "state": "North Carolina",
    "county": "Duplin County",
    "latitude": 34.7833490717,
    "longitude": -77.8778808479,
    "accessName": "Waynes Landing",
    "riverName": "Northeast Cape Fear River",
    "type": "Public",
    "otherName": "Oakie Branch-Northeast Cape Fear River"
  },
  {
    "department": "North Carolina Wildlife Resources Commission",
    "state": "North Carolina",
    "county": "Craven County",
    "latitude": 35.2187911761,
    "longitude": -77.1483974229,
    "accessName": "Spring Garden",
    "riverName": "Neuse River",
    "type": "Public",
    "otherName": "Pinetree Creek-Neuse River"
  },
  {
    "department": "North Carolina Wildlife Resources Commission",
    "state": "North Carolina",
    "county": "Bladen County",
    "latitude": 34.4735468154,
    "longitude": -78.3687087043,
    "accessName": "Elwells Ferry",
    "riverName": "Cape Fear River",
    "type": "Public",
    "otherName": "Frenchs Creek-Cape Fear River"
  },
  {
    "department": "North Carolina Wildlife Resources Commission",
    "state": "North Carolina",
    "county": "Bladen County",
    "latitude": 34.6410468237,
    "longitude": -78.3131229155,
    "accessName": "Ennis Bridge",
    "riverName": "South River",
    "type": "Public",
    "otherName": "Lake Creek-South River"
  },
  {
    "department": "North Carolina Wildlife Resources Commission",
    "state": "North Carolina",
    "county": "Robeson County",
    "latitude": 34.5916196692,
    "longitude": -78.9838542756,
    "accessName": "High Hill",
    "riverName": "Lumber River",
    "type": "Public",
    "otherName": "Jacob Swamp-Lumber River"
  },
  {
    "department": "North Carolina Wildlife Resources Commission",
    "state": "North Carolina",
    "county": "Brunswick County",
    "latitude": 33.916256831,
    "longitude": -78.2674925746,
    "accessName": "Holden Beach",
    "riverName": "Intracoastal Waterway",
    "type": "Public",
    "otherName": "Town of Long Beach-Montgomery Slough"
  },
  {
    "department": "North Carolina Wildlife Resources Commission",
    "state": "North Carolina",
    "county": "Bladen County",
    "latitude": 34.4658199171,
    "longitude": -78.1808091374,
    "accessName": "Hunts Bluff",
    "riverName": "Black River",
    "type": "Public",
    "otherName": "Rowan Creek-Black River"
  },
  {
    "department": "North Carolina Wildlife Resources Commission",
    "state": "North Carolina",
    "county": "Sampson County",
    "latitude": 34.604970312,
    "longitude": -78.2426631816,
    "accessName": "Ivanhoe",
    "riverName": "Black River",
    "type": "Public",
    "otherName": "Kings Branch-Black River"
  },
  {
    "department": "North Carolina Wildlife Resources Commission",
    "state": "North Carolina",
    "county": "Columbus County",
    "latitude": 34.3004034392,
    "longitude": -78.5517885135,
    "accessName": "Lake Waccamaw",
    "riverName": "Lake Waccamaw",
    "type": "Public",
    "otherName": "Lake Waccamaw"
  },
  {
    "department": "North Carolina Wildlife Resources Commission",
    "state": "North Carolina",
    "county": "Robeson County",
    "latitude": 34.4805920214,
    "longitude": -78.8790248515,
    "accessName": "Lennons Bridge",
    "riverName": "Big Swamp",
    "type": "Public",
    "otherName": "Brier Creek-Big Swamp"
  },
  {
    "department": "North Carolina Wildlife Resources Commission",
    "state": "North Carolina",
    "county": "Robeson County",
    "latitude": 34.6242664573,
    "longitude": -79.0564043012,
    "accessName": "Mcneils Bridge",
    "riverName": "Lumber River",
    "type": "Public",
    "otherName": "Jacob Swamp-Lumber River"
  },
  {
    "department": "North Carolina Wildlife Resources Commission",
    "state": "North Carolina",
    "county": "Brunswick County",
    "latitude": 33.928218169,
    "longitude": -78.0595595012,
    "accessName": "Oak Island",
    "riverName": "Dutchman Creek Outlet Channel",
    "type": "Public",
    "otherName": "Jump and Run Creek-Gully Creek"
  },
  {
    "department": "North Carolina Wildlife Resources Commission",
    "state": "North Carolina",
    "county": "Brunswick County",
    "latitude": 34.0144646917,
    "longitude": -78.6316723305,
    "accessName": "Pireway",
    "riverName": "Waccamaw River",
    "type": "Public",
    "otherName": "Big Creek-Waccamaw River"
  },
  {
    "department": "North Carolina Wildlife Resources Commission",
    "state": "North Carolina",
    "county": "Brunswick County",
    "latitude": 34.1466843271,
    "longitude": -78.0686979694,
    "accessName": "Rices Creek",
    "riverName": "Rice Creek",
    "type": "Public",
    "otherName": "Bell Swamp-Rice Creek"
  },
  {
    "department": "North Carolina Wildlife Resources Commission",
    "state": "North Carolina",
    "county": "Bladen County",
    "latitude": 34.7607962862,
    "longitude": -78.4083377193,
    "accessName": "Sloans Bridge",
    "riverName": "South River",
    "type": "Public",
    "otherName": "Smith Mill Pond Run-South River"
  },
  {
    "department": "North Carolina Wildlife Resources Commission",
    "state": "North Carolina",
    "county": "Brunswick County",
    "latitude": 33.9228357864,
    "longitude": -78.2129864952,
    "accessName": "Sunset Harbor",
    "riverName": "Lockwoods Folly River & Intracoastal Waterway",
    "type": "Public",
    "otherName": "Pamlico Creek-Lockwoods Folly River"
  },
  {
    "department": "North Carolina Wildlife Resources Commission",
    "state": "North Carolina",
    "county": "Bladen County",
    "latitude": 34.7452549374,
    "longitude": -78.7857623998,
    "accessName": "Tar Heel",
    "riverName": "Cape Fear River",
    "type": "Public",
    "otherName": "Phillips Creek-Cape Fear River"
  },
  {
    "department": "North Carolina Wildlife Resources Commission",
    "state": "North Carolina",
    "county": "Bladen County",
    "latitude": 34.6325801404,
    "longitude": -78.6037890606,
    "accessName": "Tory Hole",
    "riverName": "Cape Fear River",
    "type": "Public",
    "otherName": "White Lake-Cape Fear River"
  },
  {
    "department": "North Carolina Wildlife Resources Commission",
    "state": "North Carolina",
    "county": "Brunswick County",
    "latitude": 33.8949097125,
    "longitude": -78.4393839141,
    "accessName": "Ocean Isle Beach",
    "riverName": "Intracoastal Waterway",
    "type": "Public",
    "otherName": "Lower Shallotte River"
  },
  {
    "department": "North Carolina Wildlife Resources Commission",
    "state": "North Carolina",
    "county": "Edgecombe County",
    "latitude": 35.928496179,
    "longitude": -77.5486417443,
    "accessName": "Bells Bridge",
    "riverName": "Tar River",
    "type": "Public",
    "otherName": "Penders Mill Run-Tar River"
  },
  {
    "department": "North Carolina Wildlife Resources Commission",
    "state": "North Carolina",
    "county": "Northampton County",
    "latitude": 36.5205890171,
    "longitude": -77.8810822707,
    "accessName": "Henrico",
    "riverName": "Roanoke River (Lake Gaston)",
    "type": "Public",
    "otherName": "Pea Hill Creek-Lake Gaston"
  },
  {
    "department": "North Carolina Wildlife Resources Commission",
    "state": "North Carolina",
    "county": "Northampton County",
    "latitude": 36.5002285419,
    "longitude": -77.7779079586,
    "accessName": "Vultare",
    "riverName": "Roanoke River (Roanoke Rapids Lake)",
    "type": "Public",
    "otherName": "Roanoke Rapids Lake"
  },
  {
    "department": "North Carolina Wildlife Resources Commission",
    "state": "North Carolina",
    "county": "Halifax County",
    "latitude": 36.4735695743,
    "longitude": -77.6781605963,
    "accessName": "Fifth Street Landing",
    "riverName": "Unnamed Cove (Roanoke Rapids Lake)",
    "type": "Public",
    "otherName": "Roanoke Rapids Lake"
  },
  {
    "department": "North Carolina Wildlife Resources Commission",
    "state": "North Carolina",
    "county": "Edgecombe County",
    "latitude": 35.9403226061,
    "longitude": -77.6548850453,
    "accessName": "Dunbar Bridge",
    "riverName": "Tar River",
    "type": "Public",
    "otherName": "Penders Mill Run-Tar River"
  },
  {
    "department": "North Carolina Wildlife Resources Commission",
    "state": "North Carolina",
    "county": "Craven County",
    "latitude": 35.2386391065,
    "longitude": -77.1668225356,
    "accessName": "Cow Pen Landing",
    "riverName": "Neuse River",
    "type": "Public",
    "otherName": "Pinetree Creek-Neuse River"
  },
  {
    "department": "North Carolina Wildlife Resources Commission",
    "state": "North Carolina",
    "county": "Vance County",
    "latitude": 36.4385253371,
    "longitude": -78.3427552328,
    "accessName": "Flemingtown Landing",
    "riverName": "Anderson Swamp Creek (Kerr Lake)",
    "type": "Public",
    "otherName": "Anderson Creek-Mill Creek"
  },
  {
    "department": "North Carolina Wildlife Resources Commission",
    "state": "North Carolina",
    "county": "Vance County",
    "latitude": 36.5331241359,
    "longitude": -78.3431977451,
    "accessName": "Henderson Point",
    "riverName": "Nutbush Creek (Kerr Lake)",
    "type": "Public",
    "otherName": "Nutbush Creek-John H Kerr Reservoir"
  },
  {
    "department": "North Carolina Wildlife Resources Commission",
    "state": "North Carolina",
    "county": "Vance County",
    "latitude": 36.5028545584,
    "longitude": -78.3759691627,
    "accessName": "Hibernia",
    "riverName": "Nutbush Creek (Kerr Lake)",
    "type": "Public",
    "otherName": "Nutbush Creek-John H Kerr Reservoir"
  },
  {
    "department": "North Carolina Wildlife Resources Commission",
    "state": "North Carolina",
    "county": "Wake County",
    "latitude": 36.0536271418,
    "longitude": -78.7226875936,
    "accessName": "Ledge Rock",
    "riverName": "Neuse River (Falls Lake)",
    "type": "Public",
    "otherName": "Lodge Creek"
  },
  {
    "department": "North Carolina Wildlife Resources Commission",
    "state": "North Carolina",
    "county": "Wake County",
    "latitude": 35.9743039679,
    "longitude": -78.6550453651,
    "accessName": "Upper Bartons Creek",
    "riverName": "Neuse River (Falls Lake)",
    "type": "Public",
    "otherName": "Upper Barton Creek-Neuse River"
  },
  {
    "department": "North Carolina Wildlife Resources Commission",
    "state": "North Carolina",
    "county": "Warren County",
    "latitude": 36.5223669559,
    "longitude": -78.3140929197,
    "accessName": "County Line",
    "riverName": "Nutbush Creek (Kerr Lake)",
    "type": "Public",
    "otherName": "Nutbush Creek-John H Kerr Reservoir"
  },
  {
    "department": "North Carolina Wildlife Resources Commission",
    "state": "North Carolina",
    "county": "Durham County",
    "latitude": 36.0930499837,
    "longitude": -78.8238675967,
    "accessName": "Eno River",
    "riverName": "Neuse River (Falls Lake)",
    "type": "Public",
    "otherName": "Crooked Creek-Eno River"
  },
  {
    "department": "North Carolina Wildlife Resources Commission",
    "state": "North Carolina",
    "county": "Chatham County",
    "latitude": 35.7989525496,
    "longitude": -79.018043403,
    "accessName": "Farrington Point",
    "riverName": "New Hope River (Lake Jordan)",
    "type": "Public",
    "otherName": "New Hope River-B Everett Jordan Lake"
  },
  {
    "department": "North Carolina Wildlife Resources Commission",
    "state": "North Carolina",
    "county": "Rockingham County",
    "latitude": 36.4753044777,
    "longitude": -79.7502785689,
    "accessName": "Leaksville",
    "riverName": "Dan River",
    "type": "Public",
    "otherName": "Town Creek-Dan River"
  },
  {
    "department": "North Carolina Wildlife Resources Commission",
    "state": "North Carolina",
    "county": "Caswell County",
    "latitude": 36.540749992,
    "longitude": -79.214938736,
    "accessName": "Milton",
    "riverName": "Dan River",
    "type": "Public",
    "otherName": "Cane Creek-Dan River"
  },
  {
    "department": "North Carolina Wildlife Resources Commission",
    "state": "North Carolina",
    "county": "Person County",
    "latitude": 36.4802768742,
    "longitude": -78.8771806928,
    "accessName": "Triple Springs",
    "riverName": "Mayo Creek (Mayo Reservoir)",
    "type": "Public",
    "otherName": "Mayo Creek-Mayo Reservoir"
  },
  {
    "department": "North Carolina Wildlife Resources Commission",
    "state": "North Carolina",
    "county": "Stokes County",
    "latitude": 36.300011855,
    "longitude": -80.0533467124,
    "accessName": "Pine Hall",
    "riverName": "West Belews Creek (Belews Lake)",
    "type": "Public",
    "otherName": "Belews Lake"
  },
  {
    "department": "North Carolina Wildlife Resources Commission",
    "state": "North Carolina",
    "county": "Forsyth County",
    "latitude": 36.2411818807,
    "longitude": -80.06401546,
    "accessName": "Piney Bluff",
    "riverName": "Belews Creek",
    "type": "Public",
    "otherName": "Belews Creek-Belews Lake"
  },
  {
    "department": "North Carolina Wildlife Resources Commission",
    "state": "North Carolina",
    "county": "Gates County",
    "latitude": 36.3593556467,
    "longitude": -76.7714310729,
    "accessName": "Gatesville",
    "riverName": "Chowan River",
    "type": "Public",
    "otherName": "Sarem Creek-Chowan River"
  },
  {
    "department": "North Carolina Wildlife Resources Commission",
    "state": "North Carolina",
    "county": "Hertford County",
    "latitude": 36.3137346801,
    "longitude": -76.7923380772,
    "accessName": "Harrellsville",
    "riverName": "Wiccacon River",
    "type": "Public",
    "otherName": "Wiccacon River"
  },
  {
    "department": "North Carolina Wildlife Resources Commission",
    "state": "North Carolina",
    "county": "Hertford County",
    "latitude": 36.4495359407,
    "longitude": -77.0831506224,
    "accessName": "Murfreesboro",
    "riverName": "Meherrin River",
    "type": "Public",
    "otherName": "Town of Murfreesboro-Meherrin River"
  },
  {
    "department": "North Carolina Wildlife Resources Commission",
    "state": "North Carolina",
    "county": "Gates County",
    "latitude": 36.4011156372,
    "longitude": -76.9282830861,
    "accessName": "Shoups Landing",
    "riverName": "Chowan River",
    "type": "Public",
    "otherName": "Sarem Creek-Chowan River"
  },
  {
    "department": "North Carolina Wildlife Resources Commission",
    "state": "North Carolina",
    "county": "Hertford County",
    "latitude": 36.380385723,
    "longitude": -76.8876209181,
    "accessName": "Tunis",
    "riverName": "Catherine Creek",
    "type": "Public",
    "otherName": "Sarem Creek-Chowan River"
  },
  {
    "department": "North Carolina Wildlife Resources Commission",
    "state": "North Carolina",
    "county": "Edgecombe County",
    "latitude": 35.7902805441,
    "longitude": -77.5489909497,
    "accessName": "Old Sparta",
    "riverName": "Tar River",
    "type": "Public",
    "otherName": "Town of Falkland-Tar River"
  },
  {
    "department": "North Carolina Wildlife Resources Commission",
    "state": "North Carolina",
    "county": "Bertie County",
    "latitude": 35.9842573347,
    "longitude": -76.9402756215,
    "accessName": "Windsor",
    "riverName": "Cashie River",
    "type": "Public",
    "otherName": "Town of Windsor-Cashie River"
  },
  {
    "department": "North Carolina Wildlife Resources Commission",
    "state": "North Carolina",
    "county": "Washington County",
    "latitude": 35.8667161617,
    "longitude": -76.7530928102,
    "accessName": "Water Street Landing",
    "riverName": "Roanoke River",
    "type": "Public",
    "otherName": "Town of Plymouth-Roanoke River"
  },
  {
    "department": "North Carolina Wildlife Resources Commission",
    "state": "North Carolina",
    "county": "Martin County",
    "latitude": 35.8600240842,
    "longitude": -77.0411136843,
    "accessName": "Williamston",
    "riverName": "Roanoke River",
    "type": "Public",
    "otherName": "City of Williamston-Roanoke River"
  },
  {
    "department": "North Carolina Wildlife Resources Commission",
    "state": "North Carolina",
    "county": "Rowan County",
    "latitude": 35.6087646474,
    "longitude": -80.3084359057,
    "accessName": "Dutch Second",
    "riverName": "Second Creek Arm Of High Rock Lake",
    "type": "Public",
    "otherName": "Second Creek-High Rock Lake"
  },
  {
    "department": "North Carolina Wildlife Resources Commission",
    "state": "North Carolina",
    "county": "Rowan County",
    "latitude": 35.5496706619,
    "longitude": -80.2120248378,
    "accessName": "Flat Creek",
    "riverName": "Yadkin River (Tuckertown Lake)",
    "type": "Public",
    "otherName": "Tuckertown Reservoir-Yadkin River"
  },
  {
    "department": "North Carolina Wildlife Resources Commission",
    "state": "North Carolina",
    "county": "Montgomery County",
    "latitude": 35.2311631283,
    "longitude": -80.0621654498,
    "accessName": "Lillys Bridge",
    "riverName": "Pee Dee River (Lake Tillery)",
    "type": "Public",
    "otherName": "Pee Dee River-Lake Tillery"
  },
  {
    "department": "North Carolina Wildlife Resources Commission",
    "state": "North Carolina",
    "county": "Stanly County",
    "latitude": 35.2463189419,
    "longitude": -80.1148651294,
    "accessName": "Norwood",
    "riverName": "Pee Dee River (Lake Tillery)",
    "type": "Public",
    "otherName": "Pee Dee River-Lake Tillery"
  },
  {
    "department": "North Carolina Wildlife Resources Commission",
    "state": "North Carolina",
    "county": "Anson County",
    "latitude": 34.9877985148,
    "longitude": -79.8911170678,
    "accessName": "Pee Dee",
    "riverName": "Pee Dee River (Blewett Falls Lake)",
    "type": "Public",
    "otherName": "Pee Dee River-Blewett Falls Lake"
  },
  {
    "department": "North Carolina Wildlife Resources Commission",
    "state": "North Carolina",
    "county": "Anson County",
    "latitude": 35.0846013931,
    "longitude": -79.9986401354,
    "accessName": "Red Hill",
    "riverName": "Pee Dee River",
    "type": "Public",
    "otherName": "Dry Creek-Pee Dee River"
  },
  {
    "department": "North Carolina Wildlife Resources Commission",
    "state": "North Carolina",
    "county": "Richmond County",
    "latitude": 34.9456675597,
    "longitude": -79.8690743121,
    "accessName": "Rockingham",
    "riverName": "Pee Dee River",
    "type": "Public",
    "otherName": "Island Creek-Pee Dee River"
  },
  {
    "department": "North Carolina Wildlife Resources Commission",
    "state": "North Carolina",
    "county": "Stanly County",
    "latitude": 35.2928000936,
    "longitude": -80.0961377573,
    "accessName": "Stony Mountain",
    "riverName": "Pee Dee River (Lake Tillery)",
    "type": "Public",
    "otherName": "Pee Dee River-Lake Tillery"
  },
  {
    "department": "North Carolina Wildlife Resources Commission",
    "state": "North Carolina",
    "county": "Montgomery County",
    "latitude": 35.3057834154,
    "longitude": -80.0741869839,
    "accessName": "Swift Island",
    "riverName": "Pee Dee River (Lake Tillery)",
    "type": "Public",
    "otherName": "Pee Dee River-Lake Tillery"
  },
  {
    "department": "North Carolina Wildlife Resources Commission",
    "state": "North Carolina",
    "county": "Montgomery County",
    "latitude": 35.2959678252,
    "longitude": -79.8850242675,
    "accessName": "Troy",
    "riverName": "Little River",
    "type": "Public",
    "otherName": "Eury Dam-Little River"
  },
  {
    "department": "North Carolina Wildlife Resources Commission",
    "state": "North Carolina",
    "county": "Polk County",
    "latitude": 35.3369751419,
    "longitude": -82.2307091211,
    "accessName": "Lake Adger",
    "riverName": "Green River (Lake Adger)",
    "type": "Public",
    "otherName": "Lake Adger-Green River"
  },
  {
    "department": "North Carolina Wildlife Resources Commission",
    "state": "North Carolina",
    "county": "Hyde County",
    "latitude": 35.4022228695,
    "longitude": -76.3274125612,
    "accessName": "Swan Quarter",
    "riverName": "Unnamed Canal (Swanquarter Bay)",
    "type": "Public",
    "otherName": "Town of SwanQuarter-SwanQuarter Bay"
  },
  {
    "department": "North Carolina Wildlife Resources Commission",
    "state": "North Carolina",
    "county": "Martin County",
    "latitude": 35.8219476309,
    "longitude": -76.9028572288,
    "accessName": "Astoria Landing",
    "riverName": "Roanoke River",
    "type": "Public",
    "otherName": "Broad Creek-Roanoke River"
  },
  {
    "department": "North Carolina Wildlife Resources Commission",
    "state": "North Carolina",
    "county": "Swain County",
    "latitude": 35.4509922242,
    "longitude": -83.8190610847,
    "accessName": "Lewellyn Branch",
    "riverName": "Little Tennessee River (Cheoah Lake)",
    "type": "Public",
    "otherName": "Lake Cheoah-Little Tennessee River"
  },
  {
    "department": "North Carolina Wildlife Resources Commission",
    "state": "North Carolina",
    "county": "Currituck County",
    "latitude": 36.5298599585,
    "longitude": -76.1700003077,
    "accessName": "Shingle Landing",
    "riverName": "Moyock Run",
    "type": "Public",
    "otherName": "Moyock Run"
  },
  {
    "department": "North Carolina Wildlife Resources Commission",
    "state": "North Carolina",
    "county": "Hyde County",
    "latitude": 35.4570138532,
    "longitude": -76.1749003521,
    "accessName": "Lake Mattamuskeet",
    "riverName": "Outfall Canal",
    "type": "Public",
    "otherName": "Lake Mattamuskeet"
  },
  {
    "department": "North Carolina Wildlife Resources Commission",
    "state": "North Carolina",
    "county": "Carteret County",
    "latitude": 34.725512965,
    "longitude": -76.6631761021,
    "accessName": "West Beaufort",
    "riverName": "Town Creek",
    "type": "Public",
    "otherName": "Newport Marshes-Lower Newport River"
  },
  {
    "department": "North Carolina Wildlife Resources Commission",
    "state": "North Carolina",
    "county": "Cumberland County",
    "latitude": 35.2281765279,
    "longitude": -78.6478070121,
    "accessName": "Rhodes Pond",
    "riverName": "Unnamed",
    "type": "Public",
    "otherName": "Lower Black River"
  },
  {
    "department": "North Carolina Wildlife Resources Commission",
    "state": "North Carolina",
    "county": "Dare County",
    "latitude": 35.9102935179,
    "longitude": -75.7715225676,
    "accessName": "Manns Harbor",
    "riverName": "Croatan Sound",
    "type": "Public",
    "otherName": "Spencer Creek-Callaghan Creek"
  },
  {
    "department": "North Carolina Wildlife Resources Commission",
    "state": "North Carolina",
    "county": "Onslow County",
    "latitude": 34.5643872123,
    "longitude": -77.3823030536,
    "accessName": "Sneads Ferry",
    "riverName": "New River",
    "type": "Public",
    "otherName": "Holover Creek-New River Inlet"
  },
  {
    "department": "North Carolina Wildlife Resources Commission",
    "state": "North Carolina",
    "county": "Pender County",
    "latitude": 34.4063251735,
    "longitude": -77.606033633,
    "accessName": "Hampstead",
    "riverName": "Topsail Sound",
    "type": "Public",
    "otherName": "Beckys Creek-New Topsail Inlet"
  },
  {
    "department": "North Carolina Wildlife Resources Commission",
    "state": "North Carolina",
    "county": "New Hanover County",
    "latitude": 34.1560084075,
    "longitude": -77.8570001289,
    "accessName": "Trails End",
    "riverName": "Masonboro Sound Orw Area",
    "type": "Public",
    "otherName": "Masonboro Inlet-Mason Inlet"
  },
  {
    "department": "North Carolina Wildlife Resources Commission",
    "state": "North Carolina",
    "county": "Carteret County",
    "latitude": 34.6714345245,
    "longitude": -77.0057307255,
    "accessName": "Emerald Isle",
    "riverName": "Bogue Sound (Intracoastal Waterway)",
    "type": "Public",
    "otherName": "Bogue Banks-Bogue Sound"
  },
  {
    "department": "North Carolina Wildlife Resources Commission",
    "state": "North Carolina",
    "county": "Surry County",
    "latitude": 36.2417451943,
    "longitude": -80.8474085072,
    "accessName": "Crater Park",
    "riverName": "Yadkin River",
    "type": "Public",
    "otherName": "Sandyberry Creek-Yadkin River"
  },
  {
    "department": "North Carolina Wildlife Resources Commission",
    "state": "North Carolina",
    "county": "Jackson County",
    "latitude": 35.3637726044,
    "longitude": -83.2468900703,
    "accessName": "C J Harris",
    "riverName": "Tuckasegee River",
    "type": "Public",
    "otherName": "Mill Creek-Tuckasegee River"
  },
  {
    "department": "North Carolina Wildlife Resources Commission",
    "state": "North Carolina",
    "county": "Beaufort County",
    "latitude": 35.4075127584,
    "longitude": -76.9628677196,
    "accessName": "Blounts Creek",
    "riverName": "Blounts Creek",
    "type": "Public",
    "otherName": "Outlet Blounts Creek"
  },
  {
    "department": "North Carolina Wildlife Resources Commission",
    "state": "North Carolina",
    "county": "New Hanover County",
    "latitude": 34.227499293,
    "longitude": -77.9503205679,
    "accessName": "Castle Street",
    "riverName": "Northeast Cape Fear River",
    "type": "Public",
    "otherName": "Brunswick River-Cape Fear River"
  },
  {
    "department": "North Carolina Wildlife Resources Commission",
    "state": "North Carolina",
    "county": "Person County",
    "latitude": 36.5163964548,
    "longitude": -79.026371366,
    "accessName": "Hyco Afterbay",
    "riverName": "Hyco River (Hyco Lake)",
    "type": "Public",
    "otherName": "After Bay Reservoir-Hyco River"
  },
  {
    "department": "North Carolina Wildlife Resources Commission",
    "state": "North Carolina",
    "county": "Beaufort County",
    "latitude": 35.536687009,
    "longitude": -77.0393043664,
    "accessName": "Havens Garden",
    "riverName": "Runyon Creek",
    "type": "Public",
    "otherName": "Herring Run-Runyon Creek"
  },
  {
    "department": "North Carolina Wildlife Resources Commission",
    "state": "North Carolina",
    "county": "Greene County",
    "latitude": 35.4256802591,
    "longitude": -77.5913510695,
    "accessName": "Hookerton",
    "riverName": "Contentnea Creek",
    "type": "Public",
    "otherName": "Rainbow Creek-Contentnea Creek"
  },
  {
    "department": "North Carolina Wildlife Resources Commission",
    "state": "North Carolina",
    "county": "Henderson County",
    "latitude": 35.4219534616,
    "longitude": -82.5419089829,
    "accessName": "Westfeldt Park",
    "riverName": "French Broad River",
    "type": "Public",
    "otherName": "Avery Creek-French Broad River"
  },
  {
    "department": "North Carolina Wildlife Resources Commission",
    "state": "North Carolina",
    "county": "Brunswick County",
    "latitude": 33.8823251366,
    "longitude": -78.5110580289,
    "accessName": "Sunset Beach",
    "riverName": "Intracoastal Waterway",
    "type": "Public",
    "otherName": "Lower Little River-Atlantic Intracoastal Waterway"
  },
  {
    "department": "North Carolina Wildlife Resources Commission",
    "state": "North Carolina",
    "county": "Brunswick County",
    "latitude": 33.9049866735,
    "longitude": -78.3938184572,
    "accessName": "Bricklanding Road",
    "riverName": "Intracoastal Waterway",
    "type": "Public",
    "otherName": "Lower Shallotte River"
  },
  {
    "department": "North Carolina Wildlife Resources Commission",
    "state": "North Carolina",
    "county": "Craven County",
    "latitude": 35.3136601168,
    "longitude": -77.3028173277,
    "accessName": "Maple Cypress",
    "riverName": "Neuse River",
    "type": "Public",
    "otherName": "Halfmoon Creek-Neuse River"
  },
  {
    "department": "North Carolina Wildlife Resources Commission",
    "state": "North Carolina",
    "county": "Onslow County",
    "latitude": 34.7523128731,
    "longitude": -77.4354430072,
    "accessName": "Jacksonville Landing",
    "riverName": "New River",
    "type": "Public",
    "otherName": "Wilson Bay-New River"
  },
  {
    "department": "North Carolina Wildlife Resources Commission",
    "state": "North Carolina",
    "county": "Lenoir County",
    "latitude": 35.2575419345,
    "longitude": -77.5905962757,
    "accessName": "Kinston",
    "riverName": "Neuse River",
    "type": "Public",
    "otherName": "Yadkin Branch-Neuse River"
  },
  {
    "department": "North Carolina Wildlife Resources Commission",
    "state": "North Carolina",
    "county": "Transylvania County",
    "latitude": 35.2695017346,
    "longitude": -82.6363542463,
    "accessName": "Penrose",
    "riverName": "French Broad River",
    "type": "Public",
    "otherName": "Lyday Creek-French Broad River"
  },
  {
    "department": "North Carolina Wildlife Resources Commission",
    "state": "North Carolina",
    "county": "Jackson County",
    "latitude": 35.4327475557,
    "longitude": -83.3604497458,
    "accessName": "Whittier",
    "riverName": "Tuckasegee River",
    "type": "Public",
    "otherName": "Connlley Creek-Tuckasegee River"
  },
  {
    "department": "North Carolina Wildlife Resources Commission",
    "state": "North Carolina",
    "county": "Richmond County",
    "latitude": 34.8659574009,
    "longitude": -79.8792787323,
    "accessName": "Diggs",
    "riverName": "Pee Dee River",
    "type": "Public",
    "otherName": "Island Creek-Pee Dee River"
  },
  {
    "department": "North Carolina Wildlife Resources Commission",
    "state": "North Carolina",
    "county": "Robeson County",
    "latitude": 34.4429348302,
    "longitude": -78.9606113234,
    "accessName": "Boardman",
    "riverName": "Lumber River",
    "type": "Public",
    "otherName": "Flowers Swamp-Lumber River"
  },
  {
    "department": "North Carolina Wildlife Resources Commission",
    "state": "North Carolina",
    "county": "Jackson County",
    "latitude": 35.3890798319,
    "longitude": -83.2952511649,
    "accessName": "Barkers Creek",
    "riverName": "Tuckasegee River",
    "type": "Public",
    "otherName": "Connlley Creek-Tuckasegee River"
  },
  {
    "department": "North Carolina Wildlife Resources Commission",
    "state": "North Carolina",
    "county": "Macon County",
    "latitude": 35.1897393004,
    "longitude": -83.3784653289,
    "accessName": "Lake Emory",
    "riverName": "Little Tennessee River",
    "type": "Public",
    "otherName": "Lake Emory-Little Tennessee River"
  },
  {
    "department": "North Carolina Wildlife Resources Commission",
    "state": "North Carolina",
    "county": "Bertie County",
    "latitude": 36.0975664753,
    "longitude": -77.250044194,
    "accessName": "Lewiston Woodville",
    "riverName": "Roanoke River",
    "type": "Public",
    "otherName": "Blue Hole Swamp-Roanoke River"
  },
  {
    "department": "North Carolina Wildlife Resources Commission",
    "state": "North Carolina",
    "county": "Beaufort County",
    "latitude": 35.4144237181,
    "longitude": -76.5917477506,
    "accessName": "Wrights Creek",
    "riverName": "Wrights Creek",
    "type": "Public",
    "otherName": "Pungo River"
  },
  {
    "department": "North Carolina Wildlife Resources Commission",
    "state": "North Carolina",
    "county": "Pamlico County",
    "latitude": 35.1859273968,
    "longitude": -76.664389208,
    "accessName": "Vandemere",
    "riverName": "Long Pond Creek",
    "type": "Public",
    "otherName": "Lower Bay River"
  },
  {
    "department": "North Carolina Wildlife Resources Commission",
    "state": "North Carolina",
    "county": "Columbus County",
    "latitude": 34.3140846213,
    "longitude": -79.0371221829,
    "accessName": "Fair Bluff",
    "riverName": "Lumber River",
    "type": "Public",
    "otherName": "Flowers Swamp-Lumber River"
  },
  {
    "department": "North Carolina Wildlife Resources Commission",
    "state": "North Carolina",
    "county": "Henderson County",
    "latitude": 35.3288942972,
    "longitude": -82.5753542132,
    "accessName": "Horse Shoe",
    "riverName": "French Broad River",
    "type": "Public",
    "otherName": "Shaw Creek-French Broad River"
  },
  {
    "department": "North Carolina Wildlife Resources Commission",
    "state": "North Carolina",
    "county": "Perquimans County",
    "latitude": 36.1779485524,
    "longitude": -76.4501307268,
    "accessName": "Hertford",
    "riverName": "Perquimans River",
    "type": "Public",
    "otherName": "Sutton Creek-Middle Perquimmans River"
  },
  {
    "department": "North Carolina Wildlife Resources Commission",
    "state": "North Carolina",
    "county": "Buncombe County",
    "latitude": 35.5892832365,
    "longitude": -82.5710904221,
    "accessName": "Craven Street Bridge",
    "riverName": "French Broad River",
    "type": "Public",
    "otherName": "Beaverdam Creek-French Broad River"
  },
  {
    "department": "North Carolina Wildlife Resources Commission",
    "state": "North Carolina",
    "county": "Johnston County",
    "latitude": 35.5147252363,
    "longitude": -78.3480191905,
    "accessName": "Smithfield",
    "riverName": "Neuse River",
    "type": "Public",
    "otherName": "Buffalo Creek-Neuse River"
  },
  {
    "department": "North Carolina Wildlife Resources Commission",
    "state": "North Carolina",
    "county": "Bladen County",
    "latitude": 34.403287383,
    "longitude": -78.2934077053,
    "accessName": "Lock And Dam #1",
    "riverName": "Cape Fear River",
    "type": "Public",
    "otherName": "Mitchell Landing-Cape Fear River"
  },
  {
    "department": "North Carolina Wildlife Resources Commission",
    "state": "North Carolina",
    "county": "Bladen County",
    "latitude": 34.6251827868,
    "longitude": -78.574603453,
    "accessName": "Lock And Dam #2",
    "riverName": "Cape Fear River",
    "type": "Public",
    "otherName": "White Lake-Cape Fear River"
  },
  {
    "department": "North Carolina Wildlife Resources Commission",
    "state": "North Carolina",
    "county": "Bladen County",
    "latitude": 34.8340373643,
    "longitude": -78.8238052434,
    "accessName": "William O Huske Lock And Dam",
    "riverName": "Cape Fear River",
    "type": "Public",
    "otherName": "Phillips Creek-Cape Fear River"
  },
  {
    "department": "North Carolina Wildlife Resources Commission",
    "state": "North Carolina",
    "county": "Montgomery County",
    "latitude": 35.201789802,
    "longitude": -80.0607186131,
    "accessName": "Clarks Creek",
    "riverName": "Pee Dee River",
    "type": "Public",
    "otherName": "Clarks Creek"
  },
  {
    "department": "North Carolina Wildlife Resources Commission",
    "state": "North Carolina",
    "county": "Gaston County",
    "latitude": 35.3856861349,
    "longitude": -80.9848516547,
    "accessName": "Lucia",
    "riverName": "Johnson Creek",
    "type": "Public",
    "otherName": "Mountain Island Lake"
  },
  {
    "department": "North Carolina Wildlife Resources Commission",
    "state": "North Carolina",
    "county": "Lincoln County",
    "latitude": 35.4273848222,
    "longitude": -80.9576696996,
    "accessName": "Highwy 73",
    "riverName": "Catawba River (Mountain Island Lake)",
    "type": "Public",
    "otherName": "Mountain Island Lake"
  },
  {
    "department": "North Carolina Wildlife Resources Commission",
    "state": "North Carolina",
    "county": "Nash County",
    "latitude": 35.952671694,
    "longitude": -77.8180140081,
    "accessName": "Sunset Park",
    "riverName": "Tar River",
    "type": "Public",
    "otherName": "Maple Creek-Tar River"
  },
  {
    "department": "North Carolina Wildlife Resources Commission",
    "state": "North Carolina",
    "county": "Yadkin County",
    "latitude": 36.2156164224,
    "longitude": -80.4343319189,
    "accessName": "Donnaha Park",
    "riverName": "Yadkin River",
    "type": "Public",
    "otherName": "Bashavia Creek-Yadkin River"
  },
  {
    "department": "U.S. Geological Survey",
    "state": "North Carolina",
    "county": "Mecklenburg County",
    "latitude": 35.468649453,
    "longitude": -80.9339440991,
    "accessName": "Safe Harbor Peninsula Yacht Club",
    "riverName": "Catawba River (Lake Norman)",
    "type": "Public",
    "otherName": "Catawba River-Lake Norman"
  },
  {
    "department": "U.S. Geological Survey",
    "state": "North Carolina",
    "county": "Mecklenburg County",
    "latitude": 35.4642244636,
    "longitude": -80.9004826606,
    "accessName": "Ramsey Creek Park",
    "riverName": "Catawba River (Lake Norman)",
    "type": "Public",
    "otherName": "Catawba River-Lake Norman"
  },
  {
    "department": "U.S. Geological Survey",
    "state": "North Carolina",
    "county": "Mecklenburg County",
    "latitude": 35.3422214403,
    "longitude": -80.9781789758,
    "accessName": "Mt. Isle Harbor Drive",
    "riverName": "Catawba River (Mountain Island Lake)",
    "type": "Public",
    "otherName": "Mountain Island Lake"
  },
  {
    "department": "U.S. Geological Survey",
    "state": "North Carolina",
    "county": "Currituck County",
    "latitude": 36.0939143697,
    "longitude": -75.7975176732,
    "accessName": "Sound Park",
    "riverName": "Currituck Sound",
    "type": "Public",
    "otherName": "Dowdy Bay-Currituck Sound"
  },
  {
    "department": "U.S. Geological Survey",
    "state": "North Carolina",
    "county": "Pasquotank County",
    "latitude": 36.2963527937,
    "longitude": -76.217803371,
    "accessName": "Waterfront Park",
    "riverName": "Pasquotank River",
    "type": "Public",
    "otherName": "Elizabeth City-Pasquotank River"
  },
  {
    "department": "U.S. Geological Survey",
    "state": "North Carolina",
    "county": "Dare County",
    "latitude": 36.0644175593,
    "longitude": -75.7232457422,
    "accessName": "Bob Perry Boat Ramp",
    "riverName": "Kitty Hawk Bay",
    "type": "Public",
    "otherName": "Town of Kill Devil Hills-Kitty Hawk Bay"
  },
  {
    "department": "U.S. Geological Survey",
    "state": "North Carolina",
    "county": "Dare County",
    "latitude": 36.0195827647,
    "longitude": -75.725293353,
    "accessName": "Crawford Boat Ramp",
    "riverName": "Kitty Hawk Bay",
    "type": "Public",
    "otherName": "Albemarle Sound-Croatan Sound"
  },
  {
    "department": "U.S. Geological Survey",
    "state": "North Carolina",
    "county": "Tyrrell County",
    "latitude": 35.9060717544,
    "longitude": -76.0296684327,
    "accessName": "Alligator River Boat Ramp",
    "riverName": "Alligator River",
    "type": "Public",
    "otherName": "Alligator River"
  },
  {
    "department": "U.S. Geological Survey",
    "state": "North Carolina",
    "county": "Dare County",
    "latitude": 35.9109659138,
    "longitude": -75.6693891441,
    "accessName": "Manteo Waterfront Public Boat Ramp",
    "riverName": "Shallowbag Bay",
    "type": "Public",
    "otherName": "Buzzard Bay-Roanoke Sound"
  },
  {
    "department": "U.S. Geological Survey",
    "state": "North Carolina",
    "county": "Dare County",
    "latitude": 35.7967039789,
    "longitude": -75.5489269946,
    "accessName": "Oregon Inlet Boat Ramp",
    "riverName": "Oregon Inlet",
    "type": "Public",
    "otherName": "Pamlico Sound-Oregon Inlet"
  },
  {
    "department": "U.S. Geological Survey",
    "state": "North Carolina",
    "county": "Carteret County",
    "latitude": 34.9510710431,
    "longitude": -76.2810822038,
    "accessName": "Cedar Island National Refuge Boat Ramp",
    "riverName": "Neuse River (Core Sound)",
    "type": "Public",
    "otherName": "Core Banks-Drum Inlet"
  },
  {
    "department": "U.S. Geological Survey",
    "state": "North Carolina",
    "county": "Carteret County",
    "latitude": 34.7034878107,
    "longitude": -76.8020404697,
    "accessName": "McNeil Park",
    "riverName": "Bogue Sound",
    "type": "Public",
    "otherName": "Morehead City-Drum Shoals"
  },
  {
    "department": "U.S. Geological Survey",
    "state": "North Carolina",
    "county": "Onslow County",
    "latitude": 34.7439483072,
    "longitude": -77.3535555507,
    "accessName": "Northeast Creek Park boat ramp",
    "riverName": "New River",
    "type": "Public",
    "otherName": "Northeast Creek"
  },
  {
    "department": "U.S. Geological Survey",
    "state": "North Carolina",
    "county": "Onslow County",
    "latitude": 34.5958748562,
    "longitude": -77.2477836749,
    "accessName": "Freeman Creek Boat Launch",
    "riverName": "Freeman Creek",
    "type": "Public",
    "otherName": "Bear Creek-Bear Inlet"
  },
  {
    "department": "U.S. Geological Survey",
    "state": "North Carolina",
    "county": "Onslow County",
    "latitude": 34.5736983496,
    "longitude": -77.271639391,
    "accessName": "Onslow Beach Boat Ramp",
    "riverName": "Freeman Creek",
    "type": "Public",
    "otherName": "Bear Creek-Bear Inlet"
  },
  {
    "department": "U.S. Geological Survey",
    "state": "North Carolina",
    "county": "Brunswick County",
    "latitude": 33.9205719057,
    "longitude": -78.1071674237,
    "accessName": "NE 55th St Municipal Boat Ramp",
    "riverName": "Intracoastal Waterway",
    "type": "Public",
    "otherName": "Jump and Run Creek-Gully Creek"
  },
  {
    "department": "U.S. Geological Survey",
    "state": "North Carolina",
    "county": "Stanly County",
    "latitude": 35.3797609223,
    "longitude": -80.0613200684,
    "accessName": "Morrow Mountain Boat Launch",
    "riverName": "Pee Dee River",
    "type": "Public",
    "otherName": "Wood Run-Lake Tillery"
  },
  {
    "department": "U.S. Geological Survey",
    "state": "North Carolina",
    "county": "Montgomery County",
    "latitude": 35.4922557254,
    "longitude": -80.1425059174,
    "accessName": "Gar Creek Boat Launch",
    "riverName": "Gar Creek",
    "type": "Public",
    "otherName": "Beaverdam Creek-Yadkin River"
  },
  {
    "department": "U.S. Geological Survey",
    "state": "North Carolina",
    "county": "Stanly County",
    "latitude": 35.5023113008,
    "longitude": -80.1915104068,
    "accessName": "Tuckertown Reservoir Boat Ramp",
    "riverName": "Pee Dee River (Tuckertown Reservoir)",
    "type": "Public",
    "otherName": "Tuckertown Reservoir-Yadkin River"
  },
  {
    "department": "U.S. Geological Survey",
    "state": "North Carolina",
    "county": "Davidson County",
    "latitude": 35.6469884905,
    "longitude": -80.2602154636,
    "accessName": "Southmount Abbotts Creek Boat Access",
    "riverName": "Pee Dee River (High Rock Lake)",
    "type": "Public",
    "otherName": "High Rock Lake-Abbotts Creek"
  },
  {
    "department": "U.S. Geological Survey",
    "state": "North Carolina",
    "county": "Davidson County",
    "latitude": 35.7242127456,
    "longitude": -80.3909646123,
    "accessName": "York Hill Yadkin River Access",
    "riverName": "Yadkin River",
    "type": "Public",
    "otherName": "Deals Creek-Yadkin River"
  },
  {
    "department": "U.S. Geological Survey",
    "state": "North Carolina",
    "county": "Rowan County",
    "latitude": 35.7470557904,
    "longitude": -80.4610922536,
    "accessName": "Hannah Ferry Rd boat ramp",
    "riverName": "South Yadkin River",
    "type": "Public",
    "otherName": "Beaverdam Branch-South Yadkin River"
  },
  {
    "department": "U.S. Geological Survey",
    "state": "North Carolina",
    "county": "Davie County",
    "latitude": 35.7784267256,
    "longitude": -80.5067268207,
    "accessName": "Highway 601 Boat Access",
    "riverName": "South Yadkin River",
    "type": "Public",
    "otherName": "Beaverdam Branch-South Yadkin River"
  },
  {
    "department": "U.S. Geological Survey",
    "state": "North Carolina",
    "county": "Mecklenburg County",
    "latitude": 35.1073802286,
    "longitude": -81.0256525149,
    "accessName": "Copperhead Island Boat Launch",
    "riverName": "Catawba River",
    "type": "Public",
    "otherName": "Mill Creek-Lake Wylie"
  },
  {
    "department": "U.S. Geological Survey",
    "state": "North Carolina",
    "county": "Gaston County",
    "latitude": 35.2984048048,
    "longitude": -81.0044225021,
    "accessName": "Mt Holly Boat Landing",
    "riverName": "Catawba River",
    "type": "Public",
    "otherName": "Fites Creek-Catawba River"
  },
  {
    "department": "U.S. Geological Survey",
    "state": "North Carolina",
    "county": "Mecklenburg County",
    "latitude": 35.4357928995,
    "longitude": -80.9074296523,
    "accessName": "Blythe Landing Park",
    "riverName": "Catawba River (Lake Norman)",
    "type": "Public",
    "otherName": "Catawba River-Lake Norman"
  },
  {
    "department": "U.S. Geological Survey",
    "state": "North Carolina",
    "county": "Iredell County",
    "latitude": 35.6257133444,
    "longitude": -80.9028142338,
    "accessName": "Stumpy Creek Boat Landing",
    "riverName": "Catawba River (Lake Norman)",
    "type": "Public",
    "otherName": "Stumpy Creek-Lake Norman"
  },
  {
    "department": "U.S. Geological Survey",
    "state": "North Carolina",
    "county": "Iredell County",
    "latitude": 35.6544117941,
    "longitude": -80.9385020707,
    "accessName": "Lake Norman State Park Boat Ramp",
    "riverName": "Catawba River (Lake Norman)",
    "type": "Public",
    "otherName": "Stumpy Creek-Lake Norman"
  },
  {
    "department": "U.S. Geological Survey",
    "state": "North Carolina",
    "county": "Burke County",
    "latitude": 35.7394430081,
    "longitude": -81.8864281257,
    "accessName": "Canal Bridge Boat Ramp\n\np",
    "riverName": "Lake James",
    "type": "Public",
    "otherName": "Lake James-Catawba River"
  },
  {
    "department": "U.S. Geological Survey",
    "state": "North Carolina",
    "county": "McDowell County",
    "latitude": 35.7302080225,
    "longitude": -81.8911115255,
    "accessName": "Hidden Cove Public Boat Access",
    "riverName": "Lake James",
    "type": "Public",
    "otherName": "Lake James-Catawba River"
  },
  {
    "department": "U.S. Geological Survey",
    "state": "North Carolina",
    "county": "Yadkin County",
    "latitude": 36.1336139451,
    "longitude": -80.7438367871,
    "accessName": "Yadkin Memorial Park",
    "riverName": "South Deep Creek",
    "type": "Public",
    "otherName": "Headwaters South Deep Creek"
  },
  {
    "department": "U.S. Geological Survey",
    "state": "North Carolina",
    "county": "Wilkes County",
    "latitude": 36.2158846527,
    "longitude": -80.9371657671,
    "accessName": "Ronda Yadkin River Access",
    "riverName": "Yadkin River",
    "type": "Public",
    "otherName": "Grays Creek-Yadkin River"
  },
  {
    "department": "U.S. Geological Survey",
    "state": "North Carolina",
    "county": "Wilkes County",
    "latitude": 36.1300859072,
    "longitude": -81.228969043,
    "accessName": "Unnamed Ramp",
    "riverName": "Yadkin River (W. Kerr Scott Reservoir)",
    "type": "Public",
    "otherName": "Community of Ferguson-W Kerr Scott Reservoir"
  },
  {
    "department": "U.S. Geological Survey",
    "state": "North Carolina",
    "county": "Wilkes County",
    "latitude": 36.1241393063,
    "longitude": -81.2515438635,
    "accessName": "Unnamed Ramp",
    "riverName": "Yadkin River (W. Kerr Scott Reservoir)",
    "type": "Public",
    "otherName": "Community of Ferguson-W Kerr Scott Reservoir"
  },
  {
    "department": "U.S. Geological Survey",
    "state": "North Carolina",
    "county": "Wilkes County",
    "latitude": 36.1258188362,
    "longitude": -81.262104263,
    "accessName": "Smithey's Creek Park",
    "riverName": "Yadkin River (W. Kerr Scott Reservoir)",
    "type": "Public",
    "otherName": "Community of Ferguson-W Kerr Scott Reservoir"
  },
  {
    "department": "U.S. Geological Survey",
    "state": "North Carolina",
    "county": "Wilkes County",
    "latitude": 36.1033183126,
    "longitude": -81.2838477987,
    "accessName": "Unnamed Ramp",
    "riverName": "Yadkin River (W. Kerr Scott Reservoir)",
    "type": "Public",
    "otherName": "Warrior Creek"
  },
  {
    "department": "U.S. Geological Survey",
    "state": "North Carolina",
    "county": "Rutherford County",
    "latitude": 35.4592846216,
    "longitude": -82.1892637561,
    "accessName": "Lake Lyre Boat Ramp",
    "riverName": "Lake Lyre",
    "type": "Public",
    "otherName": "Lake Lure-Broad River"
  },
  {
    "department": "U.S. Geological Survey",
    "state": "North Carolina",
    "county": "Rutherford County",
    "latitude": 35.4342643977,
    "longitude": -82.2301277346,
    "accessName": "Lake Lure / Washburn Marina",
    "riverName": "Lake Lure",
    "type": "Public",
    "otherName": "Lake Lure-Broad River"
  },
  {
    "department": "U.S. Geological Survey",
    "state": "North Carolina",
    "county": "Cherokee County",
    "latitude": 35.0847808268,
    "longitude": -84.0367817081,
    "accessName": "Hiwassee Street Boat Ramp",
    "riverName": "Hiwassee River",
    "type": "Public",
    "otherName": "Grape Creek-Hiwassee Lake"
  },
  {
    "department": "U.S. Geological Survey",
    "state": "North Carolina",
    "county": "Cherokee County",
    "latitude": 35.0944864743,
    "longitude": -84.0407254208,
    "accessName": "Payne Street Boat Ramp",
    "riverName": "Hiwassee River",
    "type": "Public",
    "otherName": "Grape Creek-Hiwassee Lake"
  },
  {
    "department": "U.S. Geological Survey",
    "state": "North Carolina",
    "county": "Cherokee County",
    "latitude": 35.1191638977,
    "longitude": -84.1680851294,
    "accessName": "Hiwassee - Mickens Br",
    "riverName": "Hiwassee River",
    "type": "Public",
    "otherName": "Hiwassee Lake-Hiwassee River"
  },
  {
    "department": "U.S. Geological Survey",
    "state": "North Carolina",
    "county": "Macon County",
    "latitude": 35.2888201943,
    "longitude": -83.4914505763,
    "accessName": "Unnamed Ramp",
    "riverName": "Little Tennessee River",
    "type": "Public",
    "otherName": "Tellico Creek-Little Tennessee River"
  },
  {
    "department": "U.S. Geological Survey",
    "state": "North Carolina",
    "county": "Swain County",
    "latitude": 35.3070228846,
    "longitude": -83.5222010893,
    "accessName": "Unnamed Ramp",
    "riverName": "Little Tennessee River",
    "type": "Public",
    "otherName": "Brush Creek-Little Tennessee River"
  },
  {
    "department": "U.S. Geological Survey",
    "state": "North Carolina",
    "county": "Swain County",
    "latitude": 35.3276864183,
    "longitude": -83.5138090934,
    "accessName": "Unnamed Ramp",
    "riverName": "Little Tennesse RIver",
    "type": "Public",
    "otherName": "Brush Creek-Little Tennessee River"
  },
  {
    "department": "U.S. Geological Survey",
    "state": "North Carolina",
    "county": "Swain County",
    "latitude": 35.4554166309,
    "longitude": -83.9467324575,
    "accessName": "Magazine Branch Boat Ramp",
    "riverName": "Cheoah River",
    "type": "Public",
    "otherName": "Chilhowee Lake-Little Tennessee River"
  },