[
  {
    "department": "Rhode Island Blueways/Rhode Island Land Trust Council",
    "state": "Rhode Island",
    "county": "Bristol County",
    "latitude": 41.753124,
    "longitude": -71.321432,
    "accessName": "Barrington River",
    "riverName": "Barrington River",
    "type": "Public",
    "otherName": "Barrington River-Warren River"
  },
  {
    "department": "Rhode Island Blueways/Rhode Island Land Trust Council",
    "state": "Rhode Island",
    "county": "Providence County",
    "latitude": 41.75378,
    "longitude": -71.35272,
    "accessName": "Haines Memorial Park - Bullock Cove",
    "riverName": "Providence River",
    "type": "Public",
    "otherName": "Seekonk River-Providence River"
  },
  {
    "department": "Rhode Island Blueways/Rhode Island Land Trust Council",
    "state": "Rhode Island",
    "county": "Bristol County",
    "latitude": 41.73545,
    "longitude": -71.325307,
    "accessName": "Veterans Memorial Park",
    "riverName": "Brickyard Pond",
    "type": "Public",
    "otherName": "Seekonk River-Providence River"
  },
  {
    "department": "Rhode Island Blueways/Rhode Island Land Trust Council",
    "state": "Rhode Island",
    "county": "Bristol County",
    "latitude": 41.685471,
    "longitude": -71.295255,
    "accessName": "Colt State Park",
    "riverName": "Narragansett Bay",
    "type": "Public",
    "otherName": "Upper Narragansett Bay"
  },
  {
    "department": "Rhode Island Blueways/Rhode Island Land Trust Council",
    "state": "Rhode Island",
    "county": "Bristol County",
    "latitude": 41.68806,
    "longitude": -71.24252,
    "accessName": "Annawamscutt Drive",
    "riverName": "Mount Hope Bay",
    "type": "Public",
    "otherName": "Mount Hope Bay"
  },
  {
    "department": "Rhode Island Blueways/Rhode Island Land Trust Council",
    "state": "Rhode Island",
    "county": "Bristol County",
    "latitude": 41.696877,
    "longitude": -71.24642,
    "accessName": "Bristol Narrows - Wayposset Preserve",
    "riverName": "Kickamuit River-Bristol Narrows",
    "type": "Public",
    "otherName": "Mount Hope Bay"
  },
  {
    "department": "Rhode Island Blueways/Rhode Island Land Trust Council",
    "state": "Rhode Island",
    "county": "Bristol County",
    "latitude": 41.674233,
    "longitude": -71.279557,
    "accessName": "Independence Park",
    "riverName": "Narragansett Bay-Bristol Harbor",
    "type": "Public",
    "otherName": "Upper East Passage"
  },
  {
    "department": "Rhode Island Blueways/Rhode Island Land Trust Council",
    "state": "Rhode Island",
    "county": "Bristol County",
    "latitude": 41.67,
    "longitude": -71.2784,
    "accessName": "State Street Pier",
    "riverName": "Narragansett Bay-Bristol Harbor",
    "type": "Public",
    "otherName": "Upper East Passage"
  },
  {
    "department": "Rhode Island Blueways/Rhode Island Land Trust Council",
    "state": "Rhode Island",
    "county": "Providence County",
    "latitude": 41.97091,
    "longitude": -71.678804,
    "accessName": "Harrisville Pond (North End)",
    "riverName": "Harrisville Pond",
    "type": "Public",
    "otherName": "Clear River"
  },
  {
    "department": "Rhode Island Blueways/Rhode Island Land Trust Council",
    "state": "Rhode Island",
    "county": "Providence County",
    "latitude": 41.97885,
    "longitude": -71.6651,
    "accessName": "Spring Lake",
    "riverName": "Spring Lake",
    "type": "Public",
    "otherName": "Clear River"
  },
  {
    "department": "Rhode Island Blueways/Rhode Island Land Trust Council",
    "state": "Rhode Island",
    "county": "Providence County",
    "latitude": 41.95185,
    "longitude": -71.704,
    "accessName": "Union Pond",
    "riverName": "Union Pond",
    "type": "Public",
    "otherName": "Clear River"
  },
  {
    "department": "Rhode Island Blueways/Rhode Island Land Trust Council",
    "state": "Rhode Island",
    "county": "Providence County",
    "latitude": 41.9662,
    "longitude": -71.788521,
    "accessName": "Wakefield Pond",
    "riverName": "Wakefield Pond",
    "type": "Public",
    "otherName": "Upper Fivemile River"
  },
  {
    "department": "Rhode Island Blueways/Rhode Island Land Trust Council",
    "state": "Rhode Island",
    "county": "Providence County",
    "latitude": 41.970064,
    "longitude": -71.723324,
    "accessName": "Wilson Reservoir",
    "riverName": "Wilson Reservoir",
    "type": "Public",
    "otherName": "Clear River"
  },
  {
    "department": "Rhode Island Blueways/Rhode Island Land Trust Council",
    "state": "Rhode Island",
    "county": "Washington County",
    "latitude": 41.44512,
    "longitude": -71.68122,
    "accessName": "John (Jay) Cronan River Access",
    "riverName": "Pawcatuck River",
    "type": "Public",
    "otherName": "Tomaquag Brook-Pawcatuck River"
  },
  {
    "department": "Rhode Island Blueways/Rhode Island Land Trust Council",
    "state": "Rhode Island",
    "county": "Washington County",
    "latitude": 41.378676,
    "longitude": -71.679865,
    "accessName": "Watchaug Pond",
    "riverName": "Watchaug Pond",
    "type": "Public",
    "otherName": "Tomaquag Brook-Pawcatuck River"
  },
  {
    "department": "Rhode Island Blueways/Rhode Island Land Trust Council",
    "state": "Rhode Island",
    "county": "Washington County",
    "latitude": 41.363681,
    "longitude": -71.626701,
    "accessName": "Charlestown (Town Beach)",
    "riverName": "Ninigret Pond",
    "type": "Public",
    "otherName": "Ninigret Pond-Frontal Block Island Sound"
  },
  {
    "department": "Rhode Island Blueways/Rhode Island Land Trust Council",
    "state": "Rhode Island",
    "county": "Washington County",
    "latitude": 41.35874,
    "longitude": -71.638402,
    "accessName": "Charlestown Breachway",
    "riverName": "Ninigret Pond",
    "type": "Public",
    "otherName": "Ninigret Pond-Frontal Block Island Sound"
  },
  {
    "department": "Rhode Island Blueways/Rhode Island Land Trust Council",
    "state": "Rhode Island",
    "county": "Washington County",
    "latitude": 41.336514,
    "longitude": -71.722254,
    "accessName": "Quonochontaug Breachway",
    "riverName": "Quonochontaug Pond",
    "type": "Public",
    "otherName": "Ninigret Pond-Frontal Block Island Sound"
  },
  {
    "department": "Rhode Island Blueways/Rhode Island Land Trust Council",
    "state": "Rhode Island",
    "county": "Washington County",
    "latitude": 41.38083,
    "longitude": -71.644008,
    "accessName": "Ocean House Marina",
    "riverName": "Ninigret Pond",
    "type": "Semi-Private",
    "otherName": "Ninigret Pond-Frontal Block Island Sound"
  },
  {
    "department": "Rhode Island Blueways/Rhode Island Land Trust Council",
    "state": "Rhode Island",
    "county": "Washington County",
    "latitude": 41.38158,
    "longitude": -71.6979,
    "accessName": "Burlingame State Park Campground",
    "riverName": "Watchaug Pond",
    "type": "Public",
    "otherName": "Tomaquag Brook-Pawcatuck River"
  },
  {
    "department": "Rhode Island Blueways/Rhode Island Land Trust Council",
    "state": "Rhode Island",
    "county": "Kent County",
    "latitude": 41.665254,
    "longitude": -71.618931,
    "accessName": "Zeke's Bridge Fishing Access",
    "riverName": "Big River",
    "type": "Public",
    "otherName": "Headwaters South Branch Pawtuxet River"
  },
  {
    "department": "Rhode Island Blueways/Rhode Island Land Trust Council",
    "state": "Rhode Island",
    "county": "Kent County",
    "latitude": 41.69738,
    "longitude": -71.77004,
    "accessName": "Carbuncle Pond",
    "riverName": "Carbuncle Pond",
    "type": "Public",
    "otherName": "Upper Moosup River"
  },
  {
    "department": "Rhode Island Blueways/Rhode Island Land Trust Council",
    "state": "Rhode Island",
    "county": "Providence County",
    "latitude": 41.750737,
    "longitude": -71.551201,
    "accessName": "John L Curran Fishing Access",
    "riverName": "Curran Upper Reservoir",
    "type": "Public",
    "otherName": "North Branch Pawtuxet River"
  },
  {
    "department": "Rhode Island Blueways/Rhode Island Land Trust Council",
    "state": "Rhode Island",
    "county": "Providence County",
    "latitude": 41.76786,
    "longitude": -71.38864,
    "accessName": "Stillhouse Cove",
    "riverName": "Providence River",
    "type": "Public",
    "otherName": "Seekonk River-Providence River"
  },
  {
    "department": "Rhode Island Blueways/Rhode Island Land Trust Council",
    "state": "Rhode Island",
    "county": "Providence County",
    "latitude": 41.76513,
    "longitude": -71.3891,
    "accessName": "Aborn Street - Pawtuxet Cove",
    "riverName": "Providence River",
    "type": "Public",
    "otherName": "Seekonk River-Providence River"
  },
  {
    "department": "Rhode Island Blueways/Rhode Island Land Trust Council",
    "state": "Rhode Island",
    "county": "Kent County",
    "latitude": 41.656644,
    "longitude": -71.448656,
    "accessName": "East Greenwich Municipal",
    "riverName": "Greenwich Bay-Greenwich Cove",
    "type": "Public",
    "otherName": "Greenwich Bay"
  },
  {
    "department": "Rhode Island Blueways/Rhode Island Land Trust Council",
    "state": "Rhode Island",
    "county": "Providence County",
    "latitude": 41.76608,
    "longitude": -71.36877,
    "accessName": "Sabin Point",
    "riverName": "Providence River",
    "type": "Public",
    "otherName": "Seekonk River-Providence River"
  },
  {
    "department": "Rhode Island Blueways/Rhode Island Land Trust Council",
    "state": "Rhode Island",
    "county": "Providence County",
    "latitude": 41.81546,
    "longitude": -71.39051,
    "accessName": "Bold Point Park",
    "riverName": "Providence River-Providence Harbor",
    "type": "Public",
    "otherName": "Seekonk River-Providence River"
  },
  {
    "department": "Rhode Island Blueways/Rhode Island Land Trust Council",
    "state": "Rhode Island",
    "county": "Providence County",
    "latitude": 41.83343,
    "longitude": -71.75215,
    "accessName": "Shippee Sawmill Pond",
    "riverName": "Shippee Sawmill Pond",
    "type": "Public",
    "otherName": "Barden Reservoir-Ponaganset River"
  },
  {
    "department": "Rhode Island Blueways/Rhode Island Land Trust Council",
    "state": "Rhode Island",
    "county": "Providence County",
    "latitude": 41.923506,
    "longitude": -71.758507,
    "accessName": "Bowdish Reservoir",
    "riverName": "Bowdish Reservoir",
    "type": "Public",
    "otherName": "Upper Fivemile River"
  },
  {
    "department": "Rhode Island Blueways/Rhode Island Land Trust Council",
    "state": "Rhode Island",
    "county": "Providence County",
    "latitude": 41.924494,
    "longitude": -71.787911,
    "accessName": "Clarkville Pond",
    "riverName": "Clarkville Pond",
    "type": "Public",
    "otherName": "Upper Fivemile River"
  },
  {
    "department": "Rhode Island Blueways/Rhode Island Land Trust Council",
    "state": "Rhode Island",
    "county": "Providence County",
    "latitude": 41.927352,
    "longitude": -71.717897,
    "accessName": "Pascoag Reservoir",
    "riverName": "Pascoag Reservoir",
    "type": "Public",
    "otherName": "Clear River"
  },
  {
    "department": "Rhode Island Blueways/Rhode Island Land Trust Council",
    "state": "Rhode Island",
    "county": "Providence County",
    "latitude": 41.8757,
    "longitude": -71.69064,
    "accessName": "Keech Pond",
    "riverName": "Keech Pond",
    "type": "Public",
    "otherName": "Chepachet River"
  },
  {
    "department": "Rhode Island Blueways/Rhode Island Land Trust Council",
    "state": "Rhode Island",
    "county": "Providence County",
    "latitude": 41.89695,
    "longitude": -71.67771,
    "accessName": "Smith and Sayles Reservoir",
    "riverName": "Smith and Sayles Reservoir",
    "type": "Public",
    "otherName": "Chepachet River"
  },
  {
    "department": "Rhode Island Blueways/Rhode Island Land Trust Council",
    "state": "Rhode Island",
    "county": "Washington County",
    "latitude": 41.438107,
    "longitude": -71.722411,
    "accessName": "Alton Pond Landing",
    "riverName": "Alton Pond",
    "type": "Public",
    "otherName": "Lower Wood River"
  },
  {
    "department": "Rhode Island Blueways/Rhode Island Land Trust Council",
    "state": "Rhode Island",
    "county": "Washington County",
    "latitude": 41.40643,
    "longitude": -71.74803,
    "accessName": "Bradford Landing",
    "riverName": "Pawcatuck River",
    "type": "Public",
    "otherName": "Tomaquag Brook-Pawcatuck River"
  },
  {
    "department": "Rhode Island Blueways/Rhode Island Land Trust Council",
    "state": "Rhode Island",
    "county": "Washington County",
    "latitude": 41.51565,
    "longitude": -71.7172,
    "accessName": "Locustville Pond",
    "riverName": "Locustville Pond",
    "type": "Public",
    "otherName": "Lower Wood River"
  },
  {
    "department": "Rhode Island Blueways/Rhode Island Land Trust Council",
    "state": "Rhode Island",
    "county": "Newport County",
    "latitude": 41.493051,
    "longitude": -71.396933,
    "accessName": "Fort Getty",
    "riverName": "Narragansett Bay West",
    "type": "Public",
    "otherName": "Lower West Passage"
  },
  {
    "department": "Rhode Island Blueways/Rhode Island Land Trust Council",
    "state": "Rhode Island",
    "county": "Newport County",
    "latitude": 41.479192,
    "longitude": -71.360807,
    "accessName": "Fort Wetherill",
    "riverName": "Narragansett Bay East",
    "type": "Public",
    "otherName": "Lower East Passage"
  },
  {
    "department": "Rhode Island Blueways/Rhode Island Land Trust Council",
    "state": "Rhode Island",
    "county": "Providence County",
    "latitude": 41.88938,
    "longitude": -71.4282,
    "accessName": "Lincoln Woods",
    "riverName": "Olney Pond",
    "type": "Public",
    "otherName": "Moshassuck River"
  },
  {
    "department": "Rhode Island Blueways/Rhode Island Land Trust Council",
    "state": "Rhode Island",
    "county": "Newport County",
    "latitude": 41.46373,
    "longitude": -71.1934,
    "accessName": "Sakonnet Harbor",
    "riverName": "Sakonnet River",
    "type": "Public",
    "otherName": "Sakonnet River"
  },
  {
    "department": "Rhode Island Blueways/Rhode Island Land Trust Council",
    "state": "Rhode Island",
    "county": "Newport County",
    "latitude": 41.48674,
    "longitude": -71.2461,
    "accessName": "Third Beach",
    "riverName": "Sakonnet River",
    "type": "Public",
    "otherName": "Sakonnet River"
  },
  {
    "department": "Rhode Island Blueways/Rhode Island Land Trust Council",
    "state": "Rhode Island",
    "county": "Washington County",
    "latitude": 41.38324,
    "longitude": -71.50745,
    "accessName": "Galilee",
    "riverName": "Point Judith Pond",
    "type": "Public",
    "otherName": "N/A"
  },
  {
    "department": "Rhode Island Blueways/Rhode Island Land Trust Council",
    "state": "Rhode Island",
    "county": "Washington County",
    "latitude": 41.42212,
    "longitude": -71.45544,
    "accessName": "State Pier #5",
    "riverName": "Rhode Island Sound",
    "type": "Public",
    "otherName": "Pettaquamscutt River-Frontal Atlantic Ocean"
  },
  {
    "department": "Rhode Island Blueways/Rhode Island Land Trust Council",
    "state": "Rhode Island",
    "county": "Washington County",
    "latitude": 41.467035,
    "longitude": -71.450237,
    "accessName": "Pollock Avenue",
    "riverName": "Pettaquamscutt River",
    "type": "Public",
    "otherName": "Pettaquamscutt River-Frontal Atlantic Ocean"
  },
  {
    "department": "Rhode Island Blueways/Rhode Island Land Trust Council",
    "state": "Rhode Island",
    "county": "Washington County",
    "latitude": 41.180653,
    "longitude": -71.573237,
    "accessName": "Indian Head Neck Road",
    "riverName": "Trims Pond",
    "type": "Public",
    "otherName": "Block Island"
  },
  {
    "department": "Rhode Island Blueways/Rhode Island Land Trust Council",
    "state": "Rhode Island",
    "county": "Newport County",
    "latitude": 41.470816,
    "longitude": -71.336778,
    "accessName": "Fort Adams",
    "riverName": "Newport Harbor-Brenton Cove",
    "type": "Public",
    "otherName": "Lower East Passage"
  },
  {
    "department": "Rhode Island Blueways/Rhode Island Land Trust Council",
    "state": "Rhode Island",
    "county": "Newport County",
    "latitude": 41.476043,
    "longitude": -71.323211,
    "accessName": "King Park",
    "riverName": "Newport Harbor",
    "type": "Public",
    "otherName": "Lower East Passage"
  },
  {
    "department": "Rhode Island Blueways/Rhode Island Land Trust Council",
    "state": "Rhode Island",
    "county": "Newport County",
    "latitude": 41.49265,
    "longitude": -71.32133,
    "accessName": "Washington Street",
    "riverName": "Narragansett Bay East",
    "type": "Public",
    "otherName": "Lower East Passage"
  },
  {
    "department": "Rhode Island Blueways/Rhode Island Land Trust Council",
    "state": "Rhode Island",
    "county": "Washington County",
    "latitude": 41.57801,
    "longitude": -71.45249,
    "accessName": "Wilson Park",
    "riverName": "Wickford Harbor",
    "type": "Public",
    "otherName": "Lower West Passage"
  },
  {
    "department": "Rhode Island Blueways/Rhode Island Land Trust Council",
    "state": "Rhode Island",
    "county": "Washington County",
    "latitude": 41.620409,
    "longitude": -71.411924,
    "accessName": "Allen Harbor",
    "riverName": "Allen Harbor",
    "type": "Public",
    "otherName": "Upper West Passage"
  },
  {
    "department": "Rhode Island Blueways/Rhode Island Land Trust Council",
    "state": "Rhode Island",
    "county": "Washington County",
    "latitude": 41.56047,
    "longitude": -71.47571,
    "accessName": "Belleville Pond",
    "riverName": "Belleville Pond",
    "type": "Public",
    "otherName": "Lower West Passage"
  },
  {
    "department": "Rhode Island Blueways/Rhode Island Land Trust Council",
    "state": "Rhode Island",
    "county": "Washington County",
    "latitude": 41.576724,
    "longitude": -71.447784,
    "accessName": "Pleasant Street Municipal",
    "riverName": "Wickford Harbor",
    "type": "Public",
    "otherName": "Lower West Passage"
  },
  {
    "department": "Rhode Island Blueways/Rhode Island Land Trust Council",
    "state": "Rhode Island",
    "county": "Providence County",
    "latitude": 41.98705,
    "longitude": -71.60058,
    "accessName": "Slatersville Reservoir (Upper)",
    "riverName": "Slatersville Reservoir",
    "type": "Public",
    "otherName": "Branch River"
  },
  {
    "department": "Rhode Island Blueways/Rhode Island Land Trust Council",
    "state": "Rhode Island",
    "county": "Providence County",
    "latitude": 41.872025,
    "longitude": -71.384343,
    "accessName": "Pawtucket Town Landing",
    "riverName": "Seekonk River",
    "type": "Public",
    "otherName": "Seekonk River-Providence River"
  },
  {
    "department": "Rhode Island Blueways/Rhode Island Land Trust Council",
    "state": "Rhode Island",
    "county": "Providence County",
    "latitude": 41.86948,
    "longitude": -71.3803,
    "accessName": "School Street Pier/Festival Pier",
    "riverName": "Seekonk River",
    "type": "Public",
    "otherName": "Seekonk River-Providence River"
  },
  {
    "department": "Rhode Island Blueways/Rhode Island Land Trust Council",
    "state": "Rhode Island",
    "county": "Newport County",
    "latitude": 41.633564,
    "longitude": -71.23072,
    "accessName": "Gull Cove State",
    "riverName": "Sakonnet River-The Cove",
    "type": "Public",
    "otherName": "Sakonnet River"
  },
  {
    "department": "Rhode Island Blueways/Rhode Island Land Trust Council",
    "state": "Rhode Island",
    "county": "Newport County",
    "latitude": 41.62588,
    "longitude": -71.21963,
    "accessName": "Stone Bridge",
    "riverName": "Sakonnet River",
    "type": "Public",
    "otherName": "Sakonnet River"
  },
  {
    "department": "Rhode Island Blueways/Rhode Island Land Trust Council",
    "state": "Rhode Island",
    "county": "Newport County",
    "latitude": 41.57378,
    "longitude": -71.2878,
    "accessName": "Weaver Cove",
    "riverName": "Narragansett Bay East",
    "type": "Public",
    "otherName": "Upper East Passage"
  },
  {
    "department": "Rhode Island Blueways/Rhode Island Land Trust Council",
    "state": "Rhode Island",
    "county": "Providence County",
    "latitude": 41.81208,
    "longitude": -71.40178,
    "accessName": "Collier Point Park",
    "riverName": "Providence River-Providence Harbor",
    "type": "Public",
    "otherName": "Seekonk River-Providence River"
  },
  {
    "department": "Rhode Island Blueways/Rhode Island Land Trust Council",
    "state": "Rhode Island",
    "county": "Providence County",
    "latitude": 41.822077,
    "longitude": -71.388693,
    "accessName": "Gano Park",
    "riverName": "Seekonk River",
    "type": "Public",
    "otherName": "Seekonk River-Providence River"
  },
  {
    "department": "Rhode Island Blueways/Rhode Island Land Trust Council",
    "state": "Rhode Island",
    "county": "Washington County",
    "latitude": 41.43851,
    "longitude": -71.69021,
    "accessName": "Meadow Brook Pond",
    "riverName": "Meadow Brook Pond",
    "type": "Public",
    "otherName": "Tomaquag Brook-Pawcatuck River"
  },
  {
    "department": "Rhode Island Blueways/Rhode Island Land Trust Council",
    "state": "Rhode Island",
    "county": "Washington County",
    "latitude": 41.515739,
    "longitude": -71.702598,
    "accessName": "Wyoming Dam Fishing Access",
    "riverName": "Wyoming Pond",
    "type": "Public",
    "otherName": "Upper Wood River"
  },
  {
    "department": "Rhode Island Blueways/Rhode Island Land Trust Council",
    "state": "Rhode Island",
    "county": "Providence County",
    "latitude": 41.731066,
    "longitude": -71.565375,
    "accessName": "Hope Dam",
    "riverName": "North Branch Pawtuxet River",
    "type": "Public",
    "otherName": "North Branch Pawtuxet River"
  },
  {
    "department": "Rhode Island Blueways/Rhode Island Land Trust Council",
    "state": "Rhode Island",
    "county": "Providence County",
    "latitude": 41.900786,
    "longitude": -71.546307,
    "accessName": "Stillwater Reservoir",
    "riverName": "Woonasquatucket River",
    "type": "Public",
    "otherName": "Woonasquatucket River"
  },
  {
    "department": "Rhode Island Blueways/Rhode Island Land Trust Council",
    "state": "Rhode Island",
    "county": "Providence County",
    "latitude": 41.88942,
    "longitude": -71.508143,
    "accessName": "Georgiaville Town Beach",
    "riverName": "Georgiaville Pond",
    "type": "Public",
    "otherName": "Woonasquatucket River"
  },
  {
    "department": "Rhode Island Blueways/Rhode Island Land Trust Council",
    "state": "Rhode Island",
    "county": "Washington County",
    "latitude": 41.42768,
    "longitude": -71.496548,
    "accessName": "Marina Park",
    "riverName": "Upper Pond",
    "type": "Public",
    "otherName": "Point Judith Pond-Frontal Block Island Sound"
  },
  {
    "department": "Rhode Island Blueways/Rhode Island Land Trust Council",
    "state": "Rhode Island",
    "county": "Washington County",
    "latitude": 41.385841,
    "longitude": -71.51952,
    "accessName": "Gooseberry Road Town",
    "riverName": "Point Judith Pond",
    "type": "Public",
    "otherName": "Point Judith Pond-Frontal Block Island Sound"
  },
  {
    "department": "Rhode Island Blueways/Rhode Island Land Trust Council",
    "state": "Rhode Island",
    "county": "Washington County",
    "latitude": 41.499134,
    "longitude": -71.564381,
    "accessName": "Barber Pond",
    "riverName": "Barber Pond",
    "type": "Public",
    "otherName": "Usquepaug River-Pawcatuck River"
  },
  {
    "department": "Rhode Island Blueways/Rhode Island Land Trust Council",
    "state": "Rhode Island",
    "county": "Washington County",
    "latitude": 41.474079,
    "longitude": -71.469441,
    "accessName": "Indian Lake",
    "riverName": "Indian Lake",
    "type": "Public",
    "otherName": "Saugatucket River"
  },
  {
    "department": "Rhode Island Blueways/Rhode Island Land Trust Council",
    "state": "Rhode Island",
    "county": "Washington County",
    "latitude": 41.42256,
    "longitude": -71.50308,
    "accessName": "Billington Cove Yacht Club",
    "riverName": "Point Judith Pond",
    "type": "Semi-Private",
    "otherName": "Point Judith Pond-Frontal Block Island Sound"
  },
  {
    "department": "Rhode Island Blueways/Rhode Island Land Trust Council",
    "state": "Rhode Island",
    "county": "Washington County",
    "latitude": 41.426107,
    "longitude": -71.549061,
    "accessName": "Tucker Pond",
    "riverName": "Tucker Pond",
    "type": "Public",
    "otherName": "Chipuxet River-Pawcatuck River"
  },
  {
    "department": "Rhode Island Blueways/Rhode Island Land Trust Council",
    "state": "Rhode Island",
    "county": "Washington County",
    "latitude": 41.429473,
    "longitude": -71.567829,
    "accessName": "Worden Pond",
    "riverName": "Worden Pond",
    "type": "Public",
    "otherName": "Chipuxet River-Pawcatuck River"
  },
  {
    "department": "Rhode Island Blueways/Rhode Island Land Trust Council",
    "state": "Rhode Island",
    "county": "Newport County",
    "latitude": 41.554904,
    "longitude": -71.213535,
    "accessName": "Fogland",
    "riverName": "Sakonnet River",
    "type": "Public",
    "otherName": "Sakonnet River"
  },
  {
    "department": "Rhode Island Blueways/Rhode Island Land Trust Council",
    "state": "Rhode Island",
    "county": "Newport County",
    "latitude": 41.63363,
    "longitude": -71.148776,
    "accessName": "Stafford Pond",
    "riverName": "Stafford Pond",
    "type": "Public",
    "otherName": "Quequechan River"
  },
  {
    "department": "Rhode Island Blueways/Rhode Island Land Trust Council",
    "state": "Rhode Island",
    "county": "Bristol County",
    "latitude": 41.726352,
    "longitude": -71.285684,
    "accessName": "Warren Town Dock",
    "riverName": "Warren River",
    "type": "Public",
    "otherName": "Barrington River-Warren River"
  },
  {
    "department": "Rhode Island Blueways/Rhode Island Land Trust Council",
    "state": "Rhode Island",
    "county": "Kent County",
    "latitude": 41.748631,
    "longitude": -71.383011,
    "accessName": "Gaspee Point Drive",
    "riverName": "Providence River",
    "type": "Public",
    "otherName": "Seekonk River-Providence River"
  },
  {
    "department": "Rhode Island Blueways/Rhode Island Land Trust Council",
    "state": "Rhode Island",
    "county": "Kent County",
    "latitude": 41.685028,
    "longitude": -71.39336,
    "accessName": "Oakland Beach",
    "riverName": "Greenwich Bay",
    "type": "Public",
    "otherName": "Greenwich Bay"
  },
  {
    "department": "Rhode Island Blueways/Rhode Island Land Trust Council",
    "state": "Rhode Island",
    "county": "Kent County",
    "latitude": 41.65429,
    "longitude": -71.44419,
    "accessName": "Goddard State Park",
    "riverName": "Greenwich Bay-Greenwich Cove",
    "type": "Public",
    "otherName": "Greenwich Bay"
  },
  {
    "department": "Rhode Island Blueways/Rhode Island Land Trust Council",
    "state": "Rhode Island",
    "county": "Kent County",
    "latitude": 41.703413,
    "longitude": -71.459428,
    "accessName": "Gorton Pond",
    "riverName": "Gorton Pond",
    "type": "Public",
    "otherName": "Greenwich Bay"
  },
  {
    "department": "Rhode Island Blueways/Rhode Island Land Trust Council",
    "state": "Rhode Island",
    "county": "Kent County",
    "latitude": 41.70385,
    "longitude": -71.365,
    "accessName": "Longmeadow",
    "riverName": "Narragansett Bay",
    "type": "Public",
    "otherName": "Upper Narragansett Bay"
  },
  {
    "department": "Rhode Island Blueways/Rhode Island Land Trust Council",
    "state": "Rhode Island",
    "county": "Kent County",
    "latitude": 41.761879,
    "longitude": -71.388514,
    "accessName": "Pawtuxet Village Park",
    "riverName": "Providence River",
    "type": "Public",
    "otherName": "Seekonk River-Providence River"
  },
  {
    "department": "Rhode Island Blueways/Rhode Island Land Trust Council",
    "state": "Rhode Island",
    "county": "Kent County",
    "latitude": 41.630936,
    "longitude": -71.453823,
    "accessName": "Potowomut Pond",
    "riverName": "Potowomut Pond",
    "type": "Public",
    "otherName": "Hunt River"
  },
  {
    "department": "Rhode Island Blueways/Rhode Island Land Trust Council",
    "state": "Rhode Island",
    "county": "Kent County",
    "latitude": 41.69622,
    "longitude": -71.45436,
    "accessName": "Apponaug Cove",
    "riverName": "Greenwich Bay-Apponaug Cove",
    "type": "Public",
    "otherName": "Greenwich Bay"
  },
  {
    "department": "Rhode Island Blueways/Rhode Island Land Trust Council",
    "state": "Rhode Island",
    "county": "Kent County",
    "latitude": 41.717332,
    "longitude": -71.35984,
    "accessName": "Conimicut Point Park",
    "riverName": "Providence River",
    "type": "Public",
    "otherName": "Seekonk River-Providence River"
  },
  {
    "department": "Rhode Island Blueways/Rhode Island Land Trust Council",
    "state": "Rhode Island",
    "county": "Washington County",
    "latitude": 41.381857,
    "longitude": -71.800378,
    "accessName": "Chapman Pond",
    "riverName": "Chapman Pond",
    "type": "Public",
    "otherName": "Tomaquag Brook-Pawcatuck River"
  },
  {
    "department": "Rhode Island Blueways/Rhode Island Land Trust Council",
    "state": "Rhode Island",
    "county": "Washington County",
    "latitude": 41.375,
    "longitude": -71.83214,
    "accessName": "Westerley Municipal",
    "riverName": "Pawcatuck River",
    "type": "Public",
    "otherName": "Lower Pawcatuck River"
  },
  {
    "department": "U.S. Geological Survey",
    "state": "Rhode Island",
    "county": "Washington County",
    "latitude": 41.385301,
    "longitude": -71.525494,
    "accessName": "Matunuck Marina",
    "riverName": "Potters Pond",
    "type": "Semi-Private",
    "otherName": "Point Judith Pond-Frontal Block Island Sound"
  },
  {
    "department": "U.S. Geological Survey",
    "state": "Rhode Island",
    "county": "Washington County",
    "latitude": 41.426811,
    "longitude": -71.497569,
    "accessName": "Ram Point Marina",
    "riverName": "Upper Pond",
    "type": "Semi-Private",
    "otherName": "Point Judith Pond-Frontal Block Island Sound"
  },
  {
    "department": "U.S. Geological Survey",
    "state": "Rhode Island",
    "county": "Washington County",
    "latitude": 41.428609,
    "longitude": -71.493892,
    "accessName": "Stone Cove Marina",
    "riverName": "Upper Pond",
    "type": "Semi-Private",
    "otherName": "Point Judith Pond-Frontal Block Island Sound"
  },
  {
    "department": "U.S. Geological Survey",
    "state": "Rhode Island",
    "county": "Kent County",
    "latitude": 41.696147,
    "longitude": -71.453006,
    "accessName": "Marina",
    "riverName": "Greenwich Bay-Apponaug Cove",
    "type": "Semi-Private",
    "otherName": "Greenwich Bay"
  },
  {
    "department": "U.S. Geological Survey",
    "state": "Rhode Island",
    "county": "Newport County",
    "latitude": 41.464991,
    "longitude": -71.196212,
    "accessName": "Breakwater Point",
    "riverName": "Sakonnet River",
    "type": "Public",
    "otherName": "Sakonnet River"
  },
  {
    "department": "U.S. Geological Survey",
    "state": "Rhode Island",
    "county": "Washington County",
    "latitude": 41.571937,
    "longitude": -71.444235,
    "accessName": "Marina",
    "riverName": "Wickford Cove",
    "type": "Semi-Private",
    "otherName": "Lower West Passage"
  },
  {
    "department": "U.S. Geological Survey",
    "state": "Rhode Island",
    "county": "Washington County",
    "latitude": 41.618748,
    "longitude": -71.414861,
    "accessName": "MIll Creek Marina",
    "riverName": "Allen Harbor",
    "type": "Semi-Private",
    "otherName": "Upper West Passage"
  },
  {
    "department": "Rhode Island Geographic Information System",
    "state": "Rhode Island",
    "county": "Washington County",
    "latitude": 41.3340485432,
    "longitude": -71.8363379391,
    "accessName": "Lotteryville Marina",
    "riverName": "Pawcatuck River",
    "type": "Semi-Private",
    "otherName": "Lower Pawcatuck River"
  },
  {
    "department": "Rhode Island Geographic Information System",
    "state": "Rhode Island",
    "county": "Washington County",
    "latitude": 41.3852993415,
    "longitude": -71.5255303227,
    "accessName": "Kenport Marina",
    "riverName": "Potter Pond",
    "type": "Semi-Private",
    "otherName": "Point Judith Pond-Frontal Block Island Sound"
  },
  {
    "department": "Rhode Island Geographic Information System",
    "state": "Rhode Island",
    "county": "Washington County",
    "latitude": 41.419860675,
    "longitude": -71.49341978,
    "accessName": "Long Cove Marina",
    "riverName": "Upper Pond",
    "type": "Semi-Private",
    "otherName": "N/A"
  },
  {
    "department": "Rhode Island Geographic Information System",
    "state": "Rhode Island",
    "county": "Kent County",
    "latitude": 41.6640798099,
    "longitude": -71.4452360003,
    "accessName": "Division Street",
    "riverName": "Greenwich Bay-Greenwich Cove",
    "type": "Public",
    "otherName": "Greenwich Bay"
  },
  {
    "department": "Rhode Island Geographic Information System",
    "state": "Rhode Island",
    "county": "Kent County",
    "latitude": 41.6618767137,
    "longitude": -71.4103976636,
    "accessName": "Potowomut Neck",
    "riverName": "Greenwich Bay",
    "type": "Public",
    "otherName": "Upper West Passage"
  },
  {
    "department": "Rhode Island Geographic Information System",
    "state": "Rhode Island",
    "county": "Kent County",
    "latitude": 41.6961107332,
    "longitude": -71.4530166155,
    "accessName": "Ponaug Marina",
    "riverName": "Greenwich Bay-Apponaug Cove",
    "type": "Semi-Private",
    "otherName": "Greenwich Bay"
  },
  {
    "department": "Rhode Island Geographic Information System",
    "state": "Rhode Island",
    "county": "Kent County",
    "latitude": 41.695377393,
    "longitude": -71.366279606,
    "accessName": "HIghland Beach Ogden Avenue Extension",
    "riverName": "Narragansett Bay West",
    "type": "Public",
    "otherName": "Upper Narragansett Bay"
  },
  {
    "department": "Rhode Island Geographic Information System",
    "state": "Rhode Island",
    "county": "Bristol County",
    "latitude": 41.7372666235,
    "longitude": -71.2972430316,
    "accessName": "Barrington Police Station",
    "riverName": "Barrington River",
    "type": "Public",
    "otherName": "Barrington River-Warren River"
  },
  {
    "department": "Rhode Island Geographic Information System",
    "state": "Rhode Island",
    "county": "Bristol County",
    "latitude": 41.7493146052,
    "longitude": -71.3512440528,
    "accessName": "Bay Spring Avenue",
    "riverName": "Providence River-Bullock Cove",
    "type": "Public",
    "otherName": "Seekonk River-Providence River"
  },
  {
    "department": "Rhode Island Geographic Information System",
    "state": "Rhode Island",
    "county": "Bristol County",
    "latitude": 41.7088863597,
    "longitude": -71.2538503905,
    "accessName": "Sherman Avenue",
    "riverName": "Kickamuit River",
    "type": "Public",
    "otherName": "Mount Hope Bay"
  },
  {
    "department": "Rhode Island Geographic Information System",
    "state": "Rhode Island",
    "county": "Bristol County",
    "latitude": 41.7172408663,
    "longitude": -71.2847265793,
    "accessName": "Maple Street",
    "riverName": "Warren River",
    "type": "Public",
    "otherName": "Barrington River-Warren River"
  },
  {
    "department": "Rhode Island Geographic Information System",
    "state": "Rhode Island",
    "county": "Newport County",
    "latitude": 41.4728345626,
    "longitude": -71.3376754624,
    "accessName": "Fort Adams State Park",
    "riverName": "Narragansett Bay East-Brenton Cove",
    "type": "Public",
    "otherName": "Lower East Passage"
  },
  {
    "department": "Rhode Island Geographic Information System",
    "state": "Rhode Island",
    "county": "Kent County",
    "latitude": 41.6599436559,
    "longitude": -71.4449807083,
    "accessName": "Long Steet",
    "riverName": "Greenwich Bay-Greenwich Cove",
    "type": "Public",
    "otherName": "Greenwich Bay"
  },
  {
    "department": "Rhode Island Geographic Information System",
    "state": "Rhode Island",
    "county": "Washington County",
    "latitude": 41.4874916139,
    "longitude": -71.4464780715,
    "accessName": "Pettaquamscutt Avenue",
    "riverName": "Pettaquamscutt River",
    "type": "Public",
    "otherName": "Pettaquamscutt River-Frontal Atlantic Ocean"
  },
  {
    "department": "Rhode Island Geographic Information System",
    "state": "Rhode Island",
    "county": "Newport County",
    "latitude": 41.4939428435,
    "longitude": -71.3212783177,
    "accessName": "Willow Street",
    "riverName": "Narragansett Bay East",
    "type": "Public",
    "otherName": "Lower East Passage"
  },
  {
    "department": "U.S. Geological Survey",
    "state": "Rhode Island",
    "county": "Kent County",
    "latitude": 41.6536368414,
    "longitude": -71.4515729269,
    "accessName": "Rocky Hollow Road Waterfront",
    "riverName": "Greenwich Cove",
    "type": "Public",
    "otherName": "Greenwich Bay"
  },
  {
    "department": "U.S. Geological Survey",
    "state": "Rhode Island",
    "county": "Washington County",
    "latitude": 41.3352699483,
    "longitude": -71.8306024848,
    "accessName": "Grays Boatyard",
    "riverName": "Pawcatuck River",
    "type": "Semi-Private",
    "otherName": "Lower Pawcatuck River"
  },
  {
    "department": "U.S. Geological Survey",
    "state": "Rhode Island",
    "county": "Bristol County",
    "latitude": 41.7351589246,
    "longitude": -71.2906561551,
    "accessName": "Striper Marina",
    "riverName": "Palmer River",
    "type": "Semi-Private",
    "otherName": "Palmer River"
  },
  {
    "department": "U.S. Geological Survey",
    "state": "Rhode Island",
    "county": "Bristol County",
    "latitude": 41.7470901374,
    "longitude": -71.3520264127,
    "accessName": "LIghthouse Marina",
    "riverName": "Providence River",
    "type": "Semi-Private",
    "otherName": "Seekonk River-Providence River"
  },
  {
    "department": "Rhode Island Department of Environmental Management",
    "state": "Rhode Island",
    "county": "Newport County",
    "latitude": 41.6377770134,
    "longitude": -71.2111166128,
    "accessName": "Sakonnet River Bridge",
    "riverName": "Sakonnet River",
    "type": "Public",
    "otherName": "Sakonnet River"
  },
  {
    "department": "Rhode Island Department of Environmental Management",
    "state": "Rhode Island",
    "county": "Newport County",
    "latitude": 41.6197994402,
    "longitude": -71.3052120245,
    "accessName": "Homestead",
    "riverName": "Narragansett Bay East",
    "type": "Public",
    "otherName": "Upper East Passage"
  },
  {
    "department": "Rhode Island Department of Environmental Management",
    "state": "Rhode Island",
    "county": "Kent County",
    "latitude": 41.6851152869,
    "longitude": -71.5494218235,
    "accessName": "Tiogue Lake",
    "riverName": "Tiogue Lake",
    "type": "Public",
    "otherName": "South Branch Pawtuxet River"
  },
  {
    "department": "U.S. Geological Survey",
    "state": "Rhode Island",
    "county": "Newport County",
    "latitude": 41.6428248599,
    "longitude": -71.2174969552,
    "accessName": "Marina",
    "riverName": "Mount Hope Bay",
    "type": "Semi-Private",
    "otherName": "Mount Hope Bay"
  }
]