[
  {
    "department": "U.S. Geological Survey",
    "state": "Utah",
    "county": "Kane County",
    "latitude": 37.005098,
    "longitude": -111.49569,
    "accessName": "Wahweap - 2",
    "riverName": "Colorado River - Lake Powell",
    "type": "Public",
    "otherName": "Wahweap Bay-Lake Powell"
  },
  {
    "department": "State of Utah",
    "state": "Utah",
    "county": "Washington County",
    "latitude": 37.1208242939,
    "longitude": -113.382619179,
    "accessName": "Sand Hollow State Park",
    "riverName": "Sand Hollow Reservoir",
    "type": "Public",
    "otherName": "Cottonwood Wash-Virgin River"
  },
  {
    "department": "State of Utah",
    "state": "Utah",
    "county": "San Juan County",
    "latitude": 37.147139061,
    "longitude": -109.853760506,
    "accessName": "Mexican Hat",
    "riverName": "San Juan River",
    "type": "Public",
    "otherName": "Cedar Point-San Juan River"
  },
  {
    "department": "State of Utah",
    "state": "Utah",
    "county": "Washington County",
    "latitude": 37.187663571,
    "longitude": -113.394041199,
    "accessName": "Quail Creek State Park South",
    "riverName": "Quail Creek - Quail Creek Reservoir",
    "type": "Semi-Private",
    "otherName": "Quail Creek"
  },
  {
    "department": "State of Utah",
    "state": "Utah",
    "county": "Washington County",
    "latitude": 37.192613038,
    "longitude": -113.390794903,
    "accessName": "Quail Creek State Park North",
    "riverName": "Quail Creek - Quail Creek Reservoir",
    "type": "Semi-Private",
    "otherName": "Quail Creek"
  },
  {
    "department": "State of Utah",
    "state": "Utah",
    "county": "San Juan County",
    "latitude": 37.261788502,
    "longitude": -109.612380561,
    "accessName": "Sand Island",
    "riverName": "San Juan River",
    "type": "Public",
    "otherName": "Buck Creek-San Juan River"
  },
  {
    "department": "State of Utah",
    "state": "Utah",
    "county": "Washington County",
    "latitude": 37.2534416163,
    "longitude": -113.774006698,
    "accessName": "Gunlock State Park",
    "riverName": "Santa Clara River - Gunlock Reservoir",
    "type": "Public",
    "otherName": "Manganese Wash-Santa Clara River"
  },
  {
    "department": "State of Utah",
    "state": "Utah",
    "county": "San Juan County",
    "latitude": 37.464420731,
    "longitude": -110.717580882,
    "accessName": "Halls Crossing",
    "riverName": "Colorado River - Lake Powell",
    "type": "Public",
    "otherName": "Bullfrog Bay-Colorado River"
  },
  {
    "department": "State of Utah",
    "state": "Utah",
    "county": "Kane County",
    "latitude": 37.51533527,
    "longitude": -110.730035289,
    "accessName": "Bullfrog Marina (East)",
    "riverName": "Bullfrog Bay - Lake Powell",
    "type": "Public",
    "otherName": "Bullfrog Bay"
  },
  {
    "department": "State of Utah",
    "state": "Utah",
    "county": "Garfield County",
    "latitude": 37.709321135,
    "longitude": -112.636277935,
    "accessName": "Panguitch Lake (South)",
    "riverName": "Panguitch Creek - Panguitch Lake",
    "type": "Semi-Private",
    "otherName": "Ipson Creek"
  },
  {
    "department": "State of Utah",
    "state": "Utah",
    "county": "Garfield County",
    "latitude": 37.7220984802,
    "longitude": -112.627581481,
    "accessName": "Panguitch Lake (North)",
    "riverName": "Panguitch Creek - Panguitch Lake",
    "type": "Public",
    "otherName": "Ipson Creek"
  },
  {
    "department": "State of Utah",
    "state": "Utah",
    "county": "Iron County",
    "latitude": 37.747555429,
    "longitude": -112.777387569,
    "accessName": "Yankee Meadows",
    "riverName": "Bowery Creek - Yankee Meadows Reservoir",
    "type": "Public",
    "otherName": "Center Creek-Parowan Creek"
  },
  {
    "department": "State of Utah",
    "state": "Utah",
    "county": "Garfield County",
    "latitude": 37.786853831,
    "longitude": -111.631959739,
    "accessName": "Wide Hollow Reservoir",
    "riverName": "Wide Hollow Reservoir",
    "type": "Public",
    "otherName": "Wide Hollow Reservoir-Escalante River"
  },
  {
    "department": "State of Utah",
    "state": "Utah",
    "county": "San Juan County",
    "latitude": 37.872658832,
    "longitude": -110.396547123,
    "accessName": "Hite Marina",
    "riverName": "Colorado River - Lake Powell",
    "type": "Public",
    "otherName": "Dirty Devil River-Colorado River"
  },
  {
    "department": "State of Utah",
    "state": "Utah",
    "county": "Garfield County",
    "latitude": 37.937730705,
    "longitude": -111.695745669,
    "accessName": "Posy Lake",
    "riverName": "Posy Lake",
    "type": "Public",
    "otherName": "Lower Pine Creek"
  },
  {
    "department": "State of Utah",
    "state": "Utah",
    "county": "Piute County",
    "latitude": 38.167321719,
    "longitude": -112.017625971,
    "accessName": "Otter Creek State Park",
    "riverName": "Otter Creek - Otter Creek Reservoir",
    "type": "Public",
    "otherName": "Otter Creek Reservoir"
  },
  {
    "department": "State of Utah",
    "state": "Utah",
    "county": "Beaver County",
    "latitude": 38.2184083315,
    "longitude": -112.829621605,
    "accessName": "Minersville Reservoir",
    "riverName": "Beaver River - Minersville Reservoir",
    "type": "Public",
    "otherName": "Minersville Reservoir-Beaver River"
  },
  {
    "department": "State of Utah",
    "state": "Utah",
    "county": "Piute County",
    "latitude": 38.319428111,
    "longitude": -112.19620941,
    "accessName": "Piute State Park",
    "riverName": "Sevier River - Piute Reservoir",
    "type": "Public",
    "otherName": "Piute Reservoir"
  },
  {
    "department": "State of Utah",
    "state": "Utah",
    "county": "Grand County",
    "latitude": 38.505513707,
    "longitude": -109.659225243,
    "accessName": "Potash",
    "riverName": "Colorado River",
    "type": "Semi-Private",
    "otherName": "Bull Canyon-Colorado River"
  },
  {
    "department": "State of Utah",
    "state": "Utah",
    "county": "Sevier County",
    "latitude": 38.5346061543,
    "longitude": -111.736408108,
    "accessName": "Doctor Creek",
    "riverName": "Fish Lake",
    "type": "Public",
    "otherName": "Fish Lake"
  },
  {
    "department": "State of Utah",
    "state": "Utah",
    "county": "Sevier County",
    "latitude": 38.5476432835,
    "longitude": -111.723355883,
    "accessName": "Twin Creek",
    "riverName": "Fish Lake",
    "type": "Public",
    "otherName": "Fish Lake"
  },
  {
    "department": "State of Utah",
    "state": "Utah",
    "county": "Sevier County",
    "latitude": 38.562205587,
    "longitude": -111.706235551,
    "accessName": "Bowery Creek",
    "riverName": "Fish Lake",
    "type": "Public",
    "otherName": "Fish Lake"
  },
  {
    "department": "State of Utah",
    "state": "Utah",
    "county": "Grand County",
    "latitude": 38.5763519115,
    "longitude": -109.634749127,
    "accessName": "Gold Bar",
    "riverName": "Colorado River",
    "type": "Public",
    "otherName": "Little Canyon-Colorado River"
  },
  {
    "department": "State of Utah",
    "state": "Utah",
    "county": "Sevier County",
    "latitude": 38.5949469829,
    "longitude": -111.849279509,
    "accessName": "Koosharem Reservoir Recreation Site",
    "riverName": "Otter Creek - Koosharem Reservoir",
    "type": "Semi-Private",
    "otherName": "Koosharem Reservoir"
  },
  {
    "department": "State of Utah",
    "state": "Utah",
    "county": "Sevier County",
    "latitude": 38.6107204599,
    "longitude": -111.632149719,
    "accessName": "Johnson Reservoir",
    "riverName": "Fremont River - Johnson Reservoir",
    "type": "Public",
    "otherName": "Sevenmile Creek"
  },
  {
    "department": "State of Utah",
    "state": "Utah",
    "county": "Grand County",
    "latitude": 38.6048273404,
    "longitude": -109.573609524,
    "accessName": "Moab Bridge",
    "riverName": "Colorado River",
    "type": "Public",
    "otherName": "Negro Bill Canyon-Colorado River"
  },
  {
    "department": "State of Utah",
    "state": "Utah",
    "county": "Grand County",
    "latitude": 38.648619962,
    "longitude": -109.481874775,
    "accessName": "Big Bend",
    "riverName": "Colorado River",
    "type": "Public",
    "otherName": "Mat Martin Point-Colorado River"
  },
  {
    "department": "State of Utah",
    "state": "Utah",
    "county": "Grand County",
    "latitude": 38.661772616,
    "longitude": -109.500580705,
    "accessName": "Take Out Beach",
    "riverName": "Colorado River",
    "type": "Public",
    "otherName": "Mat Martin Point-Colorado River"
  },
  {
    "department": "State of Utah",
    "state": "Utah",
    "county": "Grand County",
    "latitude": 38.6828986052,
    "longitude": -109.47736359,
    "accessName": "Sandy Beach",
    "riverName": "Colorado River",
    "type": "Public",
    "otherName": "Mat Martin Point-Colorado River"
  },
  {
    "department": "State of Utah",
    "state": "Utah",
    "county": "Grand County",
    "latitude": 38.6958449551,
    "longitude": -109.41300367,
    "accessName": "Ida Gulch (Rocky Rapid)",
    "riverName": "Colorado River",
    "type": "Public",
    "otherName": "Mat Martin Point-Colorado River"
  },
  {
    "department": "State of Utah",
    "state": "Utah",
    "county": "Grand County",
    "latitude": 38.7602151045,
    "longitude": -109.325396804,
    "accessName": "Hittle Bottom",
    "riverName": "Colorado River",
    "type": "Public",
    "otherName": "Yellow Jacket Canyoner-Colorado River"
  },
  {
    "department": "State of Utah",
    "state": "Utah",
    "county": "Grand County",
    "latitude": 38.811177116,
    "longitude": -109.308160635,
    "accessName": "Dewey Bridge",
    "riverName": "Colorado River",
    "type": "Public",
    "otherName": "Yellow Jacket Canyoner-Colorado River"
  },
  {
    "department": "State of Utah",
    "state": "Utah",
    "county": "Emery County",
    "latitude": 38.988844415,
    "longitude": -110.150598229,
    "accessName": "Green River State Park",
    "riverName": "Green River",
    "type": "Public",
    "otherName": "Gunnison Valley-Green River"
  },
  {
    "department": "State of Utah",
    "state": "Utah",
    "county": "Emery County",
    "latitude": 39.0927833654,
    "longitude": -111.192427422,
    "accessName": "Millsite State Park",
    "riverName": "Ferron Creek - Millsite Reservoir",
    "type": "Public",
    "otherName": "Millsite Reservoir-Ferron Creek"
  },
  {
    "department": "State of Utah",
    "state": "Utah",
    "county": "Grand County",
    "latitude": 39.1122563827,
    "longitude": -110.109012395,
    "accessName": "Swaseys",
    "riverName": "Green River",
    "type": "Public",
    "otherName": "Butler Wash-Green River"
  },
  {
    "department": "State of Utah",
    "state": "Utah",
    "county": "Sanpete County",
    "latitude": 39.1400815716,
    "longitude": -111.450271764,
    "accessName": "Ferron Reservoir",
    "riverName": "Ferron Reservoir",
    "type": "Public",
    "otherName": "Ferron Reservoir-Ferron Creek"
  },
  {
    "department": "State of Utah",
    "state": "Utah",
    "county": "Grand County",
    "latitude": 39.1954907372,
    "longitude": -110.077718088,
    "accessName": "Nefertiti",
    "riverName": "Green River",
    "type": "Public",
    "otherName": "Lower Rattlesnake Canyon-Green River"
  },
  {
    "department": "State of Utah",
    "state": "Utah",
    "county": "Sanpete County",
    "latitude": 39.205379137,
    "longitude": -111.665941089,
    "accessName": "Palisade State Park",
    "riverName": "Palisade Reservoir",
    "type": "Public",
    "otherName": "Sixmile Creek"
  },
  {
    "department": "State of Utah",
    "state": "Utah",
    "county": "Emery County",
    "latitude": 39.292042666,
    "longitude": -111.286683511,
    "accessName": "Joes Valley",
    "riverName": "Indian Creek - Joes Valley Reservoir",
    "type": "Public",
    "otherName": "Seely Creek"
  },
  {
    "department": "State of Utah",
    "state": "Utah",
    "county": "Emery County",
    "latitude": 39.346655578,
    "longitude": -110.944079616,
    "accessName": "Huntington State Park",
    "riverName": "Huntington Lake",
    "type": "Public",
    "otherName": "Huntington Lake-Huntington Creek"
  },
  {
    "department": "State of Utah",
    "state": "Utah",
    "county": "Sanpete County",
    "latitude": 39.353902835,
    "longitude": -111.946048469,
    "accessName": "Yuba State Park-Painted Rock",
    "riverName": "Sevier River - Yuba Lake",
    "type": "Public",
    "otherName": "Painted Rock Canyon-Sevier River"
  },
  {
    "department": "State of Utah",
    "state": "Utah",
    "county": "Juab County",
    "latitude": 39.3755485956,
    "longitude": -112.028352748,
    "accessName": "Yuba State Park",
    "riverName": "Yuba Lake",
    "type": "Semi-Private",
    "otherName": "Painted Rock Canyon-Sevier River"
  },
  {
    "department": "State of Utah",
    "state": "Utah",
    "county": "Carbon County",
    "latitude": 39.7899522605,
    "longitude": -111.129235161,
    "accessName": "Scofield State Park",
    "riverName": "Price River - Scofield Reservoir",
    "type": "Public",
    "otherName": "Scofield Reservoir-Price River"
  },
  {
    "department": "State of Utah",
    "state": "Utah",
    "county": "Uintah County",
    "latitude": 39.8405186601,
    "longitude": -109.913505557,
    "accessName": "Sand Wash",
    "riverName": "Green River",
    "type": "Public",
    "otherName": "Sand Wash-Green River"
  },
  {
    "department": "State of Utah",
    "state": "Utah",
    "county": "Juab County",
    "latitude": 39.874209061,
    "longitude": -111.871224268,
    "accessName": "Mona Reservoir",
    "riverName": "Currant Creek - Mona Reservoir",
    "type": "Semi-Private",
    "otherName": "Mona Reservoir-Current Creek"
  },
  {
    "department": "State of Utah",
    "state": "Utah",
    "county": "Utah County",
    "latitude": 40.0787223422,
    "longitude": -111.870205071,
    "accessName": "LaBaron Point",
    "riverName": "Utah Lake",
    "type": "Public",
    "otherName": "Utah Lake"
  },
  {
    "department": "State of Utah",
    "state": "Utah",
    "county": "Uintah County",
    "latitude": 40.0849332272,
    "longitude": -109.674428335,
    "accessName": "Ouray",
    "riverName": "Green River",
    "type": "Public",
    "otherName": "Old Charley Wash-Green River"
  },
  {
    "department": "State of Utah",
    "state": "Utah",
    "county": "Wasatch County",
    "latitude": 40.1243941125,
    "longitude": -111.152801422,
    "accessName": "Renegade Point",
    "riverName": "Strawberry River - Strawberry Reservoir",
    "type": "Public",
    "otherName": "Indian Creek"
  },
  {
    "department": "State of Utah",
    "state": "Utah",
    "county": "Wasatch County",
    "latitude": 40.128058403,
    "longitude": -111.035898587,
    "accessName": "Soldier Creek Dam Day Use Area",
    "riverName": "Strawberry River - Strawberry Reservoir",
    "type": "Public",
    "otherName": "Soldier Creek-Strawberry River"
  },
  {
    "department": "State of Utah",
    "state": "Utah",
    "county": "Utah County",
    "latitude": 40.14227221,
    "longitude": -111.803329091,
    "accessName": "Lincoln Point",
    "riverName": "Utah Lake",
    "type": "Semi-Private",
    "otherName": "Benjamin Slough-Frontal Utah Lake"
  },
  {
    "department": "State of Utah",
    "state": "Utah",
    "county": "Wasatch County",
    "latitude": 40.1567892694,
    "longitude": -111.049908724,
    "accessName": "Soldier Creek Recreation Complex",
    "riverName": "Strawberry River - Strawberry Reservoir",
    "type": "Public",
    "otherName": "Soldier Creek-Strawberry River"
  },
  {
    "department": "State of Utah",
    "state": "Utah",
    "county": "Utah County",
    "latitude": 40.174415021,
    "longitude": -111.721871937,
    "accessName": "Swedes Lane",
    "riverName": "Utah Lake",
    "type": "Public",
    "otherName": "Utah Lake"
  },
  {
    "department": "State of Utah",
    "state": "Utah",
    "county": "Wasatch County",
    "latitude": 40.1774046014,
    "longitude": -111.155622258,
    "accessName": "Strawberry Bay Recreation Complex",
    "riverName": "Strawberry River - Strawberry Reservoir",
    "type": "Public",
    "otherName": "Mud Creek"
  },
  {
    "department": "State of Utah",
    "state": "Utah",
    "county": "Uintah County",
    "latitude": 40.1841514027,
    "longitude": -109.691272643,
    "accessName": "Pelican Lake",
    "riverName": "Pelican Lake",
    "type": "Public",
    "otherName": "Pelican Lake"
  },
  {
    "department": "State of Utah",
    "state": "Utah",
    "county": "Duchesne County",
    "latitude": 40.191317169,
    "longitude": -110.4559838,
    "accessName": "Starvation State Park",
    "riverName": "Strawberry River - Starvation Reservoir",
    "type": "Public",
    "otherName": "Starvation Reservoir-Strawberry River"
  },
  {
    "department": "State of Utah",
    "state": "Utah",
    "county": "Utah County",
    "latitude": 40.201716978,
    "longitude": -111.654783149,
    "accessName": "Millrace South",
    "riverName": "Utah Lake",
    "type": "Public",
    "otherName": "Utah Lake"
  },
  {
    "department": "State of Utah",
    "state": "Utah",
    "county": "Utah County",
    "latitude": 40.20299251,
    "longitude": -111.656218096,
    "accessName": "Millrace North",
    "riverName": "Utah Lake",
    "type": "Public",
    "otherName": "Utah Lake"
  },
  {
    "department": "State of Utah",
    "state": "Utah",
    "county": "Utah County",
    "latitude": 40.2373428113,
    "longitude": -111.739392818,
    "accessName": "Utah Lake State Park",
    "riverName": "Utah Lake",
    "type": "Public",
    "otherName": "Utah Lake"
  },
  {
    "department": "State of Utah",
    "state": "Utah",
    "county": "Utah County",
    "latitude": 40.2897403144,
    "longitude": -111.870260523,
    "accessName": "Saratoga City South",
    "riverName": "Utah Lake",
    "type": "Semi-Private",
    "otherName": "Enoch Canyon-Frontal Utah Lake"
  },
  {
    "department": "State of Utah",
    "state": "Utah",
    "county": "Duchesne County",
    "latitude": 40.2958594308,
    "longitude": -110.220793615,
    "accessName": "Big Sand State Park",
    "riverName": "Big Sand Wash - Big Sand Wash Reservoir",
    "type": "Semi-Private",
    "otherName": "Big Sand Wash Reservoir-Big Sand Wash"
  },
  {
    "department": "State of Utah",
    "state": "Utah",
    "county": "Utah County",
    "latitude": 40.3042421037,
    "longitude": -111.880157153,
    "accessName": "Saratoga City",
    "riverName": "Utah Lake",
    "type": "Semi-Private",
    "otherName": "Utah Lake"
  },
  {
    "department": "State of Utah",
    "state": "Utah",
    "county": "Utah County",
    "latitude": 40.3265001217,
    "longitude": -111.764472427,
    "accessName": "Lindon Boat Harbor",
    "riverName": "Utah Lake",
    "type": "Semi-Private",
    "otherName": "Utah Lake"
  },
  {
    "department": "State of Utah",
    "state": "Utah",
    "county": "Wasatch County",
    "latitude": 40.334611769,
    "longitude": -111.058436746,
    "accessName": "Currant Creek Reservoir",
    "riverName": "Currant Creek - Currant Creek Reservoir",
    "type": "Public",
    "otherName": "Current Creek Reservoir"
  },
  {
    "department": "State of Utah",
    "state": "Utah",
    "county": "Utah County",
    "latitude": 40.3428104626,
    "longitude": -111.80110464,
    "accessName": "American Fork Boat Harbor",
    "riverName": "Utah Lake",
    "type": "Public",
    "otherName": "Lower American Fork-Frontal Utah Lake"
  },
  {
    "department": "State of Utah",
    "state": "Utah",
    "county": "Utah County",
    "latitude": 40.3495740408,
    "longitude": -111.903572286,
    "accessName": "Saratoga Springs",
    "riverName": "Utah Lake",
    "type": "Public",
    "otherName": "Utah Lake"
  },
  {
    "department": "State of Utah",
    "state": "Utah",
    "county": "Wasatch County",
    "latitude": 40.4155813463,
    "longitude": -111.508176039,
    "accessName": "Deer Creek State Park",
    "riverName": "Provo River - Deer Creek Reservoir",
    "type": "Public",
    "otherName": "Deer Creek Reservoir-Provo River"
  },
  {
    "department": "State of Utah",
    "state": "Utah",
    "county": "Wasatch County",
    "latitude": 40.4438317538,
    "longitude": -111.479346232,
    "accessName": "Deer Creek Island",
    "riverName": "Provo RIver - Deer Creek Reservoir",
    "type": "Public",
    "otherName": "Deer Creek Reservoir-Provo River"
  },
  {
    "department": "State of Utah",
    "state": "Utah",
    "county": "Uintah County",
    "latitude": 40.445389731,
    "longitude": -109.252787529,
    "accessName": "Split Mountain Gorge",
    "riverName": "Green River",
    "type": "Public",
    "otherName": "Moonshine Draw-Green River"
  },
  {
    "department": "State of Utah",
    "state": "Utah",
    "county": "Uintah County",
    "latitude": 40.495032151,
    "longitude": -109.173850413,
    "accessName": "Rainbow Park",
    "riverName": "Green River",
    "type": "Public",
    "otherName": "Moonshine Draw-Green River"
  },
  {
    "department": "State of Utah",
    "state": "Utah",
    "county": "Uintah County",
    "latitude": 40.5156462129,
    "longitude": -109.539170977,
    "accessName": "Steinaker State Park",
    "riverName": "Steinaker Reservoir",
    "type": "Public",
    "otherName": "Steinaker Reservoir"
  },
  {
    "department": "State of Utah",
    "state": "Utah",
    "county": "Uintah County",
    "latitude": 40.585884075,
    "longitude": -109.44154528,
    "accessName": "Red Fleet State Park",
    "riverName": "Big Brush Creek - Red Fleet Reservoir",
    "type": "Public",
    "otherName": "Cottonwood Wash-Big Brush Creek"
  },
  {
    "department": "State of Utah",
    "state": "Utah",
    "county": "Wasatch County",
    "latitude": 40.6036772763,
    "longitude": -111.352546043,
    "accessName": "Jordanelle State Park - Rock Cliff",
    "riverName": "Provo River - Jordanelle Reservoir",
    "type": "Public",
    "otherName": "Charcoal Canyon-Provo River"
  },
  {
    "department": "State of Utah",
    "state": "Utah",
    "county": "Wasatch County",
    "latitude": 40.616964302,
    "longitude": -111.421683911,
    "accessName": "Jordanelle State Park - Hailstone South",
    "riverName": "Provo River - Jordanelle Reservoir",
    "type": "Public",
    "otherName": "Drain Tunnel Creek"
  },
  {
    "department": "State of Utah",
    "state": "Utah",
    "county": "Wasatch County",
    "latitude": 40.622960515,
    "longitude": -111.41869972,
    "accessName": "Jordanelle State Park - Hailstone North",
    "riverName": "Provo River - Jordanelle Reservoir",
    "type": "Public",
    "otherName": "Drain Tunnel Creek"
  },
  {
    "department": "State of Utah",
    "state": "Utah",
    "county": "Uintah County",
    "latitude": 40.719581018,
    "longitude": -109.183660959,
    "accessName": "Crouse Reservoir",
    "riverName": "Pot Creek - Crouse Reservoir",
    "type": "Public",
    "otherName": "Crouse Reservoir"
  },
  {
    "department": "State of Utah",
    "state": "Utah",
    "county": "Salt Lake County",
    "latitude": 40.7357522743,
    "longitude": -112.211927791,
    "accessName": "Great Salt Lake State Marina",
    "riverName": "Great Salt Lake",
    "type": "Public",
    "otherName": "Great Salt Lake"
  },
  {
    "department": "State of Utah",
    "state": "Utah",
    "county": "Uintah County",
    "latitude": 40.72850335,
    "longitude": -109.204711588,
    "accessName": "Calder Reservoir",
    "riverName": "Pot Creek - Calder Reservoir",
    "type": "Public",
    "otherName": "Crouse Reservoir"
  },
  {
    "department": "State of Utah",
    "state": "Utah",
    "county": "Summit County",
    "latitude": 40.760606138,
    "longitude": -111.108167634,
    "accessName": "Smith and Morehouse West",
    "riverName": "Smith and Morehouse Reservoir",
    "type": "Public",
    "otherName": "Smith and Morehouse Creek"
  },
  {
    "department": "State of Utah",
    "state": "Utah",
    "county": "Summit County",
    "latitude": 40.764181375,
    "longitude": -111.104163623,
    "accessName": "Smith and Morehouse East",
    "riverName": "Smith and Morehouse Reservoir",
    "type": "Public",
    "otherName": "Smith and Morehouse Creek"
  },
  {
    "department": "State of Utah",
    "state": "Utah",
    "county": "Summit County",
    "latitude": 40.7750566193,
    "longitude": -111.390524643,
    "accessName": "Rockport State Park",
    "riverName": "Weber River - Rockport Reservoir",
    "type": "Public",
    "otherName": "Rockport Lake-Weber River"
  },
  {
    "department": "State of Utah",
    "state": "Utah",
    "county": "Uintah County",
    "latitude": 40.7718151124,
    "longitude": -109.306046546,
    "accessName": "Matt Warner Reservoir",
    "riverName": "Pot Creek - Matt Warner Reservoir",
    "type": "Public",
    "otherName": "Matt Warner Reservoir"
  },
  {
    "department": "State of Utah",
    "state": "Utah",
    "county": "Summit County",
    "latitude": 40.8385621094,
    "longitude": -110.001772951,
    "accessName": "Spirit Lake",
    "riverName": "Spirit Lake",
    "type": "Public",
    "otherName": "Upper Sheep Creek"
  },
  {
    "department": "State of Utah",
    "state": "Utah",
    "county": "Daggett County",
    "latitude": 40.8628000568,
    "longitude": -109.810553377,
    "accessName": "Browne Lake",
    "riverName": "Carter Creek - Browne Lake",
    "type": "Public",
    "otherName": "Beaver Creek"
  },
  {
    "department": "State of Utah",
    "state": "Utah",
    "county": "Daggett County",
    "latitude": 40.887857526,
    "longitude": -109.84969959,
    "accessName": "Sheep Creek Lake",
    "riverName": "Sheep Creek Lake",
    "type": "Public",
    "otherName": "Beaver Creek"
  },
  {
    "department": "State of Utah",
    "state": "Utah",
    "county": "Daggett County",
    "latitude": 40.907540771,
    "longitude": -109.874946459,
    "accessName": "Long Park Reservoir",
    "riverName": "Long Park Reservoir",
    "type": "Public",
    "otherName": "Lodgepole Creek"
  },
  {
    "department": "State of Utah",
    "state": "Utah",
    "county": "Daggett County",
    "latitude": 40.8986764443,
    "longitude": -109.17241178,
    "accessName": "Browns Park",
    "riverName": "Green River",
    "type": "Public",
    "otherName": "Tolivers Creek-Green River"
  },
  {
    "department": "State of Utah",
    "state": "Utah",
    "county": "Daggett County",
    "latitude": 40.9087981796,
    "longitude": -109.422267956,
    "accessName": "Flaming Gorge Spillway",
    "riverName": "Green River",
    "type": "Public",
    "otherName": "Pine Creek-Green River"
  },
  {
    "department": "State of Utah",
    "state": "Utah",
    "county": "Daggett County",
    "latitude": 40.912261691,
    "longitude": -109.447758565,
    "accessName": "Cedar Springs Marina",
    "riverName": "Green River - Flaming Gorge Reservoir",
    "type": "Public",
    "otherName": "Dutch John Draw-Green River"
  },
  {
    "department": "State of Utah",
    "state": "Utah",
    "county": "Daggett County",
    "latitude": 40.9109289487,
    "longitude": -109.314941706,
    "accessName": "Little Hole",
    "riverName": "Green River",
    "type": "Public",
    "otherName": "Goslin Creek-Green River"
  },
  {
    "department": "State of Utah",
    "state": "Utah",
    "county": "Morgan County",
    "latitude": 40.9220071473,
    "longitude": -111.591448199,
    "accessName": "East Canyon Reservoir",
    "riverName": "East Canyon Creek - East Canyon Reservoir",
    "type": "Public",
    "otherName": "East Canyon Reservoir-East Canyon Creek"
  },
  {
    "department": "State of Utah",
    "state": "Utah",
    "county": "Daggett County",
    "latitude": 40.9232399866,
    "longitude": -109.675165607,
    "accessName": "Sheep Creek Bay",
    "riverName": "Sheep Creek - Flaming Gorge Reservoir",
    "type": "Public",
    "otherName": "Lower Sheep Creek"
  },
  {
    "department": "State of Utah",
    "state": "Utah",
    "county": "Daggett County",
    "latitude": 40.923576817,
    "longitude": -109.446999151,
    "accessName": "Dutch John Marina",
    "riverName": "Green River - Flaming Gorge Reservoir",
    "type": "Public",
    "otherName": "Dutch John Draw-Green River"
  },
  {
    "department": "State of Utah",
    "state": "Utah",
    "county": "Summit County",
    "latitude": 40.957707507,
    "longitude": -111.408352818,
    "accessName": "Echo Reservoir",
    "riverName": "Weber River - Echo Reservoir",
    "type": "Semi-Private",
    "otherName": "Echo Reservoir-Weber River"
  },
  {
    "department": "State of Utah",
    "state": "Utah",
    "county": "Daggett County",
    "latitude": 40.9637937273,
    "longitude": -109.55757819,
    "accessName": "Antelope Flat",
    "riverName": "Green River - Flaming Gorge Reservoir",
    "type": "Public",
    "otherName": "Chokecherry Draw-Green River"
  },
  {
    "department": "State of Utah",
    "state": "Utah",
    "county": "Daggett County",
    "latitude": 40.9861638563,
    "longitude": -109.586175547,
    "accessName": "Lucerne Valley",
    "riverName": "Green River - Flaming Gorge Reservoir",
    "type": "Public",
    "otherName": "Chokecherry Draw-Green River"
  },
  {
    "department": "State of Utah",
    "state": "Utah",
    "county": "Davis County",
    "latitude": 41.0606269029,
    "longitude": -112.238612163,
    "accessName": "Antelope Island State Park",
    "riverName": "Great Salt Lake",
    "type": "Public",
    "otherName": "Great Salt Lake"
  },
  {
    "department": "State of Utah",
    "state": "Utah",
    "county": "Morgan County",
    "latitude": 41.1863503346,
    "longitude": -111.381418717,
    "accessName": "Lost Creek State Park",
    "riverName": "Lost Creek - Lost Creek Reservoir",
    "type": "Public",
    "otherName": "Francis Canyon"
  },
  {
    "department": "State of Utah",
    "state": "Utah",
    "county": "Weber County",
    "latitude": 41.217253072,
    "longitude": -112.160838283,
    "accessName": "Ogden Bay Wildlife Management Area",
    "riverName": "Great Salt Lake",
    "type": "Public",
    "otherName": "Outlet Weber River-Frontal Great Salt Lake"
  },
  {
    "department": "State of Utah",
    "state": "Utah",
    "county": "Weber County",
    "latitude": 41.2238373205,
    "longitude": -112.223337555,
    "accessName": "Ogden Bay Wildlife Management Area (airboat launch)",
    "riverName": "Great Salt Lake",
    "type": "Public",
    "otherName": "Outlet Weber River-Frontal Great Salt Lake"
  },
  {
    "department": "State of Utah",
    "state": "Utah",
    "county": "Weber County",
    "latitude": 41.268726374,
    "longitude": -111.819360138,
    "accessName": "Pineview Reservoir",
    "riverName": "Ogden River - Pineview Reservoir",
    "type": "Semi-Private",
    "otherName": "Pineview Reservoir-North Fork Ogden River"
  },
  {
    "department": "State of Utah",
    "state": "Utah",
    "county": "Weber County",
    "latitude": 41.2769274988,
    "longitude": -111.819482097,
    "accessName": "Pineview Reservoir - North Arm",
    "riverName": "Ogden River - Pineview Reservoir",
    "type": "Semi-Private",
    "otherName": "Pineview Reservoir-North Fork Ogden River"
  },
  {
    "department": "State of Utah",
    "state": "Utah",
    "county": "Box Elder County",
    "latitude": 41.3536863842,
    "longitude": -112.075152629,
    "accessName": "Willard Bay South Marina",
    "riverName": "Willard Bay",
    "type": "Public",
    "otherName": "First Salt Creek-Frontal Willard Bay"
  },
  {
    "department": "State of Utah",
    "state": "Utah",
    "county": "Box Elder County",
    "latitude": 41.4100196583,
    "longitude": -112.053780264,
    "accessName": "Willard Bay North",
    "riverName": "Willard Bay",
    "type": "Public",
    "otherName": "First Salt Creek-Frontal Willard Bay"
  },
  {
    "department": "State of Utah",
    "state": "Utah",
    "county": "Box Elder County",
    "latitude": 41.4480847288,
    "longitude": -112.408763277,
    "accessName": "Bear River Bay",
    "riverName": "Great Salt Lake",
    "type": "Public",
    "otherName": "Chokecherry Canyon-Frontal Great Salt Lake"
  },
  {
    "department": "State of Utah",
    "state": "Utah",
    "county": "Box Elder County",
    "latitude": 41.500687532,
    "longitude": -111.942296032,
    "accessName": "Mantua Reservoir",
    "riverName": "Mantua Reservoir",
    "type": "Semi-Private",
    "otherName": "Mantua Reservoir-Box Elder Creek"
  },
  {
    "department": "State of Utah",
    "state": "Utah",
    "county": "Box Elder County",
    "latitude": 41.5459460952,
    "longitude": -112.095052953,
    "accessName": "Corinne",
    "riverName": "Bear River",
    "type": "Public",
    "otherName": "Bear River-Frontal Great Salt Lake"
  },
  {
    "department": "State of Utah",
    "state": "Utah",
    "county": "Cache County",
    "latitude": 41.62689707,
    "longitude": -111.86622195,
    "accessName": "Hyrum State Park",
    "riverName": "Hyrum Reservoir",
    "type": "Public",
    "otherName": "Hyrum Reservoir-Little Bear River"
  },
  {
    "department": "State of Utah",
    "state": "Utah",
    "county": "Box Elder County",
    "latitude": 41.713014364,
    "longitude": -112.116488604,
    "accessName": "Deweyville",
    "riverName": "Bear River",
    "type": "Public",
    "otherName": "Willow Creek-Bear River"
  },
  {
    "department": "State of Utah",
    "state": "Utah",
    "county": "Cache County",
    "latitude": 41.7451538733,
    "longitude": -111.956703278,
    "accessName": "Cutler Reservoir SR-30",
    "riverName": "Cutler Reservoir",
    "type": "Semi-Private",
    "otherName": "Deep Canyon-Little Bear River"
  },
  {
    "department": "State of Utah",
    "state": "Utah",
    "county": "Cache County",
    "latitude": 41.787541987,
    "longitude": -111.952767901,
    "accessName": "Cutler Reservoir 3000 N",
    "riverName": "Cutler Reservoir",
    "type": "Semi-Private",
    "otherName": "Cutler Reservoir-Bear River"
  },
  {
    "department": "State of Utah",
    "state": "Utah",
    "county": "Cache County",
    "latitude": 41.801302581,
    "longitude": -111.90936178,
    "accessName": "Bear River 3800 N",
    "riverName": "Bear River",
    "type": "Semi-Private",
    "otherName": "Nebo Creek-Bear River"
  },
  {
    "department": "State of Utah",
    "state": "Utah",
    "county": "Rich County",
    "latitude": 41.8479595731,
    "longitude": -111.352361744,
    "accessName": "Rendezvous Beach State Park",
    "riverName": "Bear Lake",
    "type": "Public",
    "otherName": "Hodges Canyon-Frontal Bear River"
  },
  {
    "department": "State of Utah",
    "state": "Utah",
    "county": "Cache County",
    "latitude": 41.8440234417,
    "longitude": -111.999426059,
    "accessName": "Cutler Reservoir 6200 N",
    "riverName": "Cutler Reservoir",
    "type": "Semi-Private",
    "otherName": "Cutler Reservoir-Bear River"
  },
  {
    "department": "State of Utah",
    "state": "Utah",
    "county": "Rich County",
    "latitude": 41.9652211514,
    "longitude": -111.398863357,
    "accessName": "Bear Lake State Park",
    "riverName": "Bear Lake",
    "type": "Public",
    "otherName": "Garden City Canyon-Frontal Bear River"
  },
  {
    "department": "U.S. Geological Survey",
    "state": "Utah",
    "county": "Kane County",
    "latitude": 37.5192596241,
    "longitude": -110.743610575,
    "accessName": "Bullfrog Marina (West)",
    "riverName": "Bullfrog Bay - Lake Powell",
    "type": "Public",
    "otherName": "Bullfrog Bay"
  }
]