[
  {
    "department": "South Carolina Department of Natural Resources",
    "state": "South Carolina",
    "county": "Aiken County",
    "latitude": 33.4940710689,
    "longitude": -81.9900439481,
    "accessName": "Riverview Park",
    "riverName": "Savannah River",
    "type": "Public",
    "otherName": "Augusta Canal-Savannah River"
  },
  {
    "department": "South Carolina Department of Natural Resources",
    "state": "South Carolina",
    "county": "Edgefield County",
    "latitude": 33.5776099452,
    "longitude": -82.0472550989,
    "accessName": "Stevens Creek",
    "riverName": "Stevens Creek",
    "type": "Public",
    "otherName": "Lower Stevens Creek"
  },
  {
    "department": "South Carolina Department of Natural Resources",
    "state": "South Carolina",
    "county": "McCormick County",
    "latitude": 33.5979100647,
    "longitude": -82.1167943456,
    "accessName": "Furys Ferry",
    "riverName": "Savannah River",
    "type": "Public",
    "otherName": "Llyod Creek-Savannah River"
  },
  {
    "department": "South Carolina Department of Natural Resources",
    "state": "South Carolina",
    "county": "Abbeville County",
    "latitude": 34.0180431039,
    "longitude": -82.5929024518,
    "accessName": "Calhoun Park",
    "riverName": "Savannah River - Lake J. Strom Thurmond",
    "type": "Public",
    "otherName": "Upper Thurmond Lake"
  },
  {
    "department": "South Carolina Department of Natural Resources",
    "state": "South Carolina",
    "county": "Abbeville County",
    "latitude": 34.0644627608,
    "longitude": -82.6140660065,
    "accessName": "Millwood",
    "riverName": "Savannah River - Lake Richard B. Russell",
    "type": "Public",
    "otherName": "Beer Garden Creek-Savannah River"
  },
  {
    "department": "South Carolina Department of Natural Resources",
    "state": "South Carolina",
    "county": "Abbeville County",
    "latitude": 34.05868161,
    "longitude": -82.5977242012,
    "accessName": "Beer Garden Creek",
    "riverName": "Savannah River - Lake Richard B. Russell",
    "type": "Public",
    "otherName": "Beer Garden Creek-Savannah River"
  },
  {
    "department": "South Carolina Department of Natural Resources",
    "state": "South Carolina",
    "county": "Abbeville County",
    "latitude": 34.0960840198,
    "longitude": -82.6105885654,
    "accessName": "Blue Hole",
    "riverName": "Rocky River - Lake Richard B. Russell",
    "type": "Public",
    "otherName": "Lower Rocky River"
  },
  {
    "department": "South Carolina Department of Natural Resources",
    "state": "South Carolina",
    "county": "Abbeville County",
    "latitude": 34.1214791037,
    "longitude": -82.6147756831,
    "accessName": "Latimer",
    "riverName": "Rocky River - Lake Richard B. Russell",
    "type": "Public",
    "otherName": "Lower Rocky River"
  },
  {
    "department": "South Carolina Department of Natural Resources",
    "state": "South Carolina",
    "county": "Abbeville County",
    "latitude": 34.251948726,
    "longitude": -82.6239499621,
    "accessName": "Wilson Creek",
    "riverName": "Rocky River - Lake Richard B. Russell",
    "type": "Public",
    "otherName": "Wilson Creek-Rocky River"
  },
  {
    "department": "South Carolina Department of Natural Resources",
    "state": "South Carolina",
    "county": "Abbeville County",
    "latitude": 34.3125479645,
    "longitude": -82.5790089987,
    "accessName": "Highway 184",
    "riverName": "Rocky River - Lake Secession",
    "type": "Public",
    "otherName": "Middle Rocky River"
  },
  {
    "department": "South Carolina Department of Natural Resources",
    "state": "South Carolina",
    "county": "Abbeville County",
    "latitude": 34.2098746142,
    "longitude": -82.6317714414,
    "accessName": "Jim Rampey Recreation Area",
    "riverName": "Rocky River - Lake Richard B. Russell",
    "type": "Public",
    "otherName": "Lower Rocky River"
  },
  {
    "department": "South Carolina Department of Natural Resources",
    "state": "South Carolina",
    "county": "Abbeville County",
    "latitude": 34.1618023424,
    "longitude": -82.7135507068,
    "accessName": "Harpers Ferry",
    "riverName": "Savannah River - Lake Richard B. Russell",
    "type": "Public",
    "otherName": "Pickens Creek-Savannah River"
  },
  {
    "department": "South Carolina Department of Natural Resources",
    "state": "South Carolina",
    "county": "Aiken County",
    "latitude": 33.2800595914,
    "longitude": -81.8435194406,
    "accessName": "Jackson",
    "riverName": "Savannah River",
    "type": "Public",
    "otherName": "Beaverdam Ditch-Savannah River"
  },
  {
    "department": "South Carolina Department of Natural Resources",
    "state": "South Carolina",
    "county": "Anderson County",
    "latitude": 34.4835974505,
    "longitude": -82.8768415403,
    "accessName": "Weldon",
    "riverName": "Tugaloo River - Lake Hartwell",
    "type": "Public",
    "otherName": "Lower Tugaloo River"
  },
  {
    "department": "South Carolina Department of Natural Resources",
    "state": "South Carolina",
    "county": "Anderson County",
    "latitude": 34.4794128216,
    "longitude": -82.8609494334,
    "accessName": "Double Springs",
    "riverName": "Tugaloo River - Lake Hartwell",
    "type": "Public",
    "otherName": "Little Beaverdam Creek-Tugaloo River"
  },
  {
    "department": "South Carolina Department of Natural Resources",
    "state": "South Carolina",
    "county": "Anderson County",
    "latitude": 34.5889763143,
    "longitude": -82.8747997971,
    "accessName": "Townville",
    "riverName": "Coneross Creek - Lake Hartwell",
    "type": "Public",
    "otherName": "Lower Coneross Creek"
  },
  {
    "department": "South Carolina Department of Natural Resources",
    "state": "South Carolina",
    "county": "Anderson County",
    "latitude": 34.5620251597,
    "longitude": -82.8532625954,
    "accessName": "Ponderosa",
    "riverName": "Camp Creek - Lake Hartwell",
    "type": "Public",
    "otherName": "Upper Seneca River"
  },
  {
    "department": "South Carolina Department of Natural Resources",
    "state": "South Carolina",
    "county": "Anderson County",
    "latitude": 34.5727761598,
    "longitude": -82.8440949292,
    "accessName": "Camp Creek",
    "riverName": "Seneca River - Lake Hartwell",
    "type": "Public",
    "otherName": "Upper Seneca River"
  },
  {
    "department": "South Carolina Department of Natural Resources",
    "state": "South Carolina",
    "county": "Anderson County",
    "latitude": 34.5394887136,
    "longitude": -82.7566213075,
    "accessName": "White City",
    "riverName": "Salem Creek - Lake Hartwell",
    "type": "Public",
    "otherName": "Lower Six And Twenty Creek"
  },
  {
    "department": "South Carolina Department of Natural Resources",
    "state": "South Carolina",
    "county": "Anderson County",
    "latitude": 34.4914733926,
    "longitude": -82.9717217881,
    "accessName": "Durham Access Area",
    "riverName": "Tugaloo River - Lake Hartwell",
    "type": "Public",
    "otherName": "Lower Tugaloo River"
  },
  {
    "department": "South Carolina Department of Natural Resources",
    "state": "South Carolina",
    "county": "Anderson County",
    "latitude": 34.6517165203,
    "longitude": -82.4577946317,
    "accessName": "Dr. James A. Timmerman",
    "riverName": "Saluda River",
    "type": "Public",
    "otherName": "Craven Creek-Saluda River"
  },
  {
    "department": "South Carolina Department of Natural Resources",
    "state": "South Carolina",
    "county": "Anderson County",
    "latitude": 34.3231241785,
    "longitude": -82.7892057873,
    "accessName": "Smith McGee",
    "riverName": "Savannah River - Lake Richard B. Russell",
    "type": "Public",
    "otherName": "Derritt Island-Savannah River"
  },
  {
    "department": "South Carolina Department of Natural Resources",
    "state": "South Carolina",
    "county": "Anderson County",
    "latitude": 34.2862776825,
    "longitude": -82.7693143369,
    "accessName": "Mountain View",
    "riverName": "Savannah River - Lake Richard B. Russell",
    "type": "Public",
    "otherName": "Derritt Island-Savannah River"
  },
  {
    "department": "South Carolina Department of Natural Resources",
    "state": "South Carolina",
    "county": "Anderson County",
    "latitude": 34.2137914632,
    "longitude": -82.7403169036,
    "accessName": "Greg Shoals",
    "riverName": "Savannah River - Lake Richard B. Russell",
    "type": "Public",
    "otherName": "Pickens Creek-Savannah River"
  },
  {
    "department": "South Carolina Department of Natural Resources",
    "state": "South Carolina",
    "county": "Bamberg County",
    "latitude": 33.3370009095,
    "longitude": -81.0200605748,
    "accessName": "Bobcat Landing (Highway 301 Bridge)",
    "riverName": "South Fork Edisto River",
    "type": "Public",
    "otherName": "Scratchnose Swamp-South Fork Edisto River"
  },
  {
    "department": "South Carolina Department of Natural Resources",
    "state": "South Carolina",
    "county": "Beaufort County",
    "latitude": 32.4206037692,
    "longitude": -80.6623997795,
    "accessName": "White Hall Landing",
    "riverName": "Factory Creek",
    "type": "Public",
    "otherName": "Upper Beaufort River-Atlantic Intracoastal Waterway"
  },
  {
    "department": "South Carolina Department of Natural Resources",
    "state": "South Carolina",
    "county": "Beaufort County",
    "latitude": 32.3709738141,
    "longitude": -80.6284418454,
    "accessName": "Capers",
    "riverName": "Capers Creek",
    "type": "Public",
    "otherName": "Lower Beaufort River-Atlantic Intracoastal Waterway"
  },
  {
    "department": "South Carolina Department of Natural Resources",
    "state": "South Carolina",
    "county": "Beaufort County",
    "latitude": 32.3460514418,
    "longitude": -80.4696790113,
    "accessName": "Russ Point",
    "riverName": "Fripp Inlet",
    "type": "Public",
    "otherName": "Harbor River-Trenchards Inlet"
  },
  {
    "department": "South Carolina Department of Natural Resources",
    "state": "South Carolina",
    "county": "Beaufort County",
    "latitude": 32.3737455557,
    "longitude": -80.8367831997,
    "accessName": "Edgar C. Glenn Landing (Highway 170 Bridge)",
    "riverName": "Chechessee River",
    "type": "Public",
    "otherName": "Chechessee River"
  },
  {
    "department": "South Carolina Department of Natural Resources",
    "state": "South Carolina",
    "county": "Beaufort County",
    "latitude": 32.1995125501,
    "longitude": -80.7183212978,
    "accessName": "Broad Creek",
    "riverName": "Broad Creek",
    "type": "Public",
    "otherName": "Broad Creek"
  },
  {
    "department": "South Carolina Department of Natural Resources",
    "state": "South Carolina",
    "county": "Beaufort County",
    "latitude": 32.4378964297,
    "longitude": -80.5501992864,
    "accessName": "Eddings Point Landing",
    "riverName": "Jenkins Creek",
    "type": "Public",
    "otherName": "Morgan River"
  },
  {
    "department": "South Carolina Department of Natural Resources",
    "state": "South Carolina",
    "county": "Beaufort County",
    "latitude": 32.4079389472,
    "longitude": -80.4666531629,
    "accessName": "Butchers Island",
    "riverName": "Ward Creek",
    "type": "Public",
    "otherName": "Harbor River-St. Helena Sound"
  },
  {
    "department": "South Carolina Department of Natural Resources",
    "state": "South Carolina",
    "county": "Beaufort County",
    "latitude": 32.4311254424,
    "longitude": -80.6748224763,
    "accessName": "Beaufort Dock",
    "riverName": "Beaufort River",
    "type": "Public",
    "otherName": "Upper Beaufort River-Atlantic Intracoastal Waterway"
  },
  {
    "department": "South Carolina Department of Natural Resources",
    "state": "South Carolina",
    "county": "Beaufort County",
    "latitude": 32.5499780159,
    "longitude": -80.761288497,
    "accessName": "Paige Point",
    "riverName": "Huspah Creek",
    "type": "Public",
    "otherName": "Huspa Creek"
  },
  {
    "department": "South Carolina Department of Natural Resources",
    "state": "South Carolina",
    "county": "Beaufort County",
    "latitude": 32.2891221159,
    "longitude": -80.8083610476,
    "accessName": "H.E. Trask Sr. Landing",
    "riverName": "Colleton River",
    "type": "Public",
    "otherName": "Colleton River"
  },
  {
    "department": "South Carolina Department of Natural Resources",
    "state": "South Carolina",
    "county": "Beaufort County",
    "latitude": 32.2318142919,
    "longitude": -80.8673906244,
    "accessName": "Bluffton Oyster Landing",
    "riverName": "May River",
    "type": "Public",
    "otherName": "May River"
  },
  {
    "department": "South Carolina Department of Natural Resources",
    "state": "South Carolina",
    "county": "Berkeley County",
    "latitude": 33.2187851767,
    "longitude": -80.0299908626,
    "accessName": "Thornley Forest II",
    "riverName": "Lake Moultrie",
    "type": "Public",
    "otherName": "Lake Moultrie"
  },
  {
    "department": "South Carolina Department of Natural Resources",
    "state": "South Carolina",
    "county": "Berkeley County",
    "latitude": 33.2685264516,
    "longitude": -80.1030292748,
    "accessName": "Hatchery",
    "riverName": "Lake Moultrie",
    "type": "Public",
    "otherName": "Lake Moultrie"
  },
  {
    "department": "South Carolina Department of Natural Resources",
    "state": "South Carolina",
    "county": "Bamberg County",
    "latitude": 33.0453731512,
    "longitude": -81.0969306559,
    "accessName": "Rivers Bridge (Highway 641)",
    "riverName": "Salkehatchie River",
    "type": "Public",
    "otherName": "Kirkland Creek-Salkehatchie River"
  },
  {
    "department": "South Carolina Department of Natural Resources",
    "state": "South Carolina",
    "county": "Bamberg County",
    "latitude": 33.1132399199,
    "longitude": -81.1855543413,
    "accessName": "Bufords Bridge (Highway 301)",
    "riverName": "Salkehatchie River",
    "type": "Public",
    "otherName": "Kirkland Creek-Salkehatchie River"
  },
  {
    "department": "South Carolina Department of Natural Resources",
    "state": "South Carolina",
    "county": "Bamberg County",
    "latitude": 33.3815717923,
    "longitude": -81.1140043577,
    "accessName": "Claudes Landing",
    "riverName": "South Fork Edisto River",
    "type": "Public",
    "otherName": "Scratchnose Swamp-South Fork Edisto River"
  },
  {
    "department": "South Carolina Department of Natural Resources",
    "state": "South Carolina",
    "county": "Bamberg County",
    "latitude": 33.3139582904,
    "longitude": -80.9655411886,
    "accessName": "Brabhams (Cannon Bridge Road)",
    "riverName": "South Fork Edisto River",
    "type": "Public",
    "otherName": "Outlet South Fork Edisto River"
  },
  {
    "department": "South Carolina Department of Natural Resources",
    "state": "South Carolina",
    "county": "Barnwell County",
    "latitude": 33.2574514223,
    "longitude": -81.3678356325,
    "accessName": "Ramp B",
    "riverName": "Turkey Creek - Lake Edgar A. Brown",
    "type": "Public",
    "otherName": "Turkey Creek-Salkehatchie River"
  },
  {
    "department": "South Carolina Department of Natural Resources",
    "state": "South Carolina",
    "county": "Barnwell County",
    "latitude": 33.2536860789,
    "longitude": -81.369023765,
    "accessName": "Ramp C",
    "riverName": "Turkey Creek - Lake Edgar A. Brown",
    "type": "Public",
    "otherName": "Turkey Creek-Salkehatchie River"
  },
  {
    "department": "South Carolina Department of Natural Resources",
    "state": "South Carolina",
    "county": "Barnwell County",
    "latitude": 33.261857281,
    "longitude": -81.3630320044,
    "accessName": "Ramp D",
    "riverName": "Turkey Creek - Lake Edgar A. Brown",
    "type": "Public",
    "otherName": "Turkey Creek-Salkehatchie River"
  },
  {
    "department": "South Carolina Department of Natural Resources",
    "state": "South Carolina",
    "county": "Barnwell County",
    "latitude": 33.254729018,
    "longitude": -81.3696495881,
    "accessName": "Ramp E",
    "riverName": "Turkey Creek - Lake Edgar A. Brown",
    "type": "Public",
    "otherName": "Turkey Creek-Salkehatchie River"
  },
  {
    "department": "South Carolina Department of Natural Resources",
    "state": "South Carolina",
    "county": "Beaufort County",
    "latitude": 32.5780829285,
    "longitude": -80.669769495,
    "accessName": "Winbee Creek Landing",
    "riverName": "Winbee Creek",
    "type": "Public",
    "otherName": "Wimbee Creek"
  },
  {
    "department": "South Carolina Department of Natural Resources",
    "state": "South Carolina",
    "county": "Beaufort County",
    "latitude": 32.5036657573,
    "longitude": -80.7845031572,
    "accessName": "Grays Hill Landing",
    "riverName": "Whale Branch",
    "type": "Public",
    "otherName": "Whale Branch"
  },
  {
    "department": "South Carolina Department of Natural Resources",
    "state": "South Carolina",
    "county": "Beaufort County",
    "latitude": 32.3919552742,
    "longitude": -80.7757977439,
    "accessName": "Broad River Landing (Highway 170 Bridge)",
    "riverName": "Broad River",
    "type": "Public",
    "otherName": "Broad River-Port Royal Sound"
  },
  {
    "department": "South Carolina Department of Natural Resources",
    "state": "South Carolina",
    "county": "Beaufort County",
    "latitude": 32.377762198,
    "longitude": -80.71776926,
    "accessName": "Parris Island",
    "riverName": "Battery Creek",
    "type": "Public",
    "otherName": "Battery Creek"
  },
  {
    "department": "South Carolina Department of Natural Resources",
    "state": "South Carolina",
    "county": "Aiken County",
    "latitude": 33.5558012363,
    "longitude": -81.4835790216,
    "accessName": "Aiken State Park (Highway 53 Bridge)",
    "riverName": "South Edisto River",
    "type": "Public",
    "otherName": "South Fork Edisto River"
  },
  {
    "department": "South Carolina Department of Natural Resources",
    "state": "South Carolina",
    "county": "Allendale County",
    "latitude": 32.84170162,
    "longitude": -81.4268616058,
    "accessName": "Cohens Bluff",
    "riverName": "Savannah River",
    "type": "Public",
    "otherName": "Smith Lake Creek-Savannah River"
  },
  {
    "department": "South Carolina Department of Natural Resources",
    "state": "South Carolina",
    "county": "Allendale County",
    "latitude": 32.9984106876,
    "longitude": -81.4906033966,
    "accessName": "Johnsons",
    "riverName": "Savannah River",
    "type": "Public",
    "otherName": "Smith Lake Creek-Savannah River"
  },
  {
    "department": "South Carolina Department of Natural Resources",
    "state": "South Carolina",
    "county": "Anderson County",
    "latitude": 34.4276929146,
    "longitude": -82.8225358557,
    "accessName": "Sadlers Creek State Park",
    "riverName": "Savannah River - Lake Hartwell",
    "type": "Public",
    "otherName": "Lightwood Log Creek-Savannah River"
  },
  {
    "department": "South Carolina Department of Natural Resources",
    "state": "South Carolina",
    "county": "Anderson County",
    "latitude": 34.5685672094,
    "longitude": -82.7139768398,
    "accessName": "Hurricane Creek",
    "riverName": "Six and Twenty Creek - Lake Hartwell",
    "type": "Public",
    "otherName": "Lower Six And Twenty Creek"
  },
  {
    "department": "South Carolina Department of Natural Resources",
    "state": "South Carolina",
    "county": "Anderson County",
    "latitude": 34.4031947628,
    "longitude": -82.8206253152,
    "accessName": "Island Point",
    "riverName": "Savannah River - Lake Hartwell",
    "type": "Public",
    "otherName": "Lightwood Log Creek-Savannah River"
  },
  {
    "department": "South Carolina Department of Natural Resources",
    "state": "South Carolina",
    "county": "Anderson County",
    "latitude": 34.4618633872,
    "longitude": -82.8117470958,
    "accessName": "Richland Creek",
    "riverName": "Savannah River - Lake Hartwell",
    "type": "Public",
    "otherName": "Lower Seneca River"
  },
  {
    "department": "South Carolina Department of Natural Resources",
    "state": "South Carolina",
    "county": "Anderson County",
    "latitude": 34.4425795216,
    "longitude": -82.8243809256,
    "accessName": "Springfield Campground",
    "riverName": "Savannah River - Lake Hartwell",
    "type": "Public",
    "otherName": "Lightwood Log Creek-Savannah River"
  },
  {
    "department": "South Carolina Department of Natural Resources",
    "state": "South Carolina",
    "county": "Anderson County",
    "latitude": 34.4738387627,
    "longitude": -82.8157341514,
    "accessName": "River Forks",
    "riverName": "Savannah River - Lake Hartwell",
    "type": "Public",
    "otherName": "Lower Seneca River"
  },
  {
    "department": "South Carolina Department of Natural Resources",
    "state": "South Carolina",
    "county": "Anderson County",
    "latitude": 34.5589478813,
    "longitude": -82.7351699903,
    "accessName": "Honea Path",
    "riverName": "Six and Twenty Creek - Lake Hartwell",
    "type": "Public",
    "otherName": "Lower Six And Twenty Creek"
  },
  {
    "department": "South Carolina Department of Natural Resources",
    "state": "South Carolina",
    "county": "Anderson County",
    "latitude": 34.5615130728,
    "longitude": -82.7418885615,
    "accessName": "Denver",
    "riverName": "Six and Twenty Creek - Lake Hartwell",
    "type": "Public",
    "otherName": "Lower Six And Twenty Creek"
  },
  {
    "department": "South Carolina Department of Natural Resources",
    "state": "South Carolina",
    "county": "Anderson County",
    "latitude": 34.5134349831,
    "longitude": -82.831232139,
    "accessName": "Broyles",
    "riverName": "Seneca River - Lake Hartwell",
    "type": "Public",
    "otherName": "Lower Seneca River"
  },
  {
    "department": "South Carolina Department of Natural Resources",
    "state": "South Carolina",
    "county": "Anderson County",
    "latitude": 34.5065357026,
    "longitude": -82.8385969744,
    "accessName": "Apple Island",
    "riverName": "Seneca River - Lake Hartwell",
    "type": "Public",
    "otherName": "Lower Seneca River"
  },
  {
    "department": "South Carolina Department of Natural Resources",
    "state": "South Carolina",
    "county": "Fairfield County",
    "latitude": 34.3793079148,
    "longitude": -81.3134178674,
    "accessName": "Lake Monticello Subimpoundment",
    "riverName": "Frees Creek - Lake Monticello",
    "type": "Public",
    "otherName": "Monticello Reservoir"
  },
  {
    "department": "South Carolina Department of Natural Resources",
    "state": "South Carolina",
    "county": "Florence County",
    "latitude": 34.0514510314,
    "longitude": -79.7541242923,
    "accessName": "Highway 52 Bridge",
    "riverName": "Lynches River",
    "type": "Public",
    "otherName": "Mill Branch-Lynches River"
  },
  {
    "department": "South Carolina Department of Natural Resources",
    "state": "South Carolina",
    "county": "Florence County",
    "latitude": 33.8389552512,
    "longitude": -79.4483084847,
    "accessName": "Odell Venters (Highway 41 Bridge)",
    "riverName": "Lynches River",
    "type": "Public",
    "otherName": "Outlet Lynches River"
  },
  {
    "department": "South Carolina Department of Natural Resources",
    "state": "South Carolina",
    "county": "Florence County",
    "latitude": 33.9367436187,
    "longitude": -79.4827530939,
    "accessName": "Bostic Landing",
    "riverName": "Great Pee Dee River",
    "type": "Public",
    "otherName": "Bull Swamp-Great Pee Dee River"
  },
  {
    "department": "South Carolina Department of Natural Resources",
    "state": "South Carolina",
    "county": "Florence County",
    "latitude": 33.9954914487,
    "longitude": -79.5183527794,
    "accessName": "Dewitts Bluff",
    "riverName": "Great Pee Dee River",
    "type": "Semi-Private",
    "otherName": "Barfield Mill Creek-Great Pee Dee River"
  },
  {
    "department": "South Carolina Department of Natural Resources",
    "state": "South Carolina",
    "county": "Georgetown County",
    "latitude": 33.2509123172,
    "longitude": -79.2696963091,
    "accessName": "South Island Ferry",
    "riverName": "Atlantic Intracoastal Waterway",
    "type": "Public",
    "otherName": "Lower North Santee River"
  },
  {
    "department": "South Carolina Department of Natural Resources",
    "state": "South Carolina",
    "county": "Georgetown County",
    "latitude": 33.2435885039,
    "longitude": -79.4348530873,
    "accessName": "Harris Landing",
    "riverName": "North Santee River",
    "type": "Public",
    "otherName": "Lower North Santee River"
  },
  {
    "department": "South Carolina Department of Natural Resources",
    "state": "South Carolina",
    "county": "Georgetown County",
    "latitude": 33.4363158091,
    "longitude": -79.1821350288,
    "accessName": "Hagley",
    "riverName": "Waccamaw River",
    "type": "Public",
    "otherName": "Outlet Waccamaw River-Atlantic Intracoastal Waterway"
  },
  {
    "department": "South Carolina Department of Natural Resources",
    "state": "South Carolina",
    "county": "Georgetown County",
    "latitude": 33.5552679997,
    "longitude": -79.0344750195,
    "accessName": "Murrells Inlet",
    "riverName": "Atlantic Ocean - Murrells Inlet",
    "type": "Public",
    "otherName": "Main Creek"
  },
  {
    "department": "South Carolina Department of Natural Resources",
    "state": "South Carolina",
    "county": "Georgetown County",
    "latitude": 33.2097563657,
    "longitude": -79.3830247176,
    "accessName": "Pole Yard",
    "riverName": "Santee River",
    "type": "Public",
    "otherName": "Lower North Santee River"
  },
  {
    "department": "South Carolina Department of Natural Resources",
    "state": "South Carolina",
    "county": "Georgetown County",
    "latitude": 33.3565444308,
    "longitude": -79.2800344138,
    "accessName": "East Bay Park",
    "riverName": "Sampit River",
    "type": "Public",
    "otherName": "Lower Sampit River"
  },
  {
    "department": "South Carolina Department of Natural Resources",
    "state": "South Carolina",
    "county": "Georgetown County",
    "latitude": 33.5620852885,
    "longitude": -79.0854997318,
    "accessName": "Wacca Wache",
    "riverName": "Waccamaw River",
    "type": "Public",
    "otherName": "Waccamaw River-Atlantic Intracoastal Waterway"
  },
  {
    "department": "South Carolina Department of Natural Resources",
    "state": "South Carolina",
    "county": "Georgetown County",
    "latitude": 33.4827112792,
    "longitude": -79.4562210573,
    "accessName": "Pea House",
    "riverName": "Black River",
    "type": "Public",
    "otherName": "Indian Hut Swamp-Black River"
  },
  {
    "department": "South Carolina Department of Natural Resources",
    "state": "South Carolina",
    "county": "Georgetown County",
    "latitude": 33.4734081425,
    "longitude": -79.4989144135,
    "accessName": "Pine Tree",
    "riverName": "Black River",
    "type": "Public",
    "otherName": "Indian Hut Swamp-Black River"
  },
  {
    "department": "South Carolina Department of Natural Resources",
    "state": "South Carolina",
    "county": "Georgetown County",
    "latitude": 33.5446681193,
    "longitude": -79.3547954075,
    "accessName": "Rocky Point Drive",
    "riverName": "Black River",
    "type": "Public",
    "otherName": "Lanes Creek-Black River"
  },
  {
    "department": "South Carolina Department of Natural Resources",
    "state": "South Carolina",
    "county": "Georgetown County",
    "latitude": 33.2841880438,
    "longitude": -79.552555521,
    "accessName": "Sandhole",
    "riverName": "Wadmacon Creek",
    "type": "Public",
    "otherName": "Wadmacon Creek"
  },
  {
    "department": "South Carolina Department of Natural Resources",
    "state": "South Carolina",
    "county": "Georgetown County",
    "latitude": 33.4496876934,
    "longitude": -79.2636140911,
    "accessName": "Pringles Ferry",
    "riverName": "Black River",
    "type": "Public",
    "otherName": "Outlet Black River"
  },
  {
    "department": "South Carolina Department of Natural Resources",
    "state": "South Carolina",
    "county": "Georgetown County",
    "latitude": 33.4119522851,
    "longitude": -79.1355021101,
    "accessName": "Pritchard Street",
    "riverName": "Pawleys Creek",
    "type": "Public",
    "otherName": "Pawleys Island Creek"
  },
  {
    "department": "South Carolina Department of Natural Resources",
    "state": "South Carolina",
    "county": "Georgetown County",
    "latitude": 33.4421425556,
    "longitude": -79.1152819526,
    "accessName": "Shell Road",
    "riverName": "Main Creek",
    "type": "Public",
    "otherName": "Pawleys Island Creek"
  },
  {
    "department": "South Carolina Department of Natural Resources",
    "state": "South Carolina",
    "county": "Greenville County",
    "latitude": 34.9925603662,
    "longitude": -82.2967358986,
    "accessName": "J. Verne Smith Park",
    "riverName": "South Tyger River - Lake Robinson",
    "type": "Public",
    "otherName": "Headwaters South Tyger River"
  },
  {
    "department": "South Carolina Department of Natural Resources",
    "state": "South Carolina",
    "county": "Greenville County",
    "latitude": 34.9844128877,
    "longitude": -82.275188425,
    "accessName": "Lake Cunningham Recreation Facility",
    "riverName": "South Tyger River - Lake Cunningham",
    "type": "Public",
    "otherName": "Upper South Tyger River"
  },
  {
    "department": "South Carolina Department of Natural Resources",
    "state": "South Carolina",
    "county": "Greenwood County",
    "latitude": 34.1864786098,
    "longitude": -81.9341007731,
    "accessName": "Greenwood Shores",
    "riverName": "Saluda River - Lake Greenwood",
    "type": "Public",
    "otherName": "Lower Lake Greenwood-Saluda River"
  },
  {
    "department": "South Carolina Department of Natural Resources",
    "state": "South Carolina",
    "county": "Greenwood County",
    "latitude": 34.1741378685,
    "longitude": -81.9200520377,
    "accessName": "Buzzard's Roost",
    "riverName": "Saluda River - Lake Greenwood",
    "type": "Public",
    "otherName": "Lower Lake Greenwood-Saluda River"
  },
  {
    "department": "South Carolina Department of Natural Resources",
    "state": "South Carolina",
    "county": "Hampton County",
    "latitude": 32.7058486417,
    "longitude": -80.828350293,
    "accessName": "Highway 21 Bridge",
    "riverName": "Combahee River",
    "type": "Public",
    "otherName": "Middle Combahee River"
  },
  {
    "department": "South Carolina Department of Natural Resources",
    "state": "South Carolina",
    "county": "Hampton County",
    "latitude": 32.5574023619,
    "longitude": -81.2843834916,
    "accessName": "Stokes Bluff",
    "riverName": "Savannah River",
    "type": "Public",
    "otherName": "Hog Branch-Savannah River"
  },
  {
    "department": "South Carolina Department of Natural Resources",
    "state": "South Carolina",
    "county": "Hampton County",
    "latitude": 32.989395321,
    "longitude": -81.0534361348,
    "accessName": "Goat Hill (Highway 601 Bridge)",
    "riverName": "Salkehatchie River",
    "type": "Public",
    "otherName": "Kirkland Creek-Salkehatchie River"
  },
  {
    "department": "South Carolina Department of Natural Resources",
    "state": "South Carolina",
    "county": "Horry County",
    "latitude": 33.6618530703,
    "longitude": -79.1532184584,
    "accessName": "Yauhannah Landing (US701 Bridge)",
    "riverName": "Great Pee Dee River",
    "type": "Public",
    "otherName": "Great Pee Dee River"
  },
  {
    "department": "South Carolina Department of Natural Resources",
    "state": "South Carolina",
    "county": "Horry County",
    "latitude": 33.6923485255,
    "longitude": -78.9924695853,
    "accessName": "Rosewood Landing",
    "riverName": "Atlantic Intracoastal Waterway",
    "type": "Public",
    "otherName": "Socastee Swamp-Atlantic Intracoastal Waterway"
  },
  {
    "department": "South Carolina Department of Natural Resources",
    "state": "South Carolina",
    "county": "Horry County",
    "latitude": 33.8317480499,
    "longitude": -79.2490763393,
    "accessName": "Pitts Landing",
    "riverName": "Little Pee Dee River",
    "type": "Public",
    "otherName": "Little Pee Dee Swamp-Little Pee Dee River"
  },
  {
    "department": "South Carolina Department of Natural Resources",
    "state": "South Carolina",
    "county": "Horry County",
    "latitude": 33.8986914347,
    "longitude": -78.8399984897,
    "accessName": "Red Bluff (Highway 31E Bridge)",
    "riverName": "Waccamaw River",
    "type": "Semi-Private",
    "otherName": "Janes Big Swamp-Waccamaw River"
  },
  {
    "department": "South Carolina Department of Natural Resources",
    "state": "South Carolina",
    "county": "Horry County",
    "latitude": 33.8505972963,
    "longitude": -78.8978982345,
    "accessName": "Reaves Ferry Road Bridge",
    "riverName": "Waccamaw River",
    "type": "Public",
    "otherName": "Janes Big Swamp-Waccamaw River"
  },
  {
    "department": "South Carolina Department of Natural Resources",
    "state": "South Carolina",
    "county": "Horry County",
    "latitude": 34.1406992998,
    "longitude": -79.2056573884,
    "accessName": "Sandy Bluff",
    "riverName": "Little Pee Dee River",
    "type": "Public",
    "otherName": "Back Swamp-Little Pee Dee River"
  },
  {
    "department": "South Carolina Department of Natural Resources",
    "state": "South Carolina",
    "county": "Horry County",
    "latitude": 34.2220172455,
    "longitude": -79.130116385,
    "accessName": "Ricefield Cove",
    "riverName": "Lumber River",
    "type": "Public",
    "otherName": "Lumber River"
  },
  {
    "department": "South Carolina Department of Natural Resources",
    "state": "South Carolina",
    "county": "Horry County",
    "latitude": 33.9494072547,
    "longitude": -79.3149884343,
    "accessName": "Gunters Lake",
    "riverName": "Gunters Lake",
    "type": "Public",
    "otherName": "Cypress Creek-Little Pee Dee River"
  },
  {
    "department": "South Carolina Department of Natural Resources",
    "state": "South Carolina",
    "county": "Horry County",
    "latitude": 33.7568223998,
    "longitude": -79.2190256187,
    "accessName": "Punch Bowl",
    "riverName": "Little Pee Dee River",
    "type": "Public",
    "otherName": "Little Pee Dee Swamp-Little Pee Dee River"
  },
  {
    "department": "South Carolina Department of Natural Resources",
    "state": "South Carolina",
    "county": "Horry County",
    "latitude": 33.8330542354,
    "longitude": -78.6847857063,
    "accessName": "Robert Edge Parkway Bridge",
    "riverName": "Atlantic Intracoastal Waterway",
    "type": "Public",
    "otherName": "Upper Little River-Atlantic Intracoastal Waterway"
  },
  {
    "department": "South Carolina Department of Natural Resources",
    "state": "South Carolina",
    "county": "Horry County",
    "latitude": 33.8452975286,
    "longitude": -78.9772985244,
    "accessName": "Lees",
    "riverName": "Waccamaw River",
    "type": "Public",
    "otherName": "Dam Swamp-Waccamaw River"
  },
  {
    "department": "South Carolina Department of Natural Resources",
    "state": "South Carolina",
    "county": "Horry County",
    "latitude": 33.816544599,
    "longitude": -79.0419615317,
    "accessName": "Savannah Bluff",
    "riverName": "Waccamaw River",
    "type": "Public",
    "otherName": "Halfway Swamp-Waccamaw River"
  },
  {
    "department": "South Carolina Department of Natural Resources",
    "state": "South Carolina",
    "county": "Berkeley County",
    "latitude": 33.2130960978,
    "longitude": -79.9734628615,
    "accessName": "William Dennis",
    "riverName": "Tail Race Canal",
    "type": "Public",
    "otherName": "West Branch Cooper River"
  },
  {
    "department": "South Carolina Department of Natural Resources",
    "state": "South Carolina",
    "county": "Berkeley County",
    "latitude": 33.0577293043,
    "longitude": -79.9577684048,
    "accessName": "Cypress Gardens Landing",
    "riverName": "Dunham Creek",
    "type": "Public",
    "otherName": "Back River-Cooper River"
  },
  {
    "department": "South Carolina Department of Natural Resources",
    "state": "South Carolina",
    "county": "Berkeley County",
    "latitude": 33.3130292757,
    "longitude": -80.0001965675,
    "accessName": "Augustus M. Flood",
    "riverName": "Lake Moultrie",
    "type": "Public",
    "otherName": "Lake Moultrie"
  },
  {
    "department": "South Carolina Department of Natural Resources",
    "state": "South Carolina",
    "county": "Berkeley County",
    "latitude": 33.3956661434,
    "longitude": -80.1974667236,
    "accessName": "Spiers",
    "riverName": "Lake Marion",
    "type": "Public",
    "otherName": "Lake Marion-Santee River"
  },
  {
    "department": "South Carolina Department of Natural Resources",
    "state": "South Carolina",
    "county": "Berkeley County",
    "latitude": 33.1959955136,
    "longitude": -79.9532373562,
    "accessName": "Rembert C. Dennis",
    "riverName": "Wadboo Creek",
    "type": "Public",
    "otherName": "Wadboo Creek"
  },
  {
    "department": "South Carolina Department of Natural Resources",
    "state": "South Carolina",
    "county": "Berkeley County",
    "latitude": 33.3042909366,
    "longitude": -79.6789557065,
    "accessName": "Lenuds (US17 Bridge)",
    "riverName": "Santee River",
    "type": "Public",
    "otherName": "Dutart Creek-Santee River"
  },
  {
    "department": "South Carolina Department of Natural Resources",
    "state": "South Carolina",
    "county": "Berkeley County",
    "latitude": 32.9670652958,
    "longitude": -79.9370841865,
    "accessName": "Bushy Park - Salt Water",
    "riverName": "Back River",
    "type": "Public",
    "otherName": "Back River-Cooper River"
  },
  {
    "department": "South Carolina Department of Natural Resources",
    "state": "South Carolina",
    "county": "Berkeley County",
    "latitude": 33.1310971037,
    "longitude": -79.8110991843,
    "accessName": "Huger Park",
    "riverName": "Huger Creek",
    "type": "Public",
    "otherName": "East Branch Cooper River"
  },
  {
    "department": "South Carolina Department of Natural Resources",
    "state": "South Carolina",
    "county": "Berkeley County",
    "latitude": 33.0946179376,
    "longitude": -79.8076134785,
    "accessName": "Ralph Hamer Sr. Landing",
    "riverName": "Quenby Creek",
    "type": "Public",
    "otherName": "Quinby Creek"
  },
  {
    "department": "South Carolina Department of Natural Resources",
    "state": "South Carolina",
    "county": "Berkeley County",
    "latitude": 33.4482761053,
    "longitude": -80.1583279828,
    "accessName": "Wilsons",
    "riverName": "Santee River",
    "type": "Public",
    "otherName": "Dead River-Santee River"
  },
  {
    "department": "South Carolina Department of Natural Resources",
    "state": "South Carolina",
    "county": "Berkeley County",
    "latitude": 32.9677972117,
    "longitude": -79.937499013,
    "accessName": "Bushy Park - Fresh Water",
    "riverName": "Back River",
    "type": "Public",
    "otherName": "Back River-Cooper River"
  },
  {
    "department": "South Carolina Department of Natural Resources",
    "state": "South Carolina",
    "county": "Berkeley County",
    "latitude": 33.311110554,
    "longitude": -79.9976249096,
    "accessName": "Richardsons",
    "riverName": "Lake Moultrie",
    "type": "Public",
    "otherName": "Lake Moultrie"
  },
  {
    "department": "South Carolina Department of Natural Resources",
    "state": "South Carolina",
    "county": "Berkeley County",
    "latitude": 33.4021248685,
    "longitude": -79.9928290818,
    "accessName": "Amos Lee Gourdine",
    "riverName": "Lake Moultrie",
    "type": "Public",
    "otherName": "Lake Moultrie"
  },
  {
    "department": "South Carolina Department of Natural Resources",
    "state": "South Carolina",
    "county": "Charleston County",
    "latitude": 32.8377979745,
    "longitude": -80.0430987985,
    "accessName": "Pier Point",
    "riverName": "Ashley River",
    "type": "Public",
    "otherName": "Lower Ashley River"
  },
  {
    "department": "South Carolina Department of Natural Resources",
    "state": "South Carolina",
    "county": "Charleston County",
    "latitude": 32.9136968596,
    "longitude": -79.7371989253,
    "accessName": "Paradise Island Landing",
    "riverName": "Wando River",
    "type": "Public",
    "otherName": "Guerin Creek"
  },
  {
    "department": "South Carolina Department of Natural Resources",
    "state": "South Carolina",
    "county": "Charleston County",
    "latitude": 32.6023698317,
    "longitude": -80.2931277284,
    "accessName": "Steamboat Landing",
    "riverName": "North Edisto River",
    "type": "Public",
    "otherName": "Dawho River-North Edisto River"
  },
  {
    "department": "South Carolina Department of Natural Resources",
    "state": "South Carolina",
    "county": "Charleston County",
    "latitude": 32.891116686,
    "longitude": -79.971025207,
    "accessName": "R. M. Hendrick's (Virginia Av. Park)",
    "riverName": "Cooper River",
    "type": "Public",
    "otherName": "Lower Cooper River"
  },
  {
    "department": "South Carolina Department of Natural Resources",
    "state": "South Carolina",
    "county": "Charleston County",
    "latitude": 33.038488691,
    "longitude": -79.5609970517,
    "accessName": "Buck Hall",
    "riverName": "Atlantic Intracoastal Waterway",
    "type": "Public",
    "otherName": "Bulls Bay"
  },
  {
    "department": "South Carolina Department of Natural Resources",
    "state": "South Carolina",
    "county": "Charleston County",
    "latitude": 32.6683609623,
    "longitude": -79.9971341945,
    "accessName": "Battery Island",
    "riverName": "Stono River",
    "type": "Public",
    "otherName": "Stono River"
  },
  {
    "department": "South Carolina Department of Natural Resources",
    "state": "South Carolina",
    "county": "Charleston County",
    "latitude": 32.6599840104,
    "longitude": -79.9432388906,
    "accessName": "Highway 171 Bridge",
    "riverName": "Folly River",
    "type": "Public",
    "otherName": "Folly Creek"
  },
  {
    "department": "South Carolina Department of Natural Resources",
    "state": "South Carolina",
    "county": "Charleston County",
    "latitude": 32.5979504486,
    "longitude": -80.182822844,
    "accessName": "Cherry Point Landing",
    "riverName": "Bohicket Creek",
    "type": "Public",
    "otherName": "Bohicket Creek"
  },
  {
    "department": "South Carolina Department of Natural Resources",
    "state": "South Carolina",
    "county": "Charleston County",
    "latitude": 32.939812095,
    "longitude": -79.6574782594,
    "accessName": "Garris Landing",
    "riverName": "Atlantic Intracoastal Waterway",
    "type": "Public",
    "otherName": "Bulls Bay"
  },
  {
    "department": "South Carolina Department of Natural Resources",
    "state": "South Carolina",
    "county": "Charleston County",
    "latitude": 33.1773967247,
    "longitude": -79.4966988235,
    "accessName": "Stills Landing",
    "riverName": "Wambaw Creek",
    "type": "Public",
    "otherName": "Outlet Wambaw Creek"
  },
  {
    "department": "South Carolina Department of Natural Resources",
    "state": "South Carolina",
    "county": "Charleston County",
    "latitude": 32.8435426356,
    "longitude": -80.3945064027,
    "accessName": "Martins",
    "riverName": "Edisto River",
    "type": "Public",
    "otherName": "Bull Bridge Creek-Edisto River"
  },
  {
    "department": "South Carolina Department of Natural Resources",
    "state": "South Carolina",
    "county": "Charleston County",
    "latitude": 32.6787263193,
    "longitude": -80.4161714345,
    "accessName": "Willtown Bluff",
    "riverName": "Edisto River",
    "type": "Public",
    "otherName": "Hope Creek-Edisto River"
  },
  {
    "department": "South Carolina Department of Natural Resources",
    "state": "South Carolina",
    "county": "Charleston County",
    "latitude": 32.7931330416,
    "longitude": -79.876799619,
    "accessName": "Harry M. Hallman, Jr. Landing",
    "riverName": "Shem Creek",
    "type": "Public",
    "otherName": "Lower Cooper River"
  },
  {
    "department": "South Carolina Department of Natural Resources",
    "state": "South Carolina",
    "county": "Charleston County",
    "latitude": 32.8363853778,
    "longitude": -80.020989501,
    "accessName": "County Farm",
    "riverName": "Ashley River",
    "type": "Public",
    "otherName": "Lower Ashley River"
  },
  {
    "department": "South Carolina Department of Natural Resources",
    "state": "South Carolina",
    "county": "Cherokee County",
    "latitude": 35.0418098829,
    "longitude": -81.5769306149,
    "accessName": "Lake Cherokee",
    "riverName": "London Creek - Lake Cherokee",
    "type": "Public",
    "otherName": "Doolittle Creek-Broad River"
  },
  {
    "department": "South Carolina Department of Natural Resources",
    "state": "South Carolina",
    "county": "Cherokee County",
    "latitude": 35.0790280242,
    "longitude": -81.7784916544,
    "accessName": "Thicketty Creek",
    "riverName": "Thicketty Creek - Thicketty Creek Lake",
    "type": "Public",
    "otherName": "Upper Thicketty Creek"
  },
  {
    "department": "South Carolina Department of Natural Resources",
    "state": "South Carolina",
    "county": "Cherokee County",
    "latitude": 35.0266618822,
    "longitude": -81.4895467654,
    "accessName": "99 Island",
    "riverName": "Broad River",
    "type": "Public",
    "otherName": "Abingdon Creek-Broad River"
  },
  {
    "department": "South Carolina Department of Natural Resources",
    "state": "South Carolina",
    "county": "Chester County",
    "latitude": 34.703194038,
    "longitude": -81.4538257381,
    "accessName": "Woods Ferry Recreation Area",
    "riverName": "Broad River",
    "type": "Public",
    "otherName": "Hughes Creek-Broad River"
  },
  {
    "department": "South Carolina Department of Natural Resources",
    "state": "South Carolina",
    "county": "Chester County",
    "latitude": 34.6180021398,
    "longitude": -80.894200083,
    "accessName": "Fishing Creek",
    "riverName": "Fishing Creek Pond",
    "type": "Public",
    "otherName": "Fishing Creek Reservoir-Catawba River"
  },
  {
    "department": "South Carolina Department of Natural Resources",
    "state": "South Carolina",
    "county": "Chester County",
    "latitude": 34.7958609425,
    "longitude": -81.1837150109,
    "accessName": "Lake Oliphant",
    "riverName": "Lake Oliphant",
    "type": "Public",
    "otherName": "Conrad Creek"
  },
  {
    "department": "South Carolina Department of Natural Resources",
    "state": "South Carolina",
    "county": "Chesterfield County",
    "latitude": 34.6985625172,
    "longitude": -79.8743760701,
    "accessName": "Laney",
    "riverName": "Great Pee Dee River",
    "type": "Public",
    "otherName": "Huckleberry Branch-Great Pee Dee River"
  },
  {
    "department": "South Carolina Department of Natural Resources",
    "state": "South Carolina",
    "county": "Chesterfield County",
    "latitude": 34.4688569271,
    "longitude": -80.1684806608,
    "accessName": "Lake Robinson",
    "riverName": "Lake Robinson",
    "type": "Public",
    "otherName": "Lake Robinson-Black Creek"
  },
  {
    "department": "South Carolina Department of Natural Resources",
    "state": "South Carolina",
    "county": "Chesterfield County",
    "latitude": 34.5636118329,
    "longitude": -80.2253310034,
    "accessName": "Pool D",
    "riverName": "Ham Creek",
    "type": "Public",
    "otherName": "Ham Creek"
  },
  {
    "department": "South Carolina Department of Natural Resources",
    "state": "South Carolina",
    "county": "Chesterfield County",
    "latitude": 34.5780401572,
    "longitude": -80.1761294994,
    "accessName": "Mays Lake",
    "riverName": "Mays Lake",
    "type": "Public",
    "otherName": "Skipper Creek-Black Creek"
  },
  {
    "department": "South Carolina Department of Natural Resources",
    "state": "South Carolina",
    "county": "Chesterfield County",
    "latitude": 34.6304135886,
    "longitude": -80.218113526,
    "accessName": "Pool L",
    "riverName": "Little Skipper Creek",
    "type": "Public",
    "otherName": "Skipper Creek-Black Creek"
  },
  {
    "department": "South Carolina Department of Natural Resources",
    "state": "South Carolina",
    "county": "Clarendon County",
    "latitude": 33.5588970227,
    "longitude": -80.2038999439,
    "accessName": "C. Alex Harvin III",
    "riverName": "Lake Marion",
    "type": "Public",
    "otherName": "Potato Creek-Santee River"
  },
  {
    "department": "South Carolina Department of Natural Resources",
    "state": "South Carolina",
    "county": "Clarendon County",
    "latitude": 33.5353878005,
    "longitude": -80.3316796459,
    "accessName": "Taw Caw Park",
    "riverName": "Lake Marion",
    "type": "Public",
    "otherName": "Tawcaw Creek"
  },
  {
    "department": "South Carolina Department of Natural Resources",
    "state": "South Carolina",
    "county": "Clarendon County",
    "latitude": 33.5716130938,
    "longitude": -80.2161909433,
    "accessName": "White Oak III",
    "riverName": "Lake Marion",
    "type": "Public",
    "otherName": "Potato Creek-Santee River"
  },
  {
    "department": "South Carolina Department of Natural Resources",
    "state": "South Carolina",
    "county": "Clarendon County",
    "latitude": 33.5242067182,
    "longitude": -80.3083158632,
    "accessName": "John C. Land III",
    "riverName": "Lake Marion",
    "type": "Public",
    "otherName": "Tawcaw Creek"
  },
  {
    "department": "South Carolina Department of Natural Resources",
    "state": "South Carolina",
    "county": "Colleton County",
    "latitude": 32.6131988717,
    "longitude": -80.4818493039,
    "accessName": "Brickyard Ferry (Bridge)",
    "riverName": "Ashepoo River",
    "type": "Public",
    "otherName": "Lower Ashepoo River"
  },
  {
    "department": "South Carolina Department of Natural Resources",
    "state": "South Carolina",
    "county": "Colleton County",
    "latitude": 32.7838976266,
    "longitude": -80.5330993223,
    "accessName": "Prices Bridge",
    "riverName": "Horseshoe Creek",
    "type": "Public",
    "otherName": "Horseshoe Creek"
  },
  {
    "department": "South Carolina Department of Natural Resources",
    "state": "South Carolina",
    "county": "Colleton County",
    "latitude": 32.7142547344,
    "longitude": -80.6942398178,
    "accessName": "Cuckholds Landing",
    "riverName": "Cuckholds Creek",
    "type": "Public",
    "otherName": "Cuckolds Creek"
  },
  {
    "department": "South Carolina Department of Natural Resources",
    "state": "South Carolina",
    "county": "Colleton County",
    "latitude": 32.7359330429,
    "longitude": -80.4517410739,
    "accessName": "West Bank",
    "riverName": "Edisto River",
    "type": "Public",
    "otherName": "Hope Creek-Edisto River"
  },
  {
    "department": "South Carolina Department of Natural Resources",
    "state": "South Carolina",
    "county": "Colleton County",
    "latitude": 32.9121772174,
    "longitude": -80.4069172043,
    "accessName": "Sullivans Ferry",
    "riverName": "Edisto River",
    "type": "Public",
    "otherName": "Spooler Swamp-Edisto River"
  },
  {
    "department": "South Carolina Department of Natural Resources",
    "state": "South Carolina",
    "county": "Colleton County",
    "latitude": 32.9658267272,
    "longitude": -80.4182516374,
    "accessName": "Good Hope Landing",
    "riverName": "Edisto River",
    "type": "Public",
    "otherName": "Deep Creek-Edisto River"
  },
  {
    "department": "South Carolina Department of Natural Resources",
    "state": "South Carolina",
    "county": "Colleton County",
    "latitude": 33.0548260884,
    "longitude": -80.4497306449,
    "accessName": "Mars Old Field Landing",
    "riverName": "Edisto River",
    "type": "Public",
    "otherName": "Poorly Branch-Edisto River"
  },
  {
    "department": "South Carolina Department of Natural Resources",
    "state": "South Carolina",
    "county": "Colleton County",
    "latitude": 32.6979898718,
    "longitude": -80.8118627332,
    "accessName": "Colleton County Public Landing",
    "riverName": "Combahee River",
    "type": "Public",
    "otherName": "Middle Combahee River"
  },
  {
    "department": "South Carolina Department of Natural Resources",
    "state": "South Carolina",
    "county": "Colleton County",
    "latitude": 32.6341988765,
    "longitude": -80.5876431381,
    "accessName": "Old Chehaw Landing",
    "riverName": "Chehaw River",
    "type": "Public",
    "otherName": "Chehaw River"
  },
  {
    "department": "South Carolina Department of Natural Resources",
    "state": "South Carolina",
    "county": "Darlington County",
    "latitude": 34.3254457701,
    "longitude": -79.7238368282,
    "accessName": "Whipples Landing",
    "riverName": "Louthers Lake",
    "type": "Public",
    "otherName": "Rogers Lake-Great Pee Dee River"
  },
  {
    "department": "South Carolina Department of Natural Resources",
    "state": "South Carolina",
    "county": "Darlington County",
    "latitude": 34.3880739092,
    "longitude": -80.0690380872,
    "accessName": "Sonovista Park",
    "riverName": "Prestwood Lake",
    "type": "Public",
    "otherName": "Beaverdam Creek-Black Creek"
  },
  {
    "department": "South Carolina Department of Natural Resources",
    "state": "South Carolina",
    "county": "Dillon County",
    "latitude": 34.3340309391,
    "longitude": -79.3243105982,
    "accessName": "Lester Road Bridge",
    "riverName": "Little Pee Dee River",
    "type": "Public",
    "otherName": "Bell Swamp Branch-Little Pee Dee River"
  },
  {
    "department": "South Carolina Department of Natural Resources",
    "state": "South Carolina",
    "county": "Dillon County",
    "latitude": 34.4704130216,
    "longitude": -79.365026018,
    "accessName": "Moccasins Bluff",
    "riverName": "Little Pee Dee River",
    "type": "Public",
    "otherName": "Ropers Mill Branch-Little Pee Dee River"
  },
  {
    "department": "South Carolina Department of Natural Resources",
    "state": "South Carolina",
    "county": "Dillon County",
    "latitude": 34.3687223025,
    "longitude": -79.3539690471,
    "accessName": "Dillon County Park",
    "riverName": "Little Pee Dee River",
    "type": "Public",
    "otherName": "Bell Swamp Branch-Little Pee Dee River"
  },
  {
    "department": "South Carolina Department of Natural Resources",
    "state": "South Carolina",
    "county": "Dorchester County",
    "latitude": 33.0648340926,
    "longitude": -80.6130143527,
    "accessName": "T. Coke Weeks",
    "riverName": "Edisto River",
    "type": "Public",
    "otherName": "Skull Branch-Edisto River"
  },
  {
    "department": "South Carolina Department of Natural Resources",
    "state": "South Carolina",
    "county": "Fairfield County",
    "latitude": 34.3911629777,
    "longitude": -80.8293424893,
    "accessName": "June Creek",
    "riverName": "Wateree River - Lake Wateree",
    "type": "Public",
    "otherName": "Lake Wateree-Catawba River"
  },
  {
    "department": "South Carolina Department of Natural Resources",
    "state": "South Carolina",
    "county": "Fairfield County",
    "latitude": 34.4377119305,
    "longitude": -80.875776742,
    "accessName": "Taylor Creek",
    "riverName": "Taylor Creek - Lake Wateree",
    "type": "Public",
    "otherName": "Lake Wateree-Catawba River"
  },
  {
    "department": "South Carolina Department of Natural Resources",
    "state": "South Carolina",
    "county": "Fairfield County",
    "latitude": 34.5390988224,
    "longitude": -80.8903402471,
    "accessName": "Debutary",
    "riverName": "Fishing Creek",
    "type": "Public",
    "otherName": "Fishing Creek Reservoir-Catawba River"
  },
  {
    "department": "South Carolina Department of Natural Resources",
    "state": "South Carolina",
    "county": "Fairfield County",
    "latitude": 34.4328597705,
    "longitude": -80.8583458747,
    "accessName": "Lake Wateree State Park",
    "riverName": "Wateree River - Lake Wateree",
    "type": "Public",
    "otherName": "Lake Wateree-Catawba River"
  },
  {
    "department": "South Carolina Department of Natural Resources",
    "state": "South Carolina",
    "county": "Fairfield County",
    "latitude": 34.3275474721,
    "longitude": -81.2856253133,
    "accessName": "Lake Monticello East",
    "riverName": "Lake Monticello",
    "type": "Public",
    "otherName": "Monticello Reservoir"
  },
  {
    "department": "South Carolina Department of Natural Resources",
    "state": "South Carolina",
    "county": "Oconee County",
    "latitude": 34.5958519016,
    "longitude": -82.9178198029,
    "accessName": "Timberland",
    "riverName": "Coneross Creek - Lake Hartwell",
    "type": "Public",
    "otherName": "Lower Coneross Creek"
  },
  {
    "department": "South Carolina Department of Natural Resources",
    "state": "South Carolina",
    "county": "Oconee County",
    "latitude": 34.6815890072,
    "longitude": -82.8658526854,
    "accessName": "Seneca Creek",
    "riverName": "Seneca Creek - Lake Hartwell",
    "type": "Public",
    "otherName": "Upper Seneca River"
  },
  {
    "department": "South Carolina Department of Natural Resources",
    "state": "South Carolina",
    "county": "Oconee County",
    "latitude": 34.5431365573,
    "longitude": -83.101967949,
    "accessName": "Choestoa Park",
    "riverName": "Tugaloo River - Lake Hartwell",
    "type": "Public",
    "otherName": "Lower Tugaloo River"
  },
  {
    "department": "South Carolina Department of Natural Resources",
    "state": "South Carolina",
    "county": "Oconee County",
    "latitude": 34.4879835882,
    "longitude": -83.030393286,
    "accessName": "Lake Hartwell State Park",
    "riverName": "Tugaloo River - Lake Hartwell",
    "type": "Public",
    "otherName": "Lower Tugaloo River"
  },
  {
    "department": "South Carolina Department of Natural Resources",
    "state": "South Carolina",
    "county": "Oconee County",
    "latitude": 34.4897855095,
    "longitude": -83.0044900638,
    "accessName": "Fairplay",
    "riverName": "Tugaloo River - Lake Hartwell",
    "type": "Public",
    "otherName": "Lower Tugaloo River"
  },
  {
    "department": "South Carolina Department of Natural Resources",
    "state": "South Carolina",
    "county": "Oconee County",
    "latitude": 34.5998594333,
    "longitude": -82.9078000821,
    "accessName": "Friendship",
    "riverName": "Coneross Creek - Lake Hartwell",
    "type": "Public",
    "otherName": "Lower Coneross Creek"
  },
  {
    "department": "South Carolina Department of Natural Resources",
    "state": "South Carolina",
    "county": "Oconee County",
    "latitude": 34.6401625872,
    "longitude": -82.866738309,
    "accessName": "Martin Creek",
    "riverName": "Martin Creek - Lake Hartwell",
    "type": "Public",
    "otherName": "Upper Seneca River"
  },
  {
    "department": "South Carolina Department of Natural Resources",
    "state": "South Carolina",
    "county": "Oconee County",
    "latitude": 34.7350124791,
    "longitude": -82.8746700197,
    "accessName": "Lawrence Bridge",
    "riverName": "Seneca River - Lake Hartwell",
    "type": "Public",
    "otherName": "Outlet Keowee River-Hartwell Lake"
  },
  {
    "department": "South Carolina Department of Natural Resources",
    "state": "South Carolina",
    "county": "Oconee County",
    "latitude": 34.8565699231,
    "longitude": -82.908573502,
    "accessName": "Keowee Town Access",
    "riverName": "Keowee River - Lake Keowee",
    "type": "Public",
    "otherName": "Keowee River-Lake Keowee"
  },
  {
    "department": "South Carolina Department of Natural Resources",
    "state": "South Carolina",
    "county": "Oconee County",
    "latitude": 34.8281287533,
    "longitude": -82.9412328438,
    "accessName": "Stamp Creek",
    "riverName": "Little River - Lake Keowee",
    "type": "Public",
    "otherName": "Middle Little River-Lake Keowee"
  },
  {
    "department": "South Carolina Department of Natural Resources",
    "state": "South Carolina",
    "county": "Oconee County",
    "latitude": 34.7358928584,
    "longitude": -82.9855529178,
    "accessName": "Cane Creek",
    "riverName": "Cane Creek - Lake Keowee",
    "type": "Public",
    "otherName": "Cane Creek-Little River"
  },
  {
    "department": "South Carolina Department of Natural Resources",
    "state": "South Carolina",
    "county": "Oconee County",
    "latitude": 34.7112439085,
    "longitude": -82.9667278805,
    "accessName": "South Cove",
    "riverName": "Cane Creek - Lake Keowee",
    "type": "Public",
    "otherName": "Cane Creek-Little River"
  },
  {
    "department": "South Carolina Department of Natural Resources",
    "state": "South Carolina",
    "county": "Oconee County",
    "latitude": 34.9632130994,
    "longitude": -82.9506027118,
    "accessName": "Devils Fork 2",
    "riverName": "Whitewater River - Lake Jocassee",
    "type": "Public",
    "otherName": "Whitewater River"
  },
  {
    "department": "South Carolina Department of Natural Resources",
    "state": "South Carolina",
    "county": "Oconee County",
    "latitude": 34.9672352401,
    "longitude": -82.9539342923,
    "accessName": "Devils Fork 1",
    "riverName": "Whitewater River - Lake Jocassee",
    "type": "Public",
    "otherName": "Whitewater River"
  },
  {
    "department": "South Carolina Department of Natural Resources",
    "state": "South Carolina",
    "county": "Oconee County",
    "latitude": 34.9534558347,
    "longitude": -82.946671647,
    "accessName": "Jocassee 1",
    "riverName": "Whitewater River - Lake Jocassee",
    "type": "Public",
    "otherName": "Whitewater River"
  },
  {
    "department": "South Carolina Department of Natural Resources",
    "state": "South Carolina",
    "county": "Oconee County",
    "latitude": 34.9551707318,
    "longitude": -82.945301103,
    "accessName": "Jocassee 2",
    "riverName": "Whitewater River - Lake Jocassee",
    "type": "Public",
    "otherName": "Whitewater River"
  },
  {
    "department": "South Carolina Department of Natural Resources",
    "state": "South Carolina",
    "county": "Orangeburg County",
    "latitude": 33.4159514438,
    "longitude": -80.3225279922,
    "accessName": "Cathead",
    "riverName": "Lake Marion",
    "type": "Public",
    "otherName": "Lake Marion-Santee River"
  },
  {
    "department": "South Carolina Department of Natural Resources",
    "state": "South Carolina",
    "county": "Orangeburg County",
    "latitude": 33.455349968,
    "longitude": -81.2655159981,
    "accessName": "Hog Pen",
    "riverName": "South Edisto River",
    "type": "Public",
    "otherName": "Snake Branch-South Fork Edisto River"
  },
  {
    "department": "South Carolina Department of Natural Resources",
    "state": "South Carolina",
    "county": "Orangeburg County",
    "latitude": 33.5765665575,
    "longitude": -81.0385531848,
    "accessName": "Slab Landing Road Bridge",
    "riverName": "North Fork Edisto River",
    "type": "Public",
    "otherName": "Salem Creek-North Fork Edisto River"
  },
  {
    "department": "South Carolina Department of Natural Resources",
    "state": "South Carolina",
    "county": "Orangeburg County",
    "latitude": 33.2801886222,
    "longitude": -80.8810621752,
    "accessName": "Kill Kare",
    "riverName": "North Fork Edisto River",
    "type": "Public",
    "otherName": "Whirlwind Creek-North Fork Edisto River"
  },
  {
    "department": "South Carolina Department of Natural Resources",
    "state": "South Carolina",
    "county": "Orangeburg County",
    "latitude": 33.5519048752,
    "longitude": -80.5015795546,
    "accessName": "Santee State Park",
    "riverName": "Lake Marion",
    "type": "Public",
    "otherName": "Big Poplar Creek"
  },
  {
    "department": "South Carolina Department of Natural Resources",
    "state": "South Carolina",
    "county": "Orangeburg County",
    "latitude": 33.3554568165,
    "longitude": -80.8874523501,
    "accessName": "Rowes Bridge",
    "riverName": "North Fork Edisto River",
    "type": "Public",
    "otherName": "Whirlwind Creek-North Fork Edisto River"
  },
  {
    "department": "South Carolina Department of Natural Resources",
    "state": "South Carolina",
    "county": "Orangeburg County",
    "latitude": 33.4800417511,
    "longitude": -80.8738066782,
    "accessName": "Orangeburg City",
    "riverName": "North Fork Edisto River",
    "type": "Public",
    "otherName": "Whirlwind Creek-North Fork Edisto River"
  },
  {
    "department": "South Carolina Department of Natural Resources",
    "state": "South Carolina",
    "county": "Orangeburg County",
    "latitude": 33.4107970497,
    "longitude": -80.3099999391,
    "accessName": "Eutaw Springs",
    "riverName": "Lake Marion",
    "type": "Public",
    "otherName": "Lake Marion-Santee River"
  },
  {
    "department": "South Carolina Department of Natural Resources",
    "state": "South Carolina",
    "county": "Pickens County",
    "latitude": 34.8114558258,
    "longitude": -82.8822951664,
    "accessName": "Warpath",
    "riverName": "Keowee River - Lake Keowee",
    "type": "Public",
    "otherName": "Keowee River-Lake Keowee"
  },
  {
    "department": "South Carolina Department of Natural Resources",
    "state": "South Carolina",
    "county": "Pickens County",
    "latitude": 34.7043980396,
    "longitude": -82.8367004805,
    "accessName": "Twelvemile Creek",
    "riverName": "Twelvemile Creek - Lake Hartwell",
    "type": "Public",
    "otherName": "Lower Twelvemile Creek-Keowee River"
  },
  {
    "department": "South Carolina Department of Natural Resources",
    "state": "South Carolina",
    "county": "Oconee County",
    "latitude": 34.6223130599,
    "longitude": -82.8536133602,
    "accessName": "Twin Lakes",
    "riverName": "Seneca River - Lake Hartwell",
    "type": "Public",
    "otherName": "Upper Seneca River"
  },
  {
    "department": "South Carolina Department of Natural Resources",
    "state": "South Carolina",
    "county": "Richland County",
    "latitude": 33.9648633444,
    "longitude": -81.0358167456,
    "accessName": "Barney Jordan",
    "riverName": "Congaree River",
    "type": "Public",
    "otherName": "Upper Congaree River"
  },
  {
    "department": "South Carolina Department of Natural Resources",
    "state": "South Carolina",
    "county": "Richland County",
    "latitude": 33.9471965519,
    "longitude": -80.6289000389,
    "accessName": "Highway 76 Bridge",
    "riverName": "Wateree River",
    "type": "Public",
    "otherName": "Wateree River"
  },
  {
    "department": "South Carolina Department of Natural Resources",
    "state": "South Carolina",
    "county": "Spartanburg County",
    "latitude": 35.1104180082,
    "longitude": -82.0421950296,
    "accessName": "Lake William C. Bowen - 1",
    "riverName": "South Pacolet River - Lake William C. Bowen",
    "type": "Public",
    "otherName": "Lower South Pacolet River"
  },
  {
    "department": "South Carolina Department of Natural Resources",
    "state": "South Carolina",
    "county": "Spartanburg County",
    "latitude": 34.9916492727,
    "longitude": -82.0932896232,
    "accessName": "Lake Cooley",
    "riverName": "Jordan Creek - Lake Cooley",
    "type": "Public",
    "otherName": "Upper North Tyger River"
  },
  {
    "department": "South Carolina Department of Natural Resources",
    "state": "South Carolina",
    "county": "Spartanburg County",
    "latitude": 35.0862465033,
    "longitude": -81.8867733285,
    "accessName": "Lake Blalock Park",
    "riverName": "Pacolet River",
    "type": "Public",
    "otherName": "Upper Pacolet River"
  },
  {
    "department": "South Carolina Department of Natural Resources",
    "state": "South Carolina",
    "county": "Spartanburg County",
    "latitude": 34.9944833762,
    "longitude": -82.1970223287,
    "accessName": "Lake Lyman",
    "riverName": "Middle Tyger River - Lake Lyman",
    "type": "Public",
    "otherName": "Upper Middle Tyger River"
  },
  {
    "department": "South Carolina Department of Natural Resources",
    "state": "South Carolina",
    "county": "Sumter County",
    "latitude": 33.6593616086,
    "longitude": -80.5150441864,
    "accessName": "Rimini",
    "riverName": "Lake Marion",
    "type": "Public",
    "otherName": "Lake Marion-Santee River"
  },
  {
    "department": "South Carolina Department of Natural Resources",
    "state": "South Carolina",
    "county": "Sumter County",
    "latitude": 33.7013796158,
    "longitude": -80.5368453538,
    "accessName": "Sparkleberry",
    "riverName": "Lake Marion",
    "type": "Public",
    "otherName": "Lake Marion-Santee River"
  },
  {
    "department": "South Carolina Department of Natural Resources",
    "state": "South Carolina",
    "county": "Union County",
    "latitude": 34.7741638062,
    "longitude": -81.5151483158,
    "accessName": "John D. Long",
    "riverName": "Hughes Creek - Lake John D. Long",
    "type": "Public",
    "otherName": "Hughes Creek-Broad River"
  },
  {
    "department": "South Carolina Department of Natural Resources",
    "state": "South Carolina",
    "county": "Union County",
    "latitude": 34.8574048576,
    "longitude": -81.6791433295,
    "accessName": "Jonesville Reservoir",
    "riverName": "Eison Branch - Jonesville Reservoir",
    "type": "Public",
    "otherName": "Lower Pacolet River"
  },
  {
    "department": "South Carolina Department of Natural Resources",
    "state": "South Carolina",
    "county": "Williamsburg County",
    "latitude": 33.4950774994,
    "longitude": -79.9604718793,
    "accessName": "Highway 52 Bridge",
    "riverName": "Santee River",
    "type": "Public",
    "otherName": "Penn Branch-Santee River"
  },
  {
    "department": "South Carolina Department of Natural Resources",
    "state": "South Carolina",
    "county": "Horry County",
    "latitude": 33.7296797086,
    "longitude": -79.0528912814,
    "accessName": "Bucksville",
    "riverName": "Waccamaw River",
    "type": "Public",
    "otherName": "Mills Pond-Waccamaw River"
  },
  {
    "department": "South Carolina Department of Natural Resources",
    "state": "South Carolina",
    "county": "Horry County",
    "latitude": 34.2927252723,
    "longitude": -79.0742122751,
    "accessName": "Causey Landing",
    "riverName": "Lumber River",
    "type": "Public",
    "otherName": "Lumber River"
  },
  {
    "department": "South Carolina Department of Natural Resources",
    "state": "South Carolina",
    "county": "Horry County",
    "latitude": 33.6678331273,
    "longitude": -79.0608211974,
    "accessName": "Enterprise",
    "riverName": "Atlantic Intracoastal Waterway",
    "type": "Public",
    "otherName": "Waccamaw River-Atlantic Intracoastal Waterway"
  },
  {
    "department": "South Carolina Department of Natural Resources",
    "state": "South Carolina",
    "county": "Horry County",
    "latitude": 33.8419813045,
    "longitude": -78.6174594635,
    "accessName": "Cherry Grove",
    "riverName": "Williams Creek",
    "type": "Public",
    "otherName": "Hog Inlet-Frontal Atlantic Ocean"
  },
  {
    "department": "South Carolina Department of Natural Resources",
    "state": "South Carolina",
    "county": "Horry County",
    "latitude": 33.6866973339,
    "longitude": -79.0074986475,
    "accessName": "Highway 544 Bridge",
    "riverName": "Atlantic Intracoastal Waterway",
    "type": "Public",
    "otherName": "Socastee Swamp-Atlantic Intracoastal Waterway"
  },
  {
    "department": "South Carolina Department of Natural Resources",
    "state": "South Carolina",
    "county": "Jasper County",
    "latitude": 32.419275391,
    "longitude": -80.8516208647,
    "accessName": "Bolan Hall Landing",
    "riverName": "Euhaw Creek",
    "type": "Semi-Private",
    "otherName": "Euhaw Creek"
  },
  {
    "department": "South Carolina Department of Natural Resources",
    "state": "South Carolina",
    "county": "Jasper County",
    "latitude": 32.3391164888,
    "longitude": -81.1278714517,
    "accessName": "Becks Ferry",
    "riverName": "Savannah River",
    "type": "Public",
    "otherName": "Dasher Creek-Savannah River"
  },
  {
    "department": "South Carolina Department of Natural Resources",
    "state": "South Carolina",
    "county": "Jasper County",
    "latitude": 32.485372248,
    "longitude": -81.2075731145,
    "accessName": "B & C Landing",
    "riverName": "Savannah River (canal to river)",
    "type": "Public",
    "otherName": "Hog Branch-Savannah River"
  },
  {
    "department": "South Carolina Department of Natural Resources",
    "state": "South Carolina",
    "county": "Jasper County",
    "latitude": 32.2868439953,
    "longitude": -81.1184367026,
    "accessName": "Millstone Landing",
    "riverName": "Savannah River",
    "type": "Public",
    "otherName": "Dasher Creek-Savannah River"
  },
  {
    "department": "South Carolina Department of Natural Resources",
    "state": "South Carolina",
    "county": "Jasper County",
    "latitude": 32.6784534346,
    "longitude": -80.9521263983,
    "accessName": "Corner Lake",
    "riverName": "Coosawhatchie River",
    "type": "Public",
    "otherName": "Early Branch-Coosawhatchie River"
  },
  {
    "department": "South Carolina Department of Natural Resources",
    "state": "South Carolina",
    "county": "Jasper County",
    "latitude": 32.1296945483,
    "longitude": -81.0135057343,
    "accessName": "Turnbridge Landing",
    "riverName": "Wright River",
    "type": "Public",
    "otherName": "Wright River"
  },
  {
    "department": "South Carolina Department of Natural Resources",
    "state": "South Carolina",
    "county": "Jasper County",
    "latitude": 32.1943562367,
    "longitude": -80.9989764077,
    "accessName": "Cooks Landing",
    "riverName": "New River",
    "type": "Public",
    "otherName": "Lower New River-Atlantic Intracoastal Waterway"
  },
  {
    "department": "South Carolina Department of Natural Resources",
    "state": "South Carolina",
    "county": "Kershaw County",
    "latitude": 34.4340633016,
    "longitude": -80.7700220557,
    "accessName": "Beaver Creek (Wateree Marina)",
    "riverName": "Lake Wateree",
    "type": "Public",
    "otherName": "Beaver Creek-Catawba River"
  },
  {
    "department": "South Carolina Department of Natural Resources",
    "state": "South Carolina",
    "county": "Kershaw County",
    "latitude": 34.3334379537,
    "longitude": -80.6997268928,
    "accessName": "Lugoff",
    "riverName": "Wateree River",
    "type": "Public",
    "otherName": "Rocky Branch-Wateree River"
  },
  {
    "department": "South Carolina Department of Natural Resources",
    "state": "South Carolina",
    "county": "Lancaster County",
    "latitude": 34.7091150273,
    "longitude": -80.866006835,
    "accessName": "Highway 9 Bridge",
    "riverName": "Catawba River",
    "type": "Public",
    "otherName": "Fishing Creek Reservoir-Catawba River"
  },
  {
    "department": "South Carolina Department of Natural Resources",
    "state": "South Carolina",
    "county": "Lancaster County",
    "latitude": 34.551116845,
    "longitude": -80.8703606705,
    "accessName": "Stumpy Pond",
    "riverName": "Stumpy Pond (Cedar Creek Reservoir)",
    "type": "Public",
    "otherName": "Fishing Creek Reservoir-Catawba River"
  },
  {
    "department": "South Carolina Department of Natural Resources",
    "state": "South Carolina",
    "county": "Lancaster County",
    "latitude": 34.5390194039,
    "longitude": -80.87356179,
    "accessName": "Cedar Creek",
    "riverName": "Catawba River",
    "type": "Public",
    "otherName": "Headwaters Lake Wateree-Catawba River"
  },
  {
    "department": "South Carolina Department of Natural Resources",
    "state": "South Carolina",
    "county": "Lancaster County",
    "latitude": 34.7021628808,
    "longitude": -80.7549847621,
    "accessName": "William L. Catoe",
    "riverName": "Bear Creek - Lancaster Reservoir",
    "type": "Public",
    "otherName": "Bear Creek-Cane Creek"
  },
  {
    "department": "South Carolina Department of Natural Resources",
    "state": "South Carolina",
    "county": "Laurens County",
    "latitude": 34.2936240822,
    "longitude": -82.0717048934,
    "accessName": "Laurens Shrine Club",
    "riverName": "Saluda RIver - Lake Greenwood",
    "type": "Public",
    "otherName": "Upper Lake Greenwood-Saluda River"
  },
  {
    "department": "South Carolina Department of Natural Resources",
    "state": "South Carolina",
    "county": "Lee County",
    "latitude": 34.249898777,
    "longitude": -80.2127594215,
    "accessName": "Highway 15 Bridge",
    "riverName": "Lynches River",
    "type": "Public",
    "otherName": "Merchants Mill Creek-Lynches River"
  },
  {
    "department": "South Carolina Department of Natural Resources",
    "state": "South Carolina",
    "county": "Lee County",
    "latitude": 34.1035567819,
    "longitude": -80.3148953557,
    "accessName": "Lake Ashwood",
    "riverName": "Lake Ashwood",
    "type": "Public",
    "otherName": "Mcgrits Creek"
  },
  {
    "department": "South Carolina Department of Natural Resources",
    "state": "South Carolina",
    "county": "Lexington County",
    "latitude": 34.0959099574,
    "longitude": -81.3844701911,
    "accessName": "Rocky Point",
    "riverName": "Saluda River - Lake Murray",
    "type": "Public",
    "otherName": "Lower Camping Creek-Saluda River"
  },
  {
    "department": "South Carolina Department of Natural Resources",
    "state": "South Carolina",
    "county": "Lexington County",
    "latitude": 33.9491297318,
    "longitude": -81.0295082711,
    "accessName": "Thomas H. Newman",
    "riverName": "Congaree River",
    "type": "Public",
    "otherName": "Middle Congaree River"
  },
  {
    "department": "South Carolina Department of Natural Resources",
    "state": "South Carolina",
    "county": "Lexington County",
    "latitude": 34.0459800652,
    "longitude": -81.1912709131,
    "accessName": "James R. Metts (Hope Ferry)",
    "riverName": "Saluda River",
    "type": "Public",
    "otherName": "Outlet Saluda River"
  },
  {
    "department": "South Carolina Department of Natural Resources",
    "state": "South Carolina",
    "county": "Lexington County",
    "latitude": 34.0651693795,
    "longitude": -81.2225809939,
    "accessName": "Lake Murray Dam",
    "riverName": "Saluda River - Lake Murray",
    "type": "Public",
    "otherName": "Lower Lake Murray-Saluda River"
  },
  {
    "department": "South Carolina Department of Natural Resources",
    "state": "South Carolina",
    "county": "McCormick County",
    "latitude": 33.8599006178,
    "longitude": -82.3589701664,
    "accessName": "New Bordeaux",
    "riverName": "Little River - Lake J. Strom Thurmond",
    "type": "Public",
    "otherName": "Lower Little River Fork of Thurmond Lake"
  },
  {
    "department": "South Carolina Department of Natural Resources",
    "state": "South Carolina",
    "county": "McCormick County",
    "latitude": 33.9989345469,
    "longitude": -82.567465833,
    "accessName": "Mt. Pleasant",
    "riverName": "Savannah River - Lake J. Strom Thurmond",
    "type": "Public",
    "otherName": "Upper Thurmond Lake"
  },
  {
    "department": "South Carolina Department of Natural Resources",
    "state": "South Carolina",
    "county": "McCormick County",
    "latitude": 33.9579441626,
    "longitude": -82.5341109873,
    "accessName": "Mt. Carmel Park",
    "riverName": "Savannah River - Lake J. Strom Thurmond",
    "type": "Public",
    "otherName": "Upper Thurmond Lake"
  },
  {
    "department": "South Carolina Department of Natural Resources",
    "state": "South Carolina",
    "county": "McCormick County",
    "latitude": 33.9199978944,
    "longitude": -82.4897008426,
    "accessName": "Leroys Ferry",
    "riverName": "Savannah River - Lake J. Strom Thurmond",
    "type": "Public",
    "otherName": "Upper Thurmond Lake"
  },
  {
    "department": "South Carolina Department of Natural Resources",
    "state": "South Carolina",
    "county": "McCormick County",
    "latitude": 33.877774484,
    "longitude": -82.3615309075,
    "accessName": "Bakers Creek Welcome Center",
    "riverName": "Little River - Lake J. Strom Thurmond",
    "type": "Public",
    "otherName": "Lower Little River Fork of Thurmond Lake"
  },
  {
    "department": "South Carolina Department of Natural Resources",
    "state": "South Carolina",
    "county": "McCormick County",
    "latitude": 33.8864080157,
    "longitude": -82.3682366994,
    "accessName": "Baker Creek State Park",
    "riverName": "Little River - Lake J. Strom Thurmond",
    "type": "Public",
    "otherName": "Lower Little River Fork of Thurmond Lake"
  },
  {
    "department": "South Carolina Department of Natural Resources",
    "state": "South Carolina",
    "county": "McCormick County",
    "latitude": 33.8341975349,
    "longitude": -82.3408008421,
    "accessName": "Hawe Creek Campsite",
    "riverName": "Savannah River - Lake J. Strom Thurmond",
    "type": "Public",
    "otherName": "Lower Thurmond Lake"
  },
  {
    "department": "South Carolina Department of Natural Resources",
    "state": "South Carolina",
    "county": "McCormick County",
    "latitude": 33.8145802457,
    "longitude": -82.2849358869,
    "accessName": "Landrum Creek",
    "riverName": "Savannah River - Lake J. Strom Thurmond",
    "type": "Public",
    "otherName": "Lower Thurmond Lake"
  },
  {
    "department": "South Carolina Department of Natural Resources",
    "state": "South Carolina",
    "county": "McCormick County",
    "latitude": 33.733432642,
    "longitude": -82.2272638193,
    "accessName": "Modoc Park",
    "riverName": "Savannah River - Lake J. Strom Thurmond",
    "type": "Public",
    "otherName": "Lower Thurmond Lake"
  },
  {
    "department": "South Carolina Department of Natural Resources",
    "state": "South Carolina",
    "county": "McCormick County",
    "latitude": 33.7183258228,
    "longitude": -82.2248176309,
    "accessName": "Modoc Camp Area",
    "riverName": "Savannah River - Lake J. Strom Thurmond",
    "type": "Public",
    "otherName": "Lower Thurmond Lake"
  },
  {
    "department": "South Carolina Department of Natural Resources",
    "state": "South Carolina",
    "county": "McCormick County",
    "latitude": 33.6809095692,
    "longitude": -82.201774342,
    "accessName": "Scotts Ferry",
    "riverName": "Savannah River - Lake J. Strom Thurmond",
    "type": "Public",
    "otherName": "Lower Thurmond Lake"
  },
  {
    "department": "South Carolina Department of Natural Resources",
    "state": "South Carolina",
    "county": "McCormick County",
    "latitude": 33.9343330751,
    "longitude": -82.3928309483,
    "accessName": "Long Cane Creek Picnic Area",
    "riverName": "Long Cane Creek - Lake J. Strom Thurmond",
    "type": "Public",
    "otherName": "Lower Little River Fork of Thurmond Lake"
  },
  {
    "department": "South Carolina Department of Natural Resources",
    "state": "South Carolina",
    "county": "McCormick County",
    "latitude": 33.8946702451,
    "longitude": -82.3810396816,
    "accessName": "Buffalo Creek Subdivision",
    "riverName": "Little River - Lake J. Strom Thurmond",
    "type": "Public",
    "otherName": "Lower Little River Fork of Thurmond Lake"
  },
  {
    "department": "South Carolina Department of Natural Resources",
    "state": "South Carolina",
    "county": "Marion County",
    "latitude": 34.1699322687,
    "longitude": -79.1971579459,
    "accessName": "Red Bluff",
    "riverName": "Little Pee Dee River",
    "type": "Public",
    "otherName": "Back Swamp-Little Pee Dee River"
  },
  {
    "department": "South Carolina Department of Natural Resources",
    "state": "South Carolina",
    "county": "Marion County",
    "latitude": 33.9566569121,
    "longitude": -79.3337315302,
    "accessName": "Locust Tree",
    "riverName": "Little Pee Dee River",
    "type": "Public",
    "otherName": "Cypress Creek-Little Pee Dee River"
  },
  {
    "department": "South Carolina Department of Natural Resources",
    "state": "South Carolina",
    "county": "Marion County",
    "latitude": 33.8427036957,
    "longitude": -79.3413560614,
    "accessName": "Dunham Bluff",
    "riverName": "Great Pee Dee River",
    "type": "Public",
    "otherName": "Clark Creek-Great Pee Dee River"
  },
  {
    "department": "South Carolina Department of Natural Resources",
    "state": "South Carolina",
    "county": "Marion County",
    "latitude": 34.0569291945,
    "longitude": -79.2484982416,
    "accessName": "Joseph Holiday",
    "riverName": "Little Pee Dee River",
    "type": "Public",
    "otherName": "Tredwell Swamp-Little Pee Dee River"
  },
  {
    "department": "South Carolina Department of Natural Resources",
    "state": "South Carolina",
    "county": "Marion County",
    "latitude": 34.1860595459,
    "longitude": -79.1706465027,
    "accessName": "Fork Retch",
    "riverName": "Little Pee Dee River",
    "type": "Public",
    "otherName": "Back Swamp-Little Pee Dee River"
  },
  {
    "department": "South Carolina Department of Natural Resources",
    "state": "South Carolina",
    "county": "Marion County",
    "latitude": 33.7972534695,
    "longitude": -79.2562815375,
    "accessName": "Sampson Landing",
    "riverName": "Little Pee Dee River",
    "type": "Public",
    "otherName": "Little Pee Dee Swamp-Little Pee Dee River"
  },
  {
    "department": "South Carolina Department of Natural Resources",
    "state": "South Carolina",
    "county": "Marion County",
    "latitude": 33.7404383167,
    "longitude": -79.2256335955,
    "accessName": "Sanders",
    "riverName": "Russ Creek",
    "type": "Public",
    "otherName": "Little Pee Dee Swamp-Little Pee Dee River"
  },
  {
    "department": "South Carolina Department of Natural Resources",
    "state": "South Carolina",
    "county": "Marion County",
    "latitude": 33.7321275464,
    "longitude": -79.2215997522,
    "accessName": "Parker",
    "riverName": "Russ Creek",
    "type": "Public",
    "otherName": "Little Pee Dee Swamp-Little Pee Dee River"
  },
  {
    "department": "South Carolina Department of Natural Resources",
    "state": "South Carolina",
    "county": "Marlboro County",
    "latitude": 34.6343060654,
    "longitude": -79.6726194717,
    "accessName": "Fishing Area",
    "riverName": "Lake Wallace",
    "type": "Public",
    "otherName": "Crooked Creek-Lake Wallace"
  },
  {
    "department": "South Carolina Department of Natural Resources",
    "state": "South Carolina",
    "county": "Newberry County",
    "latitude": 34.1826146326,
    "longitude": -81.7247298889,
    "accessName": "Higgins Bridge",
    "riverName": "Saluda River",
    "type": "Public",
    "otherName": "Tosity Creek-Saluda River"
  },
  {
    "department": "South Carolina Department of Natural Resources",
    "state": "South Carolina",
    "county": "McCormick County",
    "latitude": 33.9499265821,
    "longitude": -82.4299813705,
    "accessName": "Little River Quarry",
    "riverName": "Little River - Lake J. Strom Thurmond",
    "type": "Public",
    "otherName": "Upper Little River Fork of Thurmond Lake"
  },
  {
    "department": "South Carolina Department of Natural Resources",
    "state": "South Carolina",
    "county": "Abbeville County",
    "latitude": 34.1902626992,
    "longitude": -82.6300454069,
    "accessName": "Felkel",
    "riverName": "Rocky River - Lake Richard B. Russell",
    "type": "Public",
    "otherName": "Lower Rocky River"
  },
  {
    "department": "South Carolina Department of Natural Resources",
    "state": "South Carolina",
    "county": "Hampton County",
    "latitude": 32.8391618613,
    "longitude": -81.1655081264,
    "accessName": "Lake Warren (North)",
    "riverName": "Lake George Warren",
    "type": "Public",
    "otherName": "Lake George Warren-Black Creek"
  },
  {
    "department": "South Carolina Department of Natural Resources",
    "state": "South Carolina",
    "county": "Dorchester County",
    "latitude": 32.9473384671,
    "longitude": -80.1648466595,
    "accessName": "Herbert H. Jessen Landing",
    "riverName": "Ashley River",
    "type": "Public",
    "otherName": "Middle Ashley River"
  },
  {
    "department": "South Carolina Department of Natural Resources",
    "state": "South Carolina",
    "county": "Abbeville County",
    "latitude": 34.0454902506,
    "longitude": -82.5929328868,
    "accessName": "Manor",
    "riverName": "Savannah River - Lake Richard B. Russell",
    "type": "Public",
    "otherName": "Beer Garden Creek-Savannah River"
  },
  {
    "department": "South Carolina Department of Natural Resources",
    "state": "South Carolina",
    "county": "Abbeville County",
    "latitude": 34.183096719,
    "longitude": -82.7022008903,
    "accessName": "Allen Creek",
    "riverName": "Allen Creek - Lake Richard B. Russell",
    "type": "Public",
    "otherName": "Pickens Creek-Savannah River"
  },
  {
    "department": "South Carolina Department of Natural Resources",
    "state": "South Carolina",
    "county": "Aiken County",
    "latitude": 33.636144017,
    "longitude": -81.5618081626,
    "accessName": "Highway 21 Bridge",
    "riverName": "South Edisto River",
    "type": "Public",
    "otherName": "Clarks Mill Creek-South Fork Edisto River"
  },
  {
    "department": "South Carolina Department of Natural Resources",
    "state": "South Carolina",
    "county": "Allendale County",
    "latitude": 33.0611685351,
    "longitude": -81.5633405666,
    "accessName": "Little Hell",
    "riverName": "Savannah River",
    "type": "Public",
    "otherName": "Sweetwater Creek-Savannah River"
  },
  {
    "department": "South Carolina Department of Natural Resources",
    "state": "South Carolina",
    "county": "Anderson County",
    "latitude": 34.3768252524,
    "longitude": -82.8154387982,
    "accessName": "Singing Pines",
    "riverName": "Savannah River - Lake Hartwell",
    "type": "Public",
    "otherName": "Lightwood Log Creek-Savannah River"
  },
  {
    "department": "South Carolina Department of Natural Resources",
    "state": "South Carolina",
    "county": "Anderson County",
    "latitude": 34.5163490055,
    "longitude": -82.7897723415,
    "accessName": "Green Pond (North)",
    "riverName": "Deep Creek - Lake Hartwell",
    "type": "Public",
    "otherName": "Lower Six And Twenty Creek"
  },
  {
    "department": "South Carolina Department of Natural Resources",
    "state": "South Carolina",
    "county": "Anderson County",
    "latitude": 34.5155975778,
    "longitude": -82.7847002828,
    "accessName": "Jacks Landing",
    "riverName": "Deep Creek - Lake Hartwell",
    "type": "Public",
    "otherName": "Lower Six And Twenty Creek"
  },
  {
    "department": "South Carolina Department of Natural Resources",
    "state": "South Carolina",
    "county": "Edgefield County",
    "latitude": 33.7265239692,
    "longitude": -82.0405975878,
    "accessName": "Lick Fork Lake Recreation Area",
    "riverName": "Lick Fork Lake",
    "type": "Public",
    "otherName": "Horn Creek"
  },
  {
    "department": "South Carolina Department of Natural Resources",
    "state": "South Carolina",
    "county": "Abbeville County",
    "latitude": 34.1016939962,
    "longitude": -82.6173016788,
    "accessName": "Calhoun Falls State Recreational Area",
    "riverName": "Rocky River - Lake Richard B. Russell",
    "type": "Public",
    "otherName": "Lower Rocky River"
  },
  {
    "department": "South Carolina Department of Natural Resources",
    "state": "South Carolina",
    "county": "Anderson County",
    "latitude": 34.4528451344,
    "longitude": -82.595270487,
    "accessName": "McFalls Landing",
    "riverName": "Broadway Creek - Broadway Lake",
    "type": "Public",
    "otherName": "Broadway Creek"
  },
  {
    "department": "South Carolina Department of Natural Resources",
    "state": "South Carolina",
    "county": "Anderson County",
    "latitude": 34.4477016471,
    "longitude": -82.8404051993,
    "accessName": "Jarrett Access Area",
    "riverName": "Savannah River - Lake Hartwell",
    "type": "Public",
    "otherName": "Lower Seneca River"
  },
  {
    "department": "South Carolina Department of Natural Resources",
    "state": "South Carolina",
    "county": "Beaufort County",
    "latitude": 32.4843861216,
    "longitude": -80.6004288354,
    "accessName": "Sams Point",
    "riverName": "Lucy Point Creek",
    "type": "Public",
    "otherName": "Coosaw River"
  },
  {
    "department": "South Carolina Department of Natural Resources",
    "state": "South Carolina",
    "county": "Beaufort County",
    "latitude": 32.23049604,
    "longitude": -80.7993963101,
    "accessName": "Buckingham Landing (Highway 278 Bridge - West)",
    "riverName": "Mackay Creek",
    "type": "Public",
    "otherName": "Calibogue Sound"
  },
  {
    "department": "South Carolina Department of Natural Resources",
    "state": "South Carolina",
    "county": "Beaufort County",
    "latitude": 32.6663706465,
    "longitude": -80.7547431643,
    "accessName": "Sugar Hill",
    "riverName": "Combahee River",
    "type": "Public",
    "otherName": "Middle Combahee River"
  },
  {
    "department": "South Carolina Department of Natural Resources",
    "state": "South Carolina",
    "county": "Beaufort County",
    "latitude": 32.5010623475,
    "longitude": -80.6784775281,
    "accessName": "Brickyard Landing",
    "riverName": "Brickyard Creek",
    "type": "Public",
    "otherName": "Coosaw River"
  },
  {
    "department": "South Carolina Department of Natural Resources",
    "state": "South Carolina",
    "county": "Aiken County",
    "latitude": 33.5029190386,
    "longitude": -81.3909256521,
    "accessName": "Davis Bridge",
    "riverName": "South Edisto River",
    "type": "Public",
    "otherName": "South Fork Edisto River"
  },
  {
    "department": "South Carolina Department of Natural Resources",
    "state": "South Carolina",
    "county": "Anderson County",
    "latitude": 34.5356660444,
    "longitude": -82.7851726604,
    "accessName": "Asbury",
    "riverName": "Six and Twenty Creek - Lake Hartwell",
    "type": "Public",
    "otherName": "Lower Three And Twenty Creek"
  },
  {
    "department": "South Carolina Department of Natural Resources",
    "state": "South Carolina",
    "county": "Fairfield County",
    "latitude": 34.3762536272,
    "longitude": -81.3178667138,
    "accessName": "Lake Monticello West",
    "riverName": "Frees Creek - Lake Monticello",
    "type": "Public",
    "otherName": "Monticello Reservoir"
  },
  {
    "department": "South Carolina Department of Natural Resources",
    "state": "South Carolina",
    "county": "Florence County",
    "latitude": 33.8845303057,
    "longitude": -79.4099712669,
    "accessName": "Allison Landing",
    "riverName": "Great Pee Dee River",
    "type": "Public",
    "otherName": "Bull Swamp-Great Pee Dee River"
  },
  {
    "department": "South Carolina Department of Natural Resources",
    "state": "South Carolina",
    "county": "Georgetown County",
    "latitude": 33.7026689513,
    "longitude": -79.2590679132,
    "accessName": "Peters Field Landing",
    "riverName": "Pee Dee River",
    "type": "Public",
    "otherName": "Port Creek-Great Pee Dee River"
  },
  {
    "department": "South Carolina Department of Natural Resources",
    "state": "South Carolina",
    "county": "Georgetown County",
    "latitude": 33.5063751624,
    "longitude": -79.2937647929,
    "accessName": "Peters Creek",
    "riverName": "Peters Creek",
    "type": "Public",
    "otherName": "Peters Creek"
  },
  {
    "department": "South Carolina Department of Natural Resources",
    "state": "South Carolina",
    "county": "Georgetown County",
    "latitude": 33.5059713628,
    "longitude": -79.1203705842,
    "accessName": "Sandy Island Landing",
    "riverName": "Waccamaw River",
    "type": "Public",
    "otherName": "Outlet Waccamaw River-Atlantic Intracoastal Waterway"
  },
  {
    "department": "South Carolina Department of Natural Resources",
    "state": "South Carolina",
    "county": "Horry County",
    "latitude": 33.8289778835,
    "longitude": -79.0447714596,
    "accessName": "Conway Marina",
    "riverName": "Waccamaw River",
    "type": "Public",
    "otherName": "Halfway Swamp-Waccamaw River"
  },
  {
    "department": "South Carolina Department of Natural Resources",
    "state": "South Carolina",
    "county": "Horry County",
    "latitude": 33.6943350225,
    "longitude": -79.0479435089,
    "accessName": "Peach Tree",
    "riverName": "Waccamaw River",
    "type": "Public",
    "otherName": "Mills Pond-Waccamaw River"
  },
  {
    "department": "South Carolina Department of Natural Resources",
    "state": "South Carolina",
    "county": "Berkeley County",
    "latitude": 33.2109730477,
    "longitude": -80.0501946892,
    "accessName": "E. Jarvis Morris",
    "riverName": "Lake Moultrie",
    "type": "Public",
    "otherName": "Lake Moultrie"
  },
  {
    "department": "South Carolina Department of Natural Resources",
    "state": "South Carolina",
    "county": "Berkeley County",
    "latitude": 33.4042382425,
    "longitude": -79.8635182619,
    "accessName": "Arrowhead (Tailrace)",
    "riverName": "Santee River",
    "type": "Public",
    "otherName": "Rediversion Canal-Santee River"
  },
  {
    "department": "South Carolina Department of Natural Resources",
    "state": "South Carolina",
    "county": "Charleston County",
    "latitude": 32.7682928265,
    "longitude": -79.9924662903,
    "accessName": "Riverland Terrace",
    "riverName": "Elliot Cut",
    "type": "Public",
    "otherName": "Stono River-Atlantic Intracoastal Waterway"
  },
  {
    "department": "South Carolina Department of Natural Resources",
    "state": "South Carolina",
    "county": "Charleston County",
    "latitude": 32.6886929615,
    "longitude": -80.2963138942,
    "accessName": "Toogoodoo Landing",
    "riverName": "Toogoodoo Creek",
    "type": "Public",
    "otherName": "Toogoodoo Creek"
  },
  {
    "department": "South Carolina Department of Natural Resources",
    "state": "South Carolina",
    "county": "Chester County",
    "latitude": 34.5724340708,
    "longitude": -81.4223133578,
    "accessName": "Sandy and Broad River",
    "riverName": "Sandy River",
    "type": "Public",
    "otherName": "Coxs Creek-Broad River"
  },
  {
    "department": "South Carolina Department of Natural Resources",
    "state": "South Carolina",
    "county": "Williamsburg County",
    "latitude": 33.7853132512,
    "longitude": -79.3237215397,
    "accessName": "Staples Lake",
    "riverName": "Great Pee Dee River",
    "type": "Public",
    "otherName": "Clark Creek-Great Pee Dee River"
  },
  {
    "department": "South Carolina Department of Natural Resources",
    "state": "South Carolina",
    "county": "Williamsburg County",
    "latitude": 33.4870151031,
    "longitude": -79.5455997576,
    "accessName": "Pump House",
    "riverName": "Black River",
    "type": "Public",
    "otherName": "Indian Hut Swamp-Black River"
  },