[
  {
    "department": "Alabama Department of Conservation and Natural Resources",
    "state": "Alabama",
    "county": "Lauderdale County",
    "latitude": 34.82417,
    "longitude": -87.2425,
    "accessName": "Anderson Creek",
    "riverName": "Anderson Creek",
    "type": "Public",
    "otherName": "Anderson Creek"
  },
  {
    "department": "Alabama Department of Conservation and Natural Resources",
    "state": "Alabama",
    "county": "Lauderdale County",
    "latitude": 34.78694,
    "longitude": -87.27278,
    "accessName": "Elk River State Park",
    "riverName": "Elk River",
    "type": "Public",
    "otherName": "Big Creek-Elk River"
  },
  {
    "department": "Alabama Department of Conservation and Natural Resources",
    "state": "Alabama",
    "county": "Marshall County",
    "latitude": 34.32111,
    "longitude": -86.37944,
    "accessName": "Beech Creek",
    "riverName": "Tennessee River - Guntersville Lake",
    "type": "Public",
    "otherName": "Browns Creek"
  },
  {
    "department": "Alabama Department of Conservation and Natural Resources",
    "state": "Alabama",
    "county": "Shelby County",
    "latitude": 33.1770668085,
    "longitude": -86.5212173723,
    "accessName": "Beeswax Creek",
    "riverName": "Coosa River - Lay Lake",
    "type": "Public",
    "otherName": "Beeswax Creek"
  },
  {
    "department": "Alabama Department of Conservation and Natural Resources",
    "state": "Alabama",
    "county": "Tuscaloosa County",
    "latitude": 33.3916849107,
    "longitude": -87.6072486487,
    "accessName": "Binion Creek",
    "riverName": "North River - Lake Tuscaloosa",
    "type": "Public",
    "otherName": "Binion Creek"
  },
  {
    "department": "Alabama Department of Conservation and Natural Resources",
    "state": "Alabama",
    "county": "Greene County",
    "latitude": 32.722028044,
    "longitude": -88.0810503573,
    "accessName": "Boligee",
    "riverName": "Tombigbee River",
    "type": "Public",
    "otherName": "Cypress Swamp-Tombigbee River"
  },
  {
    "department": "Alabama Department of Conservation and Natural Resources",
    "state": "Alabama",
    "county": "Elmore County",
    "latitude": 32.6364153546,
    "longitude": -86.2978090814,
    "accessName": "Bonner's Landing",
    "riverName": "Coosa River - Jordan Lake",
    "type": "Public",
    "otherName": "Proctor Creek-Town Creek"
  },
  {
    "department": "Alabama Department of Conservation and Natural Resources",
    "state": "Alabama",
    "county": "Covington County",
    "latitude": 31.2777471918,
    "longitude": -86.5693008663,
    "accessName": "Brooklyn Road",
    "riverName": "Conecuh River",
    "type": "Public",
    "otherName": "Fall Creek"
  },
  {
    "department": "Alabama Department of Conservation and Natural Resources",
    "state": "Alabama",
    "county": "Marshall County",
    "latitude": 34.36028,
    "longitude": -86.34361,
    "accessName": "Brown's Creek",
    "riverName": "Tennessee River - Guntersville Lake",
    "type": "Public",
    "otherName": "Browns Creek"
  },
  {
    "department": "Alabama Department of Conservation and Natural Resources",
    "state": "Alabama",
    "county": "Limestone County",
    "latitude": 34.90222,
    "longitude": -87.07806,
    "accessName": "Buck Island",
    "riverName": "Elk River",
    "type": "Public",
    "otherName": "Sulphur Creek-Elk River"
  },
  {
    "department": "Alabama Department of Conservation and Natural Resources",
    "state": "Alabama",
    "county": "Perry County",
    "latitude": 32.6682664652,
    "longitude": -87.2419149712,
    "accessName": "Cahaba River",
    "riverName": "Cahaba River",
    "type": "Public",
    "otherName": "Goose Creek-Mill Creek"
  },
  {
    "department": "Alabama Department of Conservation and Natural Resources",
    "state": "Alabama",
    "county": "Cherokee County",
    "latitude": 34.2163141488,
    "longitude": -85.6078866975,
    "accessName": "Cedar Bluff",
    "riverName": "Coosa River - Weiss Lake",
    "type": "Public",
    "otherName": "Weiss Lake"
  },
  {
    "department": "Alabama Department of Conservation and Natural Resources",
    "state": "Alabama",
    "county": "Cherokee County",
    "latitude": 34.2019786812,
    "longitude": -85.6219921455,
    "accessName": "Chattooga Bridge",
    "riverName": "Coosa River - Weiss Lake",
    "type": "Public",
    "otherName": "Weiss Lake"
  },
  {
    "department": "Alabama Department of Conservation and Natural Resources",
    "state": "Alabama",
    "county": "Talladega County",
    "latitude": 33.3061154528,
    "longitude": -86.3542736025,
    "accessName": "Childersburg",
    "riverName": "Coosa River - Lay Lake",
    "type": "Public",
    "otherName": "Lower Talledega Creek"
  },
  {
    "department": "Alabama Department of Conservation and Natural Resources",
    "state": "Alabama",
    "county": "Dale County",
    "latitude": 31.2357572965,
    "longitude": -85.6897745276,
    "accessName": "Clayhatchee",
    "riverName": "Choctawhatchee River",
    "type": "Public",
    "otherName": "Sconyers Branch"
  },
  {
    "department": "Alabama Department of Conservation and Natural Resources",
    "state": "Alabama",
    "county": "Marshall County",
    "latitude": 34.38056,
    "longitude": -86.28861,
    "accessName": "Claysville",
    "riverName": "Tennessee River - Guntersville Lake",
    "type": "Public",
    "otherName": "Dripping Spring Branch-Tennessee River"
  },
  {
    "department": "Alabama Department of Conservation and Natural Resources",
    "state": "Alabama",
    "county": "Baldwin County",
    "latitude": 30.8637542868,
    "longitude": -87.8951761256,
    "accessName": "Cliff's Landing",
    "riverName": "Mobile Delta",
    "type": "Public",
    "otherName": "The Basin"
  },
  {
    "department": "Alabama Department of Conservation and Natural Resources",
    "state": "Alabama",
    "county": "Colbert County",
    "latitude": 34.7684884658,
    "longitude": -88.0854035959,
    "accessName": "Coburn",
    "riverName": "Tennessee River - Pickwick Lake",
    "type": "Public",
    "otherName": "Clear Creek-Pickwick Lake"
  },
  {
    "department": "Alabama Department of Conservation and Natural Resources",
    "state": "Alabama",
    "county": "Jackson County",
    "latitude": 34.63278,
    "longitude": -85.97194,
    "accessName": "Comer Bridge",
    "riverName": "Tennessee River - Guntersville Lake",
    "type": "Public",
    "otherName": "Mink Creek-Guntersville Lake"
  },
  {
    "department": "Alabama Department of Conservation and Natural Resources",
    "state": "Alabama",
    "county": "Morgan County",
    "latitude": 34.54333,
    "longitude": -86.72667,
    "accessName": "Cotaco Creek",
    "riverName": "Tennessee River - Wheeler Lake",
    "type": "Public",
    "otherName": "Lower Cotaco Creek"
  },
  {
    "department": "Alabama Department of Conservation and Natural Resources",
    "state": "Alabama",
    "county": "Elmore County",
    "latitude": 32.5356297037,
    "longitude": -86.2080086506,
    "accessName": "Crommelin Landing",
    "riverName": "Coosa River - Bob Woodruff  Lake",
    "type": "Public",
    "otherName": "Corn Creek-Taylor Creek"
  },
  {
    "department": "Alabama Department of Conservation and Natural Resources",
    "state": "Alabama",
    "county": "Jackson County",
    "latitude": 34.84,
    "longitude": -85.83167,
    "accessName": "Crow Creek",
    "riverName": "Crow Creek - Guntersville Lake",
    "type": "Public",
    "otherName": "Lower Big Coon Creek"
  },
  {
    "department": "Alabama Department of Conservation and Natural Resources",
    "state": "Alabama",
    "county": "Cherokee County",
    "latitude": 34.1822112199,
    "longitude": -85.7351178084,
    "accessName": "East Diversion",
    "riverName": "Coosa River - Weiss Lake",
    "type": "Public",
    "otherName": "Weiss Lake"
  },
  {
    "department": "Alabama Department of Conservation and Natural Resources",
    "state": "Alabama",
    "county": "Limestone County",
    "latitude": 34.9225,
    "longitude": -87.04917,
    "accessName": "Easter Ferry",
    "riverName": "Elk River",
    "type": "Public",
    "otherName": "Sulphur Creek-Elk River"
  },
  {
    "department": "Alabama Department of Conservation and Natural Resources",
    "state": "Alabama",
    "county": "Coffee County",
    "latitude": 31.41306,
    "longitude": -86.06222,
    "accessName": "Elba",
    "riverName": "Pea River",
    "type": "Public",
    "otherName": "Helms Mill Creek"
  },
  {
    "department": "Alabama Department of Conservation and Natural Resources",
    "state": "Alabama",
    "county": "Limestone County",
    "latitude": 34.84694,
    "longitude": -87.11639,
    "accessName": "Elk River County Park",
    "riverName": "Elk River",
    "type": "Public",
    "otherName": "Big Creek-Elk River"
  },
  {
    "department": "Alabama Department of Conservation and Natural Resources",
    "state": "Alabama",
    "county": "Lauderdale County",
    "latitude": 34.8075,
    "longitude": -87.23389,
    "accessName": "Elk River N72",
    "riverName": "Elk River",
    "type": "Public",
    "otherName": "Big Creek-Elk River"
  },
  {
    "department": "Alabama Department of Conservation and Natural Resources",
    "state": "Alabama",
    "county": "Lauderdale County",
    "latitude": 34.80694,
    "longitude": -87.235,
    "accessName": "Elk River S72",
    "riverName": "Elk River",
    "type": "Public",
    "otherName": "Big Creek-Elk River"
  },
  {
    "department": "Alabama Department of Conservation and Natural Resources",
    "state": "Alabama",
    "county": "Morgan County",
    "latitude": 34.48972,
    "longitude": -86.96611,
    "accessName": "Flint Creek 31",
    "riverName": "Tennessee River - Wheeler Lake",
    "type": "Public",
    "otherName": "Lower Flint Creek"
  },
  {
    "department": "Alabama Department of Conservation and Natural Resources",
    "state": "Alabama",
    "county": "Morgan County",
    "latitude": 34.55889,
    "longitude": -86.9325,
    "accessName": "Flint Creek 67",
    "riverName": "Tennessee River - Wheeler Lake",
    "type": "Public",
    "otherName": "Lower Flint Creek"
  },
  {
    "department": "Alabama Department of Conservation and Natural Resources",
    "state": "Alabama",
    "county": "Randolph County",
    "latitude": 33.4101586414,
    "longitude": -85.5973389811,
    "accessName": "Foster's Bridge",
    "riverName": "Tallapoosa River",
    "type": "Public",
    "otherName": "Gobbler Creek"
  },
  {
    "department": "Alabama Department of Conservation and Natural Resources",
    "state": "Alabama",
    "county": "Tuscaloosa County",
    "latitude": 33.1196128866,
    "longitude": -87.6653056057,
    "accessName": "Foster's Ferry",
    "riverName": "Black Warrior River",
    "type": "Public",
    "otherName": "Goose Pond-Black Warrior River"
  },
  {
    "department": "Alabama Department of Conservation and Natural Resources",
    "state": "Alabama",
    "county": "Randolph County",
    "latitude": 33.2935776592,
    "longitude": -85.6402906815,
    "accessName": "Fox Creek",
    "riverName": "Fox Creek",
    "type": "Public",
    "otherName": "Prairie Creek-Fox Creek"
  },
  {
    "department": "Alabama Department of Conservation and Natural Resources",
    "state": "Alabama",
    "county": "Covington County",
    "latitude": 31.45056,
    "longitude": -86.44583,
    "accessName": "Gantt",
    "riverName": "Conecuh River",
    "type": "Public",
    "otherName": "Big Creek-Conecuh River"
  },
  {
    "department": "Alabama Department of Conservation and Natural Resources",
    "state": "Alabama",
    "county": "Talladega County",
    "latitude": 33.389832055,
    "longitude": -86.3780141968,
    "accessName": "Glover's Ferry",
    "riverName": "Coosa River - Lay Lake",
    "type": "Public",
    "otherName": "Spring Creek-Coosa River"
  },
  {
    "department": "Alabama Department of Conservation and Natural Resources",
    "state": "Alabama",
    "county": "Houston County",
    "latitude": 31.147237,
    "longitude": -85.07,
    "accessName": "Gordon",
    "riverName": "Chattahoochee River",
    "type": "Public",
    "otherName": "Woods Branch-Chattahoochee River"
  },
  {
    "department": "Alabama Department of Conservation and Natural Resources",
    "state": "Alabama",
    "county": "Lee County",
    "latitude": 32.69444,
    "longitude": -85.14556,
    "accessName": "Halawakee Creek",
    "riverName": "Halawakee Creek - Lake Harding",
    "type": "Public",
    "otherName": "Lower Halawakee Creek"
  },
  {
    "department": "Alabama Department of Conservation and Natural Resources",
    "state": "Alabama",
    "county": "Covington County",
    "latitude": 31.1959511725,
    "longitude": -86.6802981759,
    "accessName": "Hart's Bridge",
    "riverName": "Conecuh River",
    "type": "Public",
    "otherName": "Teel Creek"
  },
  {
    "department": "Alabama Department of Conservation and Natural Resources",
    "state": "Alabama",
    "county": "Chilton County",
    "latitude": 32.8590141031,
    "longitude": -86.453406136,
    "accessName": "Higgins Ferry",
    "riverName": "Coosa River - Mitchell Lake",
    "type": "Public",
    "otherName": "Cargle Creek"
  },
  {
    "department": "Alabama Department of Conservation and Natural Resources",
    "state": "Alabama",
    "county": "Randolph County",
    "latitude": 33.3084534929,
    "longitude": -85.5791121659,
    "accessName": "Highway 48 Bridge",
    "riverName": "Tallapoosa River",
    "type": "Public",
    "otherName": "Dewberry Branch"
  },
  {
    "department": "Alabama Department of Conservation and Natural Resources",
    "state": "Alabama",
    "county": "Etowah County",
    "latitude": 34.0162606282,
    "longitude": -85.9340565828,
    "accessName": "Hokes Bluff",
    "riverName": "Coosa River - Neely Henry Lake",
    "type": "Public",
    "otherName": "Turkey Town Creek"
  },
  {
    "department": "Alabama Department of Conservation and Natural Resources",
    "state": "Alabama",
    "county": "Marshall County",
    "latitude": 34.45667,
    "longitude": -86.29556,
    "accessName": "Honeycomb Creek",
    "riverName": "Tennessee River - Guntersville Lake",
    "type": "Public",
    "otherName": "Honey Comb Creek"
  },
  {
    "department": "Alabama Department of Conservation and Natural Resources",
    "state": "Alabama",
    "county": "St. Clair County",
    "latitude": 33.411255804,
    "longitude": -86.3612174622,
    "accessName": "Kelly Creek",
    "riverName": "Coosa River - Lay Lake",
    "type": "Public",
    "otherName": "Lower Kelly Creek"
  },
  {
    "department": "Alabama Department of Conservation and Natural Resources",
    "state": "Alabama",
    "county": "Elmore County",
    "latitude": 32.7440867841,
    "longitude": -85.961032692,
    "accessName": "Kowaliga",
    "riverName": "Tallapoosa River - Lake Martin",
    "type": "Public",
    "otherName": "Lake Martin-Chapman Creek"
  },
  {
    "department": "Alabama Department of Conservation and Natural Resources",
    "state": "Alabama",
    "county": "Jackson County",
    "latitude": 34.595,
    "longitude": -86.01111,
    "accessName": "Langston Road",
    "riverName": "Tennessee River - Guntersville Lake",
    "type": "Public",
    "otherName": "Mink Creek-Guntersville Lake"
  },
  {
    "department": "Alabama Department of Conservation and Natural Resources",
    "state": "Alabama",
    "county": "Chilton County",
    "latitude": 32.9781845661,
    "longitude": -86.5220563471,
    "accessName": "Lay Dam",
    "riverName": "Coosa River - Lay Lake",
    "type": "Public",
    "otherName": "Spring Creek-Lay Lake"
  },
  {
    "department": "Alabama Department of Conservation and Natural Resources",
    "state": "Alabama",
    "county": "Shelby County",
    "latitude": 33.0549625873,
    "longitude": -86.5267324846,
    "accessName": "Lay Lake Access",
    "riverName": "Coosa River - Lay Lake",
    "type": "Public",
    "otherName": "Spring Creek-Lay Lake"
  },
  {
    "department": "Alabama Department of Conservation and Natural Resources",
    "state": "Alabama",
    "county": "Cherokee County",
    "latitude": 34.1622611016,
    "longitude": -85.7624968282,
    "accessName": "Leesburg Ramp",
    "riverName": "Coosa River - Weiss Lake",
    "type": "Public",
    "otherName": "Weiss Lake-Coosa River"
  },
  {
    "department": "Alabama Department of Conservation and Natural Resources",
    "state": "Alabama",
    "county": "Cullman County",
    "latitude": 33.96861,
    "longitude": -87.08639,
    "accessName": "Lion's Park",
    "riverName": "Sipsey Fork - Smith Lake",
    "type": "Public",
    "otherName": "Middle Ryan Creek"
  },
  {
    "department": "Alabama Department of Conservation and Natural Resources",
    "state": "Alabama",
    "county": "Marshall County",
    "latitude": 34.38556,
    "longitude": -86.22139,
    "accessName": "Lake Guntersville State Park",
    "riverName": "Tennessee River - Guntersville Lake",
    "type": "Public",
    "otherName": "Chandler Branch-Guntersville Lake"
  },
  {
    "department": "Alabama Department of Conservation and Natural Resources",
    "state": "Alabama",
    "county": "Jackson County",
    "latitude": 34.89917,
    "longitude": -85.70889,
    "accessName": "Long Island",
    "riverName": "Tennessee River - Guntersville Lake",
    "type": "Public",
    "otherName": "Guest Creek-Long Island Creek"
  },
  {
    "department": "Alabama Department of Conservation and Natural Resources",
    "state": "Alabama",
    "county": "Walker County",
    "latitude": 33.806460365,
    "longitude": -87.1413039494,
    "accessName": "Lynn's Park",
    "riverName": "Mulberry Fork",
    "type": "Public",
    "otherName": "Old Town Creek-Mulberry Fork"
  },
  {
    "department": "Alabama Department of Conservation and Natural Resources",
    "state": "Alabama",
    "county": "Tallapoosa County",
    "latitude": 32.8551324119,
    "longitude": -85.8531894399,
    "accessName": "Madwin Creek",
    "riverName": "Tallapoosa River - Lake Martin",
    "type": "Public",
    "otherName": "Manoy Creek"
  },
  {
    "department": "Alabama Department of Conservation and Natural Resources",
    "state": "Alabama",
    "county": "Limestone County",
    "latitude": 34.9675,
    "longitude": -87.01833,
    "accessName": "Maples Bridge",
    "riverName": "Elk River",
    "type": "Public",
    "otherName": "Ragsdale Creek-Elk River"
  },
  {
    "department": "Alabama Department of Conservation and Natural Resources",
    "state": "Alabama",
    "county": "Lauderdale County",
    "latitude": 34.78944,
    "longitude": -87.67528,
    "accessName": "McFarland North",
    "riverName": "Tennessee River - Pickwick Lake",
    "type": "Public",
    "otherName": "Sweetwater Creek-Tennessee River"
  },
  {
    "department": "Alabama Department of Conservation and Natural Resources",
    "state": "Alabama",
    "county": "Lauderdale County",
    "latitude": 34.7852184193,
    "longitude": -87.67444,
    "accessName": "McFarland West",
    "riverName": "Tennessee River - Pickwick Lake",
    "type": "Public",
    "otherName": "Sweetwater Creek-Tennessee River"
  },
  {
    "department": "Alabama Department of Conservation and Natural Resources",
    "state": "Alabama",
    "county": "Washington County",
    "latitude": 31.2568053209,
    "longitude": -87.9885985398,
    "accessName": "McIntosh Bluff Landing",
    "riverName": "Tombigbee River",
    "type": "Public",
    "otherName": "Alabama River Cutoff-Tombigbee River"
  },
  {
    "department": "Alabama Department of Conservation and Natural Resources",
    "state": "Alabama",
    "county": "Jackson County",
    "latitude": 34.57639,
    "longitude": -86.11694,
    "accessName": "Mink Creek",
    "riverName": "Tennessee River - Guntersville Lake",
    "type": "Public",
    "otherName": "Mink Creek-Guntersville Lake"
  },
  {
    "department": "Alabama Department of Conservation and Natural Resources",
    "state": "Alabama",
    "county": "Marshall County",
    "latitude": 34.42194,
    "longitude": -86.19833,
    "accessName": "Minky Creek",
    "riverName": "Tennessee River - Guntersville Lake",
    "type": "Public",
    "otherName": "Minky Creek-Town Creek"
  },
  {
    "department": "Alabama Department of Conservation and Natural Resources",
    "state": "Alabama",
    "county": "Tuscaloosa County",
    "latitude": 33.0105139931,
    "longitude": -87.6385619349,
    "accessName": "Moundville Access",
    "riverName": "Black Warrior River",
    "type": "Public",
    "otherName": "Keaton Lake-Carthage Branch"
  },
  {
    "department": "Alabama Department of Conservation and Natural Resources",
    "state": "Alabama",
    "county": "Mobile County",
    "latitude": 31.0878520136,
    "longitude": -87.978475804,
    "accessName": "Mt. Vernon",
    "riverName": "Mobile River",
    "type": "Public",
    "otherName": "Farris Creek-Barrow Creek"
  },
  {
    "department": "Alabama Department of Conservation and Natural Resources",
    "state": "Alabama",
    "county": "Jackson County",
    "latitude": 34.75472,
    "longitude": -85.90056,
    "accessName": "Mud Creek",
    "riverName": "Mud Creek - Guntersville Lake",
    "type": "Public",
    "otherName": "Lower Mud Creek"
  },
  {
    "department": "Alabama Department of Conservation and Natural Resources",
    "state": "Alabama",
    "county": "Cherokee County",
    "latitude": 34.175,
    "longitude": -85.47528,
    "accessName": "Mud Creek",
    "riverName": "Coosa River - Weiss Lake",
    "type": "Public",
    "otherName": "Ballplay Creek-Coosa River"
  },
  {
    "department": "Alabama Department of Conservation and Natural Resources",
    "state": "Alabama",
    "county": "Marengo County",
    "latitude": 32.2814079982,
    "longitude": -87.9440433669,
    "accessName": "Myrtlewood",
    "riverName": "Tombigbee River",
    "type": "Public",
    "otherName": "Tompkins Bluff-Tombigbee River"
  },
  {
    "department": "Alabama Department of Conservation and Natural Resources",
    "state": "Alabama",
    "county": "St. Clair County",
    "latitude": 33.7855376847,
    "longitude": -86.0651923403,
    "accessName": "Neely Henry",
    "riverName": "Coosa River - Neely Henry Lake",
    "type": "Public",
    "otherName": "H. Neely Henry Lake-Coosa River"
  },
  {
    "department": "Alabama Department of Conservation and Natural Resources",
    "state": "Alabama",
    "county": "Dale County",
    "latitude": 31.3438332913,
    "longitude": -85.6160010678,
    "accessName": "Newton",
    "riverName": "Choctawhatchee River",
    "type": "Public",
    "otherName": "Killebrew Factory Creek"
  },
  {
    "department": "Alabama Department of Conservation and Natural Resources",
    "state": "Alabama",
    "county": "Jackson County",
    "latitude": 34.61972,
    "longitude": -86.11222,
    "accessName": "North Sauty Creek",
    "riverName": "Tennessee River - Guntersville Lake",
    "type": "Public",
    "otherName": "Lower North Sauty Creek"
  },
  {
    "department": "Alabama Department of Conservation and Natural Resources",
    "state": "Alabama",
    "county": "Clarke County",
    "latitude": 31.5742779134,
    "longitude": -88.0343168599,
    "accessName": "Old Lock #1",
    "riverName": "Tombigbee River",
    "type": "Public",
    "otherName": "Old Lock One Cutoff-Tombigbee River"
  },
  {
    "department": "Alabama Department of Conservation and Natural Resources",
    "state": "Alabama",
    "county": "Marshall County",
    "latitude": 34.50528,
    "longitude": -86.18694,
    "accessName": "Opposite Mile",
    "riverName": "Tennessee River - Guntersville Lake",
    "type": "Public",
    "otherName": "Chandler Branch-Guntersville Lake"
  },
  {
    "department": "Alabama Department of Conservation and Natural Resources",
    "state": "Alabama",
    "county": "Tallapoosa County",
    "latitude": 32.7804849834,
    "longitude": -85.87716729,
    "accessName": "Pace's Point",
    "riverName": "Tallapoosa River - Lake Martin",
    "type": "Public",
    "otherName": "Mt. Pleasant Church-Tallapoosa River"
  },
  {
    "department": "Alabama Department of Conservation and Natural Resources",
    "state": "Alabama",
    "county": "Coosa County",
    "latitude": 32.9925157392,
    "longitude": -86.4892297002,
    "accessName": "Paint Creek",
    "riverName": "Coosa River - Lay Lake",
    "type": "Public",
    "otherName": "Paint Creek"
  },
  {
    "department": "Alabama Department of Conservation and Natural Resources",
    "state": "Alabama",
    "county": "Escambia County",
    "latitude": 31.09583,
    "longitude": -86.9181879581,
    "accessName": "Parkers Bridge",
    "riverName": "Conecuh River",
    "type": "Public",
    "otherName": "Mayo Mill Creek"
  },
  {
    "department": "Alabama Department of Conservation and Natural Resources",
    "state": "Alabama",
    "county": "Walker County",
    "latitude": 33.81444,
    "longitude": -87.13583,
    "accessName": "Parker's Landing",
    "riverName": "Mulberry Fork",
    "type": "Public",
    "otherName": "Old Town Creek-Mulberry Fork"
  },
  {
    "department": "Alabama Department of Conservation and Natural Resources",
    "state": "Alabama",
    "county": "Lee County",
    "latitude": 32.65694,
    "longitude": -85.10306,
    "accessName": "Po'Boy's",
    "riverName": "Chattahoochee River - Lake Harding",
    "type": "Public",
    "otherName": "Bartletts Ferry Dam-Chattahoochee River"
  },
  {
    "department": "Alabama Department of Conservation and Natural Resources",
    "state": "Alabama",
    "county": "Colbert County",
    "latitude": 34.7329283967,
    "longitude": -87.816968266,
    "accessName": "Pride Station",
    "riverName": "Tennessee River - Pickwick Lake",
    "type": "Public",
    "otherName": "Coffee Slough-Tennessee River"
  },
  {
    "department": "Alabama Department of Conservation and Natural Resources",
    "state": "Alabama",
    "county": "Jackson County",
    "latitude": 34.75194,
    "longitude": -85.83639,
    "accessName": "Raccoon Creek",
    "riverName": "Racoon Creek - Guntersville Lake",
    "type": "Public",
    "otherName": "Coon Creek"
  },
  {
    "department": "Alabama Department of Conservation and Natural Resources",
    "state": "Alabama",
    "county": "Etowah County",
    "latitude": 33.9433449016,
    "longitude": -86.0280040016,
    "accessName": "Rainbow Landing",
    "riverName": "Coosa River - Neely Henry Lake",
    "type": "Public",
    "otherName": "H. Neely Henry Lake-Coosa River"
  },
  {
    "department": "Alabama Department of Conservation and Natural Resources",
    "state": "Alabama",
    "county": "Covington County",
    "latitude": 31.3489416052,
    "longitude": -86.5294857606,
    "accessName": "River Falls",
    "riverName": "Conecuh River",
    "type": "Public",
    "otherName": "Camp Creek-Adams Creek"
  },
  {
    "department": "Alabama Department of Conservation and Natural Resources",
    "state": "Alabama",
    "county": "Colbert County",
    "latitude": 34.76667,
    "longitude": -87.71194,
    "accessName": "Riverfront Park",
    "riverName": "Tennessee River - Pickwick Lake",
    "type": "Public",
    "otherName": "Coffee Slough-Tennessee River"
  },
  {
    "department": "Alabama Department of Conservation and Natural Resources",
    "state": "Alabama",
    "county": "Tuscaloosa County",
    "latitude": 33.2235018954,
    "longitude": -87.5253964898,
    "accessName": "Riverview",
    "riverName": "Oliver Pool",
    "type": "Public",
    "otherName": "Two Mile Creek"
  },
  {
    "department": "Alabama Department of Conservation and Natural Resources",
    "state": "Alabama",
    "county": "Randolph County",
    "latitude": 33.3066264068,
    "longitude": -85.6272884336,
    "accessName": "Road End",
    "riverName": "Fox Creek",
    "type": "Public",
    "otherName": "Prairie Creek-Fox Creek"
  },
  {
    "department": "Alabama Department of Conservation and Natural Resources",
    "state": "Alabama",
    "county": "Colbert County",
    "latitude": 34.854076806,
    "longitude": -88.087809889,
    "accessName": "Rose Trail",
    "riverName": "Tennessee River - Pickwick Lake",
    "type": "Public",
    "otherName": "Bear Creek-Pickwick Lake"
  },
  {
    "department": "Alabama Department of Conservation and Natural Resources",
    "state": "Alabama",
    "county": "Elmore County",
    "latitude": 32.6303313476,
    "longitude": -86.2659060668,
    "accessName": "Rotary",
    "riverName": "Coosa River - Jordan Lake",
    "type": "Public",
    "otherName": "Sofkahatchee Creek"
  },
  {
    "department": "Alabama Department of Conservation and Natural Resources",
    "state": "Alabama",
    "county": "Geneva County",
    "latitude": 31.06639,
    "longitude": -86.09806,
    "accessName": "Samson",
    "riverName": "Pea River",
    "type": "Public",
    "otherName": "Samson Branch"
  },
  {
    "department": "Alabama Department of Conservation and Natural Resources",
    "state": "Alabama",
    "county": "Jackson County",
    "latitude": 34.61778,
    "longitude": -86.04028,
    "accessName": "Scottsboro City Park",
    "riverName": "Tennessee River - Guntersville Lake",
    "type": "Public",
    "otherName": "Roseberry Creek"
  },
  {
    "department": "Alabama Department of Conservation and Natural Resources",
    "state": "Alabama",
    "county": "Lauderdale County",
    "latitude": 34.8462625324,
    "longitude": -87.366752854,
    "accessName": "Second Creek",
    "riverName": "Tennessee River - Wheeler Lake",
    "type": "Public",
    "otherName": "Lower Second Creek"
  },
  {
    "department": "Alabama Department of Conservation and Natural Resources",
    "state": "Alabama",
    "county": "Lauderdale County",
    "latitude": 34.8508238433,
    "longitude": -87.5708114311,
    "accessName": "Shoal Creek Bridge",
    "riverName": "Tennessee River - Wilson Lake",
    "type": "Public",
    "otherName": "Lower Shoal Creek"
  },
  {
    "department": "Alabama Department of Conservation and Natural Resources",
    "state": "Alabama",
    "county": "Cullman County",
    "latitude": 34.0838852279,
    "longitude": -86.9573048973,
    "accessName": "Smith Lake Park",
    "riverName": "Sipsey Fork - Smith Lake",
    "type": "Public",
    "otherName": "Upper Ryan Creek"
  },
  {
    "department": "Alabama Department of Conservation and Natural Resources",
    "state": "Alabama",
    "county": "Walker County",
    "latitude": 33.9445517722,
    "longitude": -87.1087797518,
    "accessName": "Smith Lake Spillway",
    "riverName": "Sipsey Fork - Smith Lake",
    "type": "Public",
    "otherName": "Boyd Creek-Sipsey Fork"
  },
  {
    "department": "Alabama Department of Conservation and Natural Resources",
    "state": "Alabama",
    "county": "Tallapoosa County",
    "latitude": 32.7981353046,
    "longitude": -85.8196859801,
    "accessName": "Smith Landing",
    "riverName": "Tallapoosa River - Lake Martin",
    "type": "Public",
    "otherName": "Lower Sandy Creek"
  },
  {
    "department": "Alabama Department of Conservation and Natural Resources",
    "state": "Alabama",
    "county": "Jackson County",
    "latitude": 34.5225,
    "longitude": -86.09944,
    "accessName": "South Sauty Creek",
    "riverName": "Tennessee River - Guntersville Lake",
    "type": "Public",
    "otherName": "Lower South Sauty Creek"
  },
  {
    "department": "Alabama Department of Conservation and Natural Resources",
    "state": "Alabama",
    "county": "Geneva County",
    "latitude": 31.1093177587,
    "longitude": -85.8313326989,
    "accessName": "Spann's",
    "riverName": "Choctawhatchee River",
    "type": "Public",
    "otherName": "Rocky Creek-Adams Creek"
  },
  {
    "department": "Alabama Department of Conservation and Natural Resources",
    "state": "Alabama",
    "county": "Lawrence County",
    "latitude": 34.7296171304,
    "longitude": -87.2838730294,
    "accessName": "Spring Creek",
    "riverName": "Tennessee River - Wheeler Lake",
    "type": "Public",
    "otherName": "Red Branch-Spring Creek"
  },
  {
    "department": "Alabama Department of Conservation and Natural Resources",
    "state": "Alabama",
    "county": "Marshall County",
    "latitude": 34.33056,
    "longitude": -86.31944,
    "accessName": "Steel Ford",
    "riverName": "Tennessee River - Guntersville Lake",
    "type": "Public",
    "otherName": "Big Spring Creek"
  },
  {
    "department": "Alabama Department of Conservation and Natural Resources",
    "state": "Alabama",
    "county": "Mobile County",
    "latitude": 30.8586229898,
    "longitude": -88.0370304331,
    "accessName": "Steele Creek",
    "riverName": "Bayou Sara",
    "type": "Public",
    "otherName": "Gunnison Creek"
  },
  {
    "department": "Alabama Department of Conservation and Natural Resources",
    "state": "Alabama",
    "county": "Jackson County",
    "latitude": 34.83583,
    "longitude": -85.80278,
    "accessName": "Stevenson",
    "riverName": "Tennessee River - Guntersville Lake",
    "type": "Public",
    "otherName": "Marshall Branch-Tennessee River"
  },
  {
    "department": "Alabama Department of Conservation and Natural Resources",
    "state": "Alabama",
    "county": "Jackson County",
    "latitude": 34.85361,
    "longitude": -85.83556,
    "accessName": "Stevenson Park",
    "riverName": "Crow Creek - Guntersville Lake",
    "type": "Public",
    "otherName": "Lower Big Coon Creek"
  },
  {
    "department": "Alabama Department of Conservation and Natural Resources",
    "state": "Alabama",
    "county": "Randolph County",
    "latitude": 33.3482252764,
    "longitude": -85.547438473,
    "accessName": "Swagg",
    "riverName": "Little Tallapoosa River",
    "type": "Public",
    "otherName": "Allen Branch"
  },
  {
    "department": "Alabama Department of Conservation and Natural Resources",
    "state": "Alabama",
    "county": "Henry County",
    "latitude": 31.7037929382,
    "longitude": -85.152283295,
    "accessName": "Thomas Mill Park",
    "riverName": "Thomas Mill Creek",
    "type": "Public",
    "otherName": "Thomas Mill-Walter F. George Reservoir"
  },
  {
    "department": "Alabama Department of Conservation and Natural Resources",
    "state": "Alabama",
    "county": "Marshall County",
    "latitude": 34.355,
    "longitude": -86.31833,
    "accessName": "Tom Jackson Park",
    "riverName": "Tennessee River - Guntersville Lake",
    "type": "Public",
    "otherName": "Browns Creek"
  },
  {
    "department": "Alabama Department of Conservation and Natural Resources",
    "state": "Alabama",
    "county": "Marshall County",
    "latitude": 34.40694,
    "longitude": -86.17972,
    "accessName": "Town Creek",
    "riverName": "Tennessee River - Guntersville Lake",
    "type": "Public",
    "otherName": "Minky Creek-Town Creek"
  },
  {
    "department": "Alabama Department of Conservation and Natural Resources",
    "state": "Alabama",
    "county": "Madison County",
    "latitude": 34.57944,
    "longitude": -86.73083,
    "accessName": "Triana",
    "riverName": "Tennessee River - Wheeler Lake",
    "type": "Public",
    "otherName": "Lower Indian Creek"
  },
  {
    "department": "Alabama Department of Conservation and Natural Resources",
    "state": "Alabama",
    "county": "Choctaw County",
    "latitude": 32.0614803253,
    "longitude": -88.1106984682,
    "accessName": "Tuscahoma Landing",
    "riverName": "Tombigbee River",
    "type": "Public",
    "otherName": "Mellen Creek-Tombigbee River"
  },
  {
    "department": "Alabama Department of Conservation and Natural Resources",
    "state": "Alabama",
    "county": "Marshall County",
    "latitude": 34.32333,
    "longitude": -86.30917,
    "accessName": "Val Monte Road",
    "riverName": "Tennessee River - Guntersville Lake",
    "type": "Public",
    "otherName": "Big Spring Creek"
  },
  {
    "department": "Alabama Department of Conservation and Natural Resources",
    "state": "Alabama",
    "county": "Chambers County",
    "latitude": 32.8512625067,
    "longitude": -85.1574828652,
    "accessName": "Valley City Ramp",
    "riverName": "Chattahoochee River",
    "type": "Public",
    "otherName": "Crow Hop-Chattahoochee River"
  },
  {
    "department": "Alabama Department of Conservation and Natural Resources",
    "state": "Alabama",
    "county": "Lauderdale County",
    "latitude": 34.9160830282,
    "longitude": -88.0585698881,
    "accessName": "Waterloo Creekside",
    "riverName": "Tennessee River - Pickwick Lake",
    "type": "Public",
    "otherName": "Second Creek"
  },
  {
    "department": "Alabama Department of Conservation and Natural Resources",
    "state": "Alabama",
    "county": "Lauderdale County",
    "latitude": 34.9135513537,
    "longitude": -88.0603762685,
    "accessName": "Waterloo Riverside",
    "riverName": "Tennessee River - Pickwick Lake",
    "type": "Public",
    "otherName": "Ross Branch-Pickwick Lake"
  },
  {
    "department": "Alabama Department of Conservation and Natural Resources",
    "state": "Alabama",
    "county": "Elmore County",
    "latitude": 32.5372183544,
    "longitude": -86.2094001261,
    "accessName": "Wetumpka City",
    "riverName": "Coosa River - Bob Woodruff  Lake",
    "type": "Public",
    "otherName": "Corn Creek-Taylor Creek"
  },
  {
    "department": "Alabama Department of Conservation and Natural Resources",
    "state": "Alabama",
    "county": "Randolph County",
    "latitude": 33.3470420399,
    "longitude": -85.5429191453,
    "accessName": "White's Bridge",
    "riverName": "Little Tallapoosa River",
    "type": "Public",
    "otherName": "Allen Branch"
  },
  {
    "department": "Alabama Department of Conservation and Natural Resources",
    "state": "Alabama",
    "county": "Jackson County",
    "latitude": 34.9275087628,
    "longitude": -85.6964735724,
    "accessName": "Bridgeport",
    "riverName": "Tennessee River - Guntersville Lake",
    "type": "Public",
    "otherName": "Jones Creek-Tennessee River"
  },
  {
    "department": "U.S. Geological Survey",
    "state": "Alabama",
    "county": "Chambers County",
    "latitude": 32.9484691864,
    "longitude": -85.2042790085,
    "accessName": "Southern Harbor Resort Marina",
    "riverName": "Chattahoochee River - West Point Lake",
    "type": "Semi-Private",
    "otherName": "Lower West Point Lake"
  },
  {
    "department": "U.S. Geological Survey",
    "state": "Alabama",
    "county": "Walker County",
    "latitude": 33.8032268702,
    "longitude": -87.2306339241,
    "accessName": "Walker County State Lake",
    "riverName": "Walker County State Lake",
    "type": "Public",
    "otherName": "Town Creek-Cane Creek"
  },
  {
    "department": "U.S. Geological Survey",
    "state": "Alabama",
    "county": "Walker County",
    "latitude": 33.7606696217,
    "longitude": -87.1761866372,
    "accessName": "Disney Lake",
    "riverName": "Cane Creek",
    "type": "Public",
    "otherName": "Town Creek-Cane Creek"
  },
  {
    "department": "U.S. Geological Survey",
    "state": "Alabama",
    "county": "Marshall County",
    "latitude": 34.3846096545,
    "longitude": -86.274484682,
    "accessName": "Lake Guntersville Yacht Club",
    "riverName": "Tennessee River - Guntersville  Lake",
    "type": "Semi-Private",
    "otherName": "Dripping Spring Branch-Tennessee River"
  },
  {
    "department": "U.S. Geological Survey",
    "state": "Alabama",
    "county": "Jackson County",
    "latitude": 34.5800764811,
    "longitude": -86.0824710015,
    "accessName": "The Docks",
    "riverName": "Tennessee River - Guntersville Lake",
    "type": "Semi-Private",
    "otherName": "Lower North Sauty Creek"
  },
  {
    "department": "U.S. Geological Survey",
    "state": "Alabama",
    "county": "Jackson County",
    "latitude": 34.6362271615,
    "longitude": -86.0161825714,
    "accessName": "County Park Road",
    "riverName": "Tennessee River - Lake Guntersville",
    "type": "Public",
    "otherName": "Riley Cove-Dry Creek"
  },
  {
    "department": "U.S. Geological Survey",
    "state": "Alabama",
    "county": "Cullman County",
    "latitude": 34.0845306449,
    "longitude": -87.0965511661,
    "accessName": "Arrowhead RV Park",
    "riverName": "Crooked Creek - Lewis Smith Lake",
    "type": "Semi-Private",
    "otherName": "Whetstone Creek-White Oak Creek"
  },
  {
    "department": "U.S. Geological Survey",
    "state": "Alabama",
    "county": "Limestone County",
    "latitude": 34.7761097193,
    "longitude": -87.2387880317,
    "accessName": "Riverview Campground",
    "riverName": "Tennessee River - Wheeler Lake",
    "type": "Semi-Private",
    "otherName": "Coxey Creek-Tennessee River"
  },
  {
    "department": "U.S. Geological Survey",
    "state": "Alabama",
    "county": "Limestone County",
    "latitude": 34.7787033061,
    "longitude": -87.2193744368,
    "accessName": "Lucy's Marina",
    "riverName": "Tennessee River - Lake Wheeler",
    "type": "Semi-Private",
    "otherName": "Coxey Creek-Tennessee River"
  },
  {
    "department": "U.S. Geological Survey",
    "state": "Alabama",
    "county": "Barbour County",
    "latitude": 31.910202665,
    "longitude": -85.1543803322,
    "accessName": "Lake Eufaula Campground",
    "riverName": "Chattahoochee River - Walter F. George Reservoir",
    "type": "Semi-Private",
    "otherName": "Chewalla Creek-Chattahoochee River"
  },
  {
    "department": "U.S. Geological Survey",
    "state": "Alabama",
    "county": "Elmore County",
    "latitude": 32.5009375745,
    "longitude": -86.2524434063,
    "accessName": "Jackson Park",
    "riverName": "Tallapoosa River",
    "type": "Public",
    "otherName": "Harwell Mill Creek"
  },
  {
    "department": "U.S. Geological Survey",
    "state": "Alabama",
    "county": "Montgomery County",
    "latitude": 32.3958133505,
    "longitude": -86.35428639,
    "accessName": "River Road",
    "riverName": "Alabama River",
    "type": "Public",
    "otherName": "Jackson Lake"
  },
  {
    "department": "U.S. Army Corps of Engineers",
    "state": "Alabama",
    "county": "Tuscaloosa County",
    "latitude": 33.2488234464,
    "longitude": -87.4310884929,
    "accessName": "Eagle Cove Marina",
    "riverName": "Black Warrior River",
    "type": "Semi-Private",
    "otherName": "Laurel Branch-Bluff Creek"
  },
  {
    "department": "U.S. Army Corps of Engineers",
    "state": "Alabama",
    "county": "Barbour County",
    "latitude": 31.9069086759,
    "longitude": -85.1429127485,
    "accessName": "Chewalla Creek Marina",
    "riverName": "Chattahoochee River - Walter F. Geprge Reservoir",
    "type": "Semi-Private",
    "otherName": "Chewalla Creek-Chattahoochee River"
  },
  {
    "department": "U.S. Army Corps of Engineers",
    "state": "Alabama",
    "county": "Monroe County",
    "latitude": 31.8069,
    "longitude": -87.4225,
    "accessName": "Bells Landing",
    "riverName": "Alabama River",
    "type": "Public",
    "otherName": "Tallatchee Creek"
  },
  {
    "department": "U.S. Army Corps of Engineers",
    "state": "Alabama",
    "county": "Lowndes County",
    "latitude": 32.3127494553,
    "longitude": -86.8194197734,
    "accessName": "Benton",
    "riverName": "Alabama River",
    "type": "Public",
    "otherName": "Old Town Creek"
  },
  {
    "department": "U.S. Army Corps of Engineers",
    "state": "Alabama",
    "county": "Dallas County",
    "latitude": 32.17262,
    "longitude": -87.2233,
    "accessName": "Bogue Chitto",
    "riverName": "Bogue Chitto Creek - William Dannelly Reservoir",
    "type": "Public",
    "otherName": "Lower Bogue Chitto Creek"
  },
  {
    "department": "U.S. Army Corps of Engineers",
    "state": "Alabama",
    "county": "Wilcox County",
    "latitude": 32.1443684459,
    "longitude": -87.2756023779,
    "accessName": "Chilatchee Park",
    "riverName": "Alabama River - William Dannelly Reservoir",
    "type": "Public",
    "otherName": "Lower Chilatchee Creek"
  },
  {
    "department": "U.S. Army Corps of Engineers",
    "state": "Alabama",
    "county": "Wilcox County",
    "latitude": 32.0203581872,
    "longitude": -87.465932937,
    "accessName": "Clifton Ferry",
    "riverName": "Alabama River",
    "type": "Public",
    "otherName": "Rockwest Creek"
  },
  {
    "department": "U.S. Army Corps of Engineers",
    "state": "Alabama",
    "county": "Wilcox County",
    "latitude": 32.06672,
    "longitude": -87.4004,
    "accessName": "Cobbs Landing",
    "riverName": "Alabama River",
    "type": "Public",
    "otherName": "Rockwest Creek"
  },
  {
    "department": "U.S. Army Corps of Engineers",
    "state": "Alabama",
    "county": "Wilcox County",
    "latitude": 32.0378269654,
    "longitude": -87.3087456483,
    "accessName": "Ellis Landing",
    "riverName": "Alabama River - William Dannelly Reservoir",
    "type": "Public",
    "otherName": "Shell Creek-Foster Creek"
  },
  {
    "department": "U.S. Army Corps of Engineers",
    "state": "Alabama",
    "county": "Dallas County",
    "latitude": 32.1646796384,
    "longitude": -87.1147330413,
    "accessName": "Elm Bluff",
    "riverName": "Alabama River - William Dannelly Reservoir",
    "type": "Public",
    "otherName": "Rum Creek"
  },
  {
    "department": "U.S. Army Corps of Engineers",
    "state": "Alabama",
    "county": "Wilcox County",
    "latitude": 32.0579670467,
    "longitude": -87.3093288852,
    "accessName": "Gees Bend",
    "riverName": "Alabama River - William Dannelly Reservoir",
    "type": "Public",
    "otherName": "Shell Creek-Foster Creek"
  },
  {
    "department": "U.S. Army Corps of Engineers",
    "state": "Alabama",
    "county": "Montgomery County",
    "latitude": 32.3638407333,
    "longitude": -86.4558707075,
    "accessName": "Gunter Hill Park",
    "riverName": "Alabama River",
    "type": "Public",
    "otherName": "Catoma Creek-Antioch Branch"
  },
  {
    "department": "U.S. Army Corps of Engineers",
    "state": "Alabama",
    "county": "Monroe County",
    "latitude": 31.7255307235,
    "longitude": -87.4689509632,
    "accessName": "Haines Island Park",
    "riverName": "Alabama River",
    "type": "Public",
    "otherName": "McLeod Creek"
  },
  {
    "department": "U.S. Army Corps of Engineers",
    "state": "Alabama",
    "county": "Wilcox County",
    "latitude": 31.9699,
    "longitude": -87.4128,
    "accessName": "Holleys Ferry",
    "riverName": "Alabama River",
    "type": "Public",
    "otherName": "Dunns Creek"
  },
  {
    "department": "U.S. Army Corps of Engineers",
    "state": "Alabama",
    "county": "Lowndes County",
    "latitude": 32.3516748824,
    "longitude": -86.6793377451,
    "accessName": "Holy Ground Battlefield Park",
    "riverName": "Alabama River",
    "type": "Public",
    "otherName": "Prarie Creek"
  },
  {
    "department": "U.S. Army Corps of Engineers",
    "state": "Alabama",
    "county": "Wilcox County",
    "latitude": 32.1205037762,
    "longitude": -87.3890869877,
    "accessName": "Millers Ferry Campground",
    "riverName": "Alabama River - William Dannelly Reservoir",
    "type": "Public",
    "otherName": "Shell Creek-Foster Creek"
  },
  {
    "department": "U.S. Army Corps of Engineers",
    "state": "Alabama",
    "county": "Lowndes County",
    "latitude": 32.3404797011,
    "longitude": -86.769703885,
    "accessName": "Prairie Creek Campground",
    "riverName": "Alabama River",
    "type": "Public",
    "otherName": "Prarie Creek"
  },
  {
    "department": "U.S. Army Corps of Engineers",
    "state": "Alabama",
    "county": "Wilcox County",
    "latitude": 32.1142090443,
    "longitude": -87.4057311369,
    "accessName": "Shell Creek Park",
    "riverName": "Alabama River - William Dannelly Reservoir",
    "type": "Public",
    "otherName": "Shell Creek-Foster Creek"
  },
  {
    "department": "U.S. Army Corps of Engineers",
    "state": "Alabama",
    "county": "Dallas County",
    "latitude": 32.3262860776,
    "longitude": -87.0146560118,
    "accessName": "Six Mile Creek",
    "riverName": "Alabama River",
    "type": "Public",
    "otherName": "Lias Creek"
  },
  {
    "department": "U.S. Army Corps of Engineers",
    "state": "Alabama",
    "county": "Autauga County",
    "latitude": 32.4306319512,
    "longitude": -86.832742881,
    "accessName": "Steeles Landing",
    "riverName": "Alabama River",
    "type": "Public",
    "otherName": "Camp Creek"
  },
  {
    "department": "U.S. Army Corps of Engineers",
    "state": "Alabama",
    "county": "Autauga County",
    "latitude": 32.4179840941,
    "longitude": -86.6297079094,
    "accessName": "Swift Creek Park",
    "riverName": "Alabama River",
    "type": "Public",
    "otherName": "Lower Swift Creek"
  },
  {
    "department": "U.S. Army Corps of Engineers",
    "state": "Alabama",
    "county": "Chambers County",
    "latitude": 32.9339941148,
    "longitude": -85.1997221041,
    "accessName": "Anderson Park",
    "riverName": "Chattahoochee River - West Point Lake",
    "type": "Public",
    "otherName": "Lower West Point Lake"
  },
  {
    "department": "U.S. Army Corps of Engineers",
    "state": "Alabama",
    "county": "Chambers County",
    "latitude": 33.0464102674,
    "longitude": -85.221343373,
    "accessName": "Dewberry Park",
    "riverName": "Chattahoochee River - West Point Lake",
    "type": "Public",
    "otherName": "Lower Wehadkee Creek"
  },
  {
    "department": "U.S. Army Corps of Engineers",
    "state": "Alabama",
    "county": "Troup County",
    "latitude": 32.993467068,
    "longitude": -85.1985122363,
    "accessName": "Rocky Point Recreation Area",
    "riverName": "Chattahoochee River - West Point Lake",
    "type": "Public",
    "otherName": "Lower Wehadkee Creek"
  },
  {
    "department": "U.S. Army Corps of Engineers",
    "state": "Alabama",
    "county": "Chambers County",
    "latitude": 32.9966787243,
    "longitude": -85.2285713837,
    "accessName": "Veasey Creek Park",
    "riverName": "Chattahoochee River - West Point Lake",
    "type": "Public",
    "otherName": "Veasey Creek-West Point Lake"
  },
  {
    "department": "U.S. Army Corps of Engineers",
    "state": "Alabama",
    "county": "Pickens County",
    "latitude": 33.0834510954,
    "longitude": -88.2650185114,
    "accessName": "Cochrane Recreation Area",
    "riverName": "Tennessee - Tombigbee Waterway",
    "type": "Public",
    "otherName": "Owl Creek-Tombigbee River"
  },
  {
    "department": "U.S. Army Corps of Engineers",
    "state": "Alabama",
    "county": "Pickens County",
    "latitude": 33.0779,
    "longitude": -88.26429,
    "accessName": "Cochrane Boat Ramp",
    "riverName": "Tennessee - Tombigbee Waterway",
    "type": "Public",
    "otherName": "Owl Creek-Tombigbee River"
  },
  {
    "department": "U.S. Army Corps of Engineers",
    "state": "Alabama",
    "county": "Greene County",
    "latitude": 32.8331251908,
    "longitude": -88.1432198898,
    "accessName": "Howell Heflin Lock (Lower Pool Ramp)",
    "riverName": "Tennessee - Tombigbee Waterway",
    "type": "Public",
    "otherName": "Cypress Swamp-Tombigbee River"
  },
  {
    "department": "U.S. Army Corps of Engineers",
    "state": "Alabama",
    "county": "Pickens County",
    "latitude": 33.2429615956,
    "longitude": -88.3026788011,
    "accessName": "Pickensville Campground",
    "riverName": "Tennessee - Tombigbee Waterway",
    "type": "Public",
    "otherName": "Cypress Branch-Tombigbee River"
  },
  {
    "department": "U.S. Army Corps of Engineers",
    "state": "Alabama",
    "county": "Pickens County",
    "latitude": 33.2289707115,
    "longitude": -88.2887990293,
    "accessName": "Pickensville Day Use",
    "riverName": "Tennessee - Tombigbee Waterway",
    "type": "Public",
    "otherName": "Cypress Branch-Tombigbee River"
  },
  {
    "department": "U.S. Army Corps of Engineers",
    "state": "Alabama",
    "county": "Pickens County",
    "latitude": 33.2311608686,
    "longitude": -88.2948277188,
    "accessName": "Raleigh Ryan",
    "riverName": "Tennessee - Tombigbee Waterway",
    "type": "Public",
    "otherName": "Cypress Branch-Tombigbee River"
  },
  {
    "department": "U.S. Army Corps of Engineers",
    "state": "Alabama",
    "county": "Pickens County",
    "latitude": 33.1649163021,
    "longitude": -88.2707766183,
    "accessName": "Ringo Bluff",
    "riverName": "Tennessee - Tombigbee Waterway",
    "type": "Public",
    "otherName": "Owl Creek-Tombigbee River"
  },
  {
    "department": "U.S. Army Corps of Engineers",
    "state": "Alabama",
    "county": "Sumter County",
    "latitude": 32.9289293014,
    "longitude": -88.2071676454,
    "accessName": "S.W. Taylor",
    "riverName": "Tennessee - Tombigbee Waterway",
    "type": "Public",
    "otherName": "Turkey Paw Creek-Tombigbee River"
  },
  {
    "department": "U.S. Army Corps of Engineers",
    "state": "Alabama",
    "county": "Sumter County",
    "latitude": 32.8729658916,
    "longitude": -88.1845432735,
    "accessName": "Sumter",
    "riverName": "Tennessee - Tombigbee Waterway",
    "type": "Public",
    "otherName": "Turkey Paw Creek-Tombigbee River"
  },
  {
    "department": "U.S. Army Corps of Engineers",
    "state": "Alabama",
    "county": "Pickens County",
    "latitude": 33.0167614952,
    "longitude": -88.1909264453,
    "accessName": "Vienna",
    "riverName": "Tennessee - Tombigbee Waterway",
    "type": "Public",
    "otherName": "Big Slough-Tombigbee River"
  },
  {
    "department": "U.S. Army Corps of Engineers",
    "state": "Alabama",
    "county": "Russell County",
    "latitude": 32.1804684369,
    "longitude": -85.0134544857,
    "accessName": "Bluff Creek Landing",
    "riverName": "Chattahoochee River - Walter F. Geprge Reservoir",
    "type": "Public",
    "otherName": "Snake Creek-Chattahoochee River"
  },
  {
    "department": "U.S. Army Corps of Engineers",
    "state": "Alabama",
    "county": "Barbour County",
    "latitude": 31.8317744345,
    "longitude": -85.1635936186,
    "accessName": "Cheneyhatchee Creek Landing",
    "riverName": "Chattahoochee River - Walter F. Geprge Reservoir",
    "type": "Public",
    "otherName": "Cheneyhatchee Creek-Chattahoochee River"
  },
  {
    "department": "U.S. Army Corps of Engineers",
    "state": "Alabama",
    "county": "Henry County",
    "latitude": 31.6066100327,
    "longitude": -85.0582225003,
    "accessName": "Franklin Landing",
    "riverName": "Chattahoochee River",
    "type": "Public",
    "otherName": "McRay Mill Creek-Chattahoochee River"
  },
  {
    "department": "U.S. Army Corps of Engineers",
    "state": "Alabama",
    "county": "Henry County",
    "latitude": 31.6412009756,
    "longitude": -85.1050279193,
    "accessName": "Hardridge Creek Day Use",
    "riverName": "Chattahoochee River - Walter F. Geprge Reservoir",
    "type": "Public",
    "otherName": "Thomas Mill-Walter F. George Reservoir"
  },
  {
    "department": "U.S. Army Corps of Engineers",
    "state": "Alabama",
    "county": "Russell County",
    "latitude": 32.1359045361,
    "longitude": -85.061235047,
    "accessName": "Hatchechubbee Creek Park",
    "riverName": "Chattahoochee River - Walter F. Geprge Reservoir",
    "type": "Public",
    "otherName": "Cliatt Branch-Chattahoochee River"
  },
  {
    "department": "U.S. Army Corps of Engineers",
    "state": "Alabama",
    "county": "Henry County",
    "latitude": 31.6315279108,
    "longitude": -85.0991737323,
    "accessName": "Highland Park",
    "riverName": "Chattahoochee River - Walter F. Geprge Reservoir",
    "type": "Public",
    "otherName": "Thomas Mill-Walter F. George Reservoir"
  },
  {
    "department": "U.S. Army Corps of Engineers",
    "state": "Alabama",
    "county": "Hale County",
    "latitude": 32.5535792599,
    "longitude": -87.7826311273,
    "accessName": "Yellow Creek",
    "riverName": "Black Warrior River",
    "type": "Public",
    "otherName": "French Creek"
  },
  {
    "department": "U.S. Army Corps of Engineers",
    "state": "Alabama",
    "county": "Greene County",
    "latitude": 32.56796,
    "longitude": -87.81038,
    "accessName": "Backbone Creek",
    "riverName": "Black Warrior River",
    "type": "Public",
    "otherName": "Coleman Branch"
  },
  {
    "department": "U.S. Army Corps of Engineers",
    "state": "Alabama",
    "county": "Sumter County",
    "latitude": 32.5519393395,
    "longitude": -87.876890011,
    "accessName": "Belmont",
    "riverName": "Black Warrior River",
    "type": "Public",
    "otherName": "Twelvemile Bend-Tombigbee River"
  },
  {
    "department": "U.S. Army Corps of Engineers",
    "state": "Alabama",
    "county": "Tuscaloosa County",
    "latitude": 33.4367094663,
    "longitude": -87.3802380604,
    "accessName": "Blue Creek",
    "riverName": "Black Warrior River",
    "type": "Public",
    "otherName": "Laurel Branch-Bluff Creek"
  },
  {
    "department": "U.S. Army Corps of Engineers",
    "state": "Alabama",
    "county": "Tuscaloosa County",
    "latitude": 33.4392038245,
    "longitude": -87.3737277061,
    "accessName": "Burchfield Branch",
    "riverName": "Black Warrior River",
    "type": "Public",
    "otherName": "Laurel Branch-Bluff Creek"
  },
  {
    "department": "U.S. Army Corps of Engineers",
    "state": "Alabama",
    "county": "Greene County",
    "latitude": 32.7803534978,
    "longitude": -87.8429126224,
    "accessName": "Warrior Lock and Dam (Lower Pool - Selden)",
    "riverName": "Black Warrior River",
    "type": "Public",
    "otherName": "Bee Branch"
  },
  {
    "department": "U.S. Army Corps of Engineers",
    "state": "Alabama",
    "county": "Tuscaloosa County",
    "latitude": 33.2633326369,
    "longitude": -87.4242088991,
    "accessName": "Deerlick Creek",
    "riverName": "Black Warrior River",
    "type": "Public",
    "otherName": "Laurel Branch-Bluff Creek"
  },
  {
    "department": "U.S. Army Corps of Engineers",
    "state": "Alabama",
    "county": "Greene County",
    "latitude": 32.844023101,
    "longitude": -87.8346978022,
    "accessName": "Finches Ferry",
    "riverName": "Black Warrior River",
    "type": "Public",
    "otherName": "Bee Branch"
  },
  {
    "department": "U.S. Army Corps of Engineers",
    "state": "Alabama",
    "county": "Greene County",
    "latitude": 32.6262882598,
    "longitude": -87.8833505694,
    "accessName": "Forkland",
    "riverName": "McConnico Creek",
    "type": "Public",
    "otherName": "McConnico Creek"
  },
  {
    "department": "U.S. Army Corps of Engineers",
    "state": "Alabama",
    "county": "Marengo County",
    "latitude": 32.5139145421,
    "longitude": -87.8704338522,
    "accessName": "Foscue Creek",
    "riverName": "Black Warrior River",
    "type": "Public",
    "otherName": "Hall Creek-Tombigbee River"
  },
  {
    "department": "U.S. Army Corps of Engineers",
    "state": "Alabama",
    "county": "Hale County",
    "latitude": 32.8060992645,
    "longitude": -87.8142732513,
    "accessName": "Jennings Ferry",
    "riverName": "Black Warrior River",
    "type": "Public",
    "otherName": "Bee Branch"
  },
  {
    "department": "U.S. Army Corps of Engineers",
    "state": "Alabama",
    "county": "Choctaw County",
    "latitude": 31.8568456082,
    "longitude": -88.1586767144,
    "accessName": "Lenoir Landing",
    "riverName": "Black Warrior River",
    "type": "Public",
    "otherName": "Big Tallawampa Creek"
  },
  {
    "department": "U.S. Army Corps of Engineers",
    "state": "Alabama",
    "county": "Hale County",
    "latitude": 32.70973,
    "longitude": -87.79062,
    "accessName": "Lock No. 6",
    "riverName": "Black Warrior River",
    "type": "Public",
    "otherName": "White Creek"
  },
  {
    "department": "U.S. Army Corps of Engineers",
    "state": "Alabama",
    "county": "Greene County",
    "latitude": 32.7858004454,
    "longitude": -87.8360212408,
    "accessName": "Lock No 7 West",
    "riverName": "Black Warrior River",
    "type": "Public",
    "otherName": "Bee Branch"
  },
  {
    "department": "U.S. Army Corps of Engineers",
    "state": "Alabama",
    "county": "Hale County",
    "latitude": 32.8957002623,
    "longitude": -87.7808626245,
    "accessName": "Lock No. 8",
    "riverName": "Black Warrior River",
    "type": "Public",
    "otherName": "Bee Branch"
  },
  {
    "department": "U.S. Army Corps of Engineers",
    "state": "Alabama",
    "county": "Tuscaloosa County",
    "latitude": 33.2096866091,
    "longitude": -87.5976474835,
    "accessName": "Mill Creek (Oliver Dam)",
    "riverName": "Black Warrior River",
    "type": "Public",
    "otherName": "Mill Creek-Black Warrior River"
  },
  {
    "department": "U.S. Army Corps of Engineers",
    "state": "Alabama",
    "county": "Tuscaloosa County",
    "latitude": 33.3615541493,
    "longitude": -87.4149077603,
    "accessName": "Old Lock 15",
    "riverName": "Black Warrior River",
    "type": "Public",
    "otherName": "Laurel Branch-Bluff Creek"
  },
  {
    "department": "U.S. Army Corps of Engineers",
    "state": "Alabama",
    "county": "Tuscaloosa County",
    "latitude": 33.2509046881,
    "longitude": -87.4346431072,
    "accessName": "Rock Quarry Landing",
    "riverName": "Black Warrior River",
    "type": "Public",
    "otherName": "Laurel Branch-Bluff Creek"
  },
  {
    "department": "U.S. Army Corps of Engineers",
    "state": "Alabama",
    "county": "Tuscaloosa County",
    "latitude": 33.270448356,
    "longitude": -87.4183150462,
    "accessName": "Rocky Branch Park",
    "riverName": "Black Warrior River",
    "type": "Public",
    "otherName": "Laurel Branch-Bluff Creek"
  },
  {
    "department": "U.S. Army Corps of Engineers",
    "state": "Alabama",
    "county": "Greene County",
    "latitude": 32.555182417,
    "longitude": -87.844167654,
    "accessName": "Runaway Branch No. 2",
    "riverName": "Black Warrior River",
    "type": "Public",
    "otherName": "Coleman Branch"
  },
  {
    "department": "U.S. Army Corps of Engineers",
    "state": "Alabama",
    "county": "Choctaw County",
    "latitude": 31.7512456331,
    "longitude": -88.143100108,
    "accessName": "Service Park",
    "riverName": "Black Warrior River",
    "type": "Public",
    "otherName": "Tombigbee River-Okatuppa Creek"
  },
  {
    "department": "U.S. Army Corps of Engineers",
    "state": "Alabama",
    "county": "Marengo County",
    "latitude": 32.5210664077,
    "longitude": -87.8913702187,
    "accessName": "Spillway Falls",
    "riverName": "Black Warrior River",
    "type": "Public",
    "otherName": "Hall Creek-Tombigbee River"
  },
  {
    "department": "U.S. Army Corps of Engineers",
    "state": "Alabama",
    "county": "Henry County",
    "latitude": 31.4112262285,
    "longitude": -85.0805371528,
    "accessName": "Abbie Creek Park",
    "riverName": "Chattahoochee River",
    "type": "Public",
    "otherName": "Lower Abbie Creek"
  },
  {
    "department": "U.S. Army Corps of Engineers",
    "state": "Alabama",
    "county": "Monroe County",
    "latitude": 31.6210339889,
    "longitude": -87.5471812844,
    "accessName": "Claiborne Damsite East Bank",
    "riverName": "Alabama River",
    "type": "Public",
    "otherName": "Marshall Upper Landing"
  },
  {
    "department": "U.S. Army Corps of Engineers",
    "state": "Alabama",
    "county": "Clarke County",
    "latitude": 31.6634809796,
    "longitude": -87.5723787908,
    "accessName": "Silver Creek Campground",
    "riverName": "Alabama River",
    "type": "Public",
    "otherName": "Silver Creek"
  },
  {
    "department": "U.S. Army Corps of Engineers",
    "state": "Alabama",
    "county": "Chambers County",
    "latitude": 32.9819372862,
    "longitude": -85.2124530218,
    "accessName": "Amity Campground",
    "riverName": "Chattahoochee River - West Point Lake",
    "type": "Public",
    "otherName": "Lower West Point Lake"
  },
  {
    "department": "U.S. Army Corps of Engineers",
    "state": "Alabama",
    "county": "Barbour County",
    "latitude": 31.774818287,
    "longitude": -85.1546849413,
    "accessName": "White Oak Creek Day Use",
    "riverName": "Chattahoochee River - Walter F. Geprge Reservoir",
    "type": "Public",
    "otherName": "White Oak Creek"
  },
  {
    "department": "U.S. Army Corps of Engineers",
    "state": "Alabama",
    "county": "Hale County",
    "latitude": 32.5863704688,
    "longitude": -87.7447699423,
    "accessName": "Lock No. 5",
    "riverName": "Black Warrior River",
    "type": "Public",
    "otherName": "South Needham Creek"
  },
  {
    "department": "U.S. Army Corps of Engineers",
    "state": "Alabama",
    "county": "Wilcox County",
    "latitude": 31.88548,
    "longitude": -87.522,
    "accessName": "Black Creek",
    "riverName": "Alabama River",
    "type": "Public",
    "otherName": "Dunns Creek"
  },
  {
    "department": "U.S. Army Corps of Engineers",
    "state": "Alabama",
    "county": "Wilcox County",
    "latitude": 32.0479120506,
    "longitude": -87.259067257,
    "accessName": "Bridgeport Lnding",
    "riverName": "Alabama River - William Dannelly Reservoir",
    "type": "Public",
    "otherName": "Shell Creek-Foster Creek"
  },
  {
    "department": "U.S. Army Corps of Engineers",
    "state": "Alabama",
    "county": "Elmore County",
    "latitude": 32.4314429063,
    "longitude": -86.3992621656,
    "accessName": "Cooters Pond Park",
    "riverName": "Alabama River",
    "type": "Public",
    "otherName": "Still Creek"
  },
  {
    "department": "U.S. Army Corps of Engineers",
    "state": "Alabama",
    "county": "Montgomery County",
    "latitude": 32.3851478048,
    "longitude": -86.3331757926,
    "accessName": "Powder Magazine Park",
    "riverName": "Alabama River",
    "type": "Public",
    "otherName": "Jackson Lake"
  },
  {
    "department": "U.S. Army Corps of Engineers",
    "state": "Alabama",
    "county": "Barbour County",
    "latitude": 31.8666310146,
    "longitude": -85.159332954,
    "accessName": "Barbour Creek",
    "riverName": "Chattahoochee River - Walter F. Geprge Reservoir",
    "type": "Public",
    "otherName": "Barbour Creek-Chattahoochee River"
  },
  {
    "department": "U.S. Army Corps of Engineers",
    "state": "Alabama",
    "county": "Russell County",
    "latitude": 32.1601776906,
    "longitude": -85.1157631419,
    "accessName": "Briar Creek",
    "riverName": "Chattahoochee River - Walter F. Geprge Reservoir",
    "type": "Public",
    "otherName": "Hatchechubbee Creek-Chattahoochee River"
  },
  {
    "department": "U.S. Army Corps of Engineers",
    "state": "Alabama",
    "county": "Barbour County",
    "latitude": 31.9182858309,
    "longitude": -85.1211253904,
    "accessName": "Old Creek Town Park",
    "riverName": "Chattahoochee River - Walter F. Geprge Reservoir",
    "type": "Public",
    "otherName": "Foy's Pond-Chattahoochee River"
  },
  {
    "department": "U.S. Army Corps of Engineers",
    "state": "Alabama",
    "county": "Clarke County",
    "latitude": 31.9566679669,
    "longitude": -88.0709633935,
    "accessName": "Bashi Creek",
    "riverName": "Black Warrior River",
    "type": "Public",
    "otherName": "Lower Bashi Creek"
  },
  {
    "department": "U.S. Army Corps of Engineers",
    "state": "Alabama",
    "county": "Choctaw County",
    "latitude": 32.1715621137,
    "longitude": -88.0117381725,
    "accessName": "Lock No. 2 Park",
    "riverName": "Black Warrior River",
    "type": "Public",
    "otherName": "Double Creek-Tombigbee River"
  },
  {
    "department": "U.S. Army Corps of Engineers",
    "state": "Alabama",
    "county": "Choctaw County",
    "latitude": 31.9515522752,
    "longitude": -88.1225896226,
    "accessName": "McCarty Ferry",
    "riverName": "Black Warrior River",
    "type": "Public",
    "otherName": "Turkey Creek-Tombigbee River"
  },
  {
    "department": "U.S. Army Corps of Engineers",
    "state": "Alabama",
    "county": "Houston County",
    "latitude": 31.2826580556,
    "longitude": -85.1070677777,
    "accessName": "Columbia Boat Ramp",
    "riverName": "Apalachicola Chattahoochee Rivers",
    "type": "Public",
    "otherName": "Baker Creek-Chattahoochee River"
  },
  {
    "department": "U.S. Army Corps of Engineers",
    "state": "Alabama",
    "county": "Houston County",
    "latitude": 31.27634,
    "longitude": -85.11667,
    "accessName": "Omussee Creek Park",
    "riverName": "Apalachicola Chattahoochee Rivers",
    "type": "Public",
    "otherName": "Lower Omusee Creek"
  },
  {
    "department": "U.S. Army Corps of Engineers",
    "state": "Alabama",
    "county": "Marengo County",
    "latitude": 32.5253497525,
    "longitude": -87.8394593836,
    "accessName": "Demopolis City Landing",
    "riverName": "Black Warrior River",
    "type": "Public",
    "otherName": "Hall Creek-Tombigbee River"
  },
  {
    "department": "U.S. Army Corps of Engineers",
    "state": "Alabama",
    "county": "Russell County",
    "latitude": 32.3045412687,
    "longitude": -84.9573938463,
    "accessName": "Uchee Creek",
    "riverName": "Chattahoochee River - Walter F. Geprge Reservoir",
    "type": "Public",
    "otherName": "Cowpen Creek-Uchee Creek"
  },
  {
    "department": "U.S. Army Corps of Engineers",
    "state": "Alabama",
    "county": "Marengo County",
    "latitude": 32.5319345915,
    "longitude": -87.845811818,
    "accessName": "Lock No. 4",
    "riverName": "Black Warrior River",
    "type": "Public",
    "otherName": "Hall Creek-Tombigbee River"
  },
  {
    "department": "U.S. Army Corps of Engineers",
    "state": "Alabama",
    "county": "Greene County",
    "latitude": 32.5515048236,
    "longitude": -87.8394114983,
    "accessName": "Runaway Branch No. 1",
    "riverName": "Black Warrior River",
    "type": "Public",
    "otherName": "Coleman Branch"
  },
  {
    "department": "U.S. Army Corps of Engineers",
    "state": "Alabama",
    "county": "Wilcox County",
    "latitude": 32.0492205838,
    "longitude": -87.2478587268,
    "accessName": "Roland Cooper State Park",
    "riverName": "Alabama River - William Dannelly Reservoir",
    "type": "Public",
    "otherName": "Shell Creek-Foster Creek"
  },
  {
    "department": "U.S. Army Corps of Engineers",
    "state": "Alabama",
    "county": "Barbour County",
    "latitude": 31.985694988,
    "longitude": -85.1125375765,
    "accessName": "Lakepoint State Park",
    "riverName": "Chattahoochee River - Walter F. Geprge Reservoir",
    "type": "Public",
    "otherName": "Cowikee Creek-Chattahoochee River"
  },
  {
    "department": "ScienceBase.gov",
    "state": "Alabama",
    "county": "Baldwin County",
    "latitude": 30.4160038325,
    "longitude": -87.8258473236,
    "accessName": "Bay Watch",
    "riverName": "Fish River",
    "type": "Public",
    "otherName": "Lower Fish River"
  },
  {
    "department": "ScienceBase.gov",
    "state": "Alabama",
    "county": "Mobile County",
    "latitude": 30.3822833337,
    "longitude": -88.2685166666,
    "accessName": "Bayou La Batre State Docks",
    "riverName": "Mobile Bay",
    "type": "Public",
    "otherName": "Bayou La Batre"
  },
  {
    "department": "ScienceBase.gov",
    "state": "Alabama",
    "county": "Mobile County",
    "latitude": 30.2514587427,
    "longitude": -88.0817188849,
    "accessName": "Billygoat Hole",
    "riverName": "Gulf of Mexico",
    "type": "Public",
    "otherName": "Dauphin Island"
  },
  {
    "department": "ScienceBase.gov",
    "state": "Alabama",
    "county": "Baldwin County",
    "latitude": 30.2840166665,
    "longitude": -87.5547333337,
    "accessName": "Boggy Point",
    "riverName": "Gulf of Mexico",
    "type": "Public",
    "otherName": "Perdido Pass-Frontal Gulf of Mexico"
  },
  {
    "department": "ScienceBase.gov",
    "state": "Alabama",
    "county": "Baldwin County",
    "latitude": 30.2787210823,
    "longitude": -87.6867561916,
    "accessName": "Canal Park",
    "riverName": "canal",
    "type": "Public",
    "otherName": "Perdido Pass-Frontal Gulf of Mexico"
  },
  {
    "department": "ScienceBase.gov",
    "state": "Alabama",
    "county": "Baldwin County",
    "latitude": 30.6791666669,
    "longitude": -87.9924999998,
    "accessName": "Chacaloochee Bay",
    "riverName": "Mobile Bay",
    "type": "Public",
    "otherName": "Tensaw River-Apalachee River"
  },
  {
    "department": "ScienceBase.gov",
    "state": "Alabama",
    "county": "Baldwin County",
    "latitude": 30.2717862729,
    "longitude": -87.5829687064,
    "accessName": "Cotton Bayou",
    "riverName": "Gulf of Mexico",
    "type": "Public",
    "otherName": "Perdido Pass-Frontal Gulf of Mexico"
  },
  {
    "department": "ScienceBase.gov",
    "state": "Alabama",
    "county": "Mobile County",
    "latitude": 30.5336333336,
    "longitude": -88.1054333334,
    "accessName": "Deer River Bait & Tackle",
    "riverName": "North Fork Deer River",
    "type": "Semi-Private",
    "otherName": "Deer River"
  },
  {
    "department": "ScienceBase.gov",
    "state": "Alabama",
    "county": "Mobile County",
    "latitude": 30.3685333336,
    "longitude": -88.1603000001,
    "accessName": "Delta Port Marina",
    "riverName": "Mobile Bay",
    "type": "Semi-Private",
    "otherName": "West Fowl River"
  },
  {
    "department": "ScienceBase.gov",
    "state": "Alabama",
    "county": "Mobile County",
    "latitude": 30.6284999996,
    "longitude": -88.1020500002,
    "accessName": "Dog River Park",
    "riverName": "Dog River",
    "type": "Public",
    "otherName": "Upper Dog River"
  },
  {
    "department": "ScienceBase.gov",
    "state": "Alabama",
    "county": "Mobile County",
    "latitude": 30.4449333608,
    "longitude": -88.1139406251,
    "accessName": "Fowl River Marina",
    "riverName": "Fowl River",
    "type": "Semi-Private",
    "otherName": "Fowl River"
  },
  {
    "department": "ScienceBase.gov",
    "state": "Alabama",
    "county": "Baldwin County",
    "latitude": 30.2315499998,
    "longitude": -88.017616667,
    "accessName": "Ft. Morgan",
    "riverName": "Gulf of Mexico",
    "type": "Public",
    "otherName": "Oyster Bay"
  },
  {
    "department": "ScienceBase.gov",
    "state": "Alabama",
    "county": "Mobile County",
    "latitude": 30.5726666668,
    "longitude": -88.0860000002,
    "accessName": "Hoppe's Fish Camp",
    "riverName": "Mobile Bay",
    "type": "Semi-Private",
    "otherName": "Lower Dog River"
  },
  {
    "department": "ScienceBase.gov",
    "state": "Alabama",
    "county": "Mobile County",
    "latitude": 30.34125,
    "longitude": -88.1268000003,
    "accessName": "Jemison's Bait & Tackle",
    "riverName": "Mobile Bay",
    "type": "Semi-Private",
    "otherName": "Deer River"
  },
  {
    "department": "ScienceBase.gov",
    "state": "Alabama",
    "county": "Baldwin County",
    "latitude": 30.3264791396,
    "longitude": -87.5332912565,
    "accessName": "Josephine Park",
    "riverName": "Roberts Bayou",
    "type": "Public",
    "otherName": "Perdido Pass-Frontal Gulf of Mexico"
  },
  {
    "department": "ScienceBase.gov",
    "state": "Alabama",
    "county": "Baldwin County",
    "latitude": 30.2552160495,
    "longitude": -87.7158022322,
    "accessName": "Lagoon Park",
    "riverName": "Gulf of Mexico",
    "type": "Public",
    "otherName": "Little Lagoon"
  },
  {
    "department": "ScienceBase.gov",
    "state": "Alabama",
    "county": "Mobile County",
    "latitude": 30.2500861496,
    "longitude": -88.0765378058,
    "accessName": "Little Billy Goat Hole",
    "riverName": "Gulf of Mexico",
    "type": "Public",
    "otherName": "Dauphin Island"
  },
  {
    "department": "ScienceBase.gov",
    "state": "Alabama",
    "county": "Baldwin County",
    "latitude": 30.5995619403,
    "longitude": -87.9138372482,
    "accessName": "May Day Park & Pier",
    "riverName": "Mobile Bay",
    "type": "Public",
    "otherName": "Fly Creek"
  },
  {
    "department": "ScienceBase.gov",
    "state": "Alabama",
    "county": "Mobile County",
    "latitude": 30.5825500003,
    "longitude": -88.0730500002,
    "accessName": "McNally Park",
    "riverName": "Mobile Bay",
    "type": "Public",
    "otherName": "Deer River"
  },
  {
    "department": "ScienceBase.gov",
    "state": "Alabama",
    "county": "Baldwin County",
    "latitude": 30.6660849998,
    "longitude": -87.9309640003,
    "accessName": "Meaher State Park",
    "riverName": "Mobile Bay",
    "type": "Public",
    "otherName": "Tensaw River-Apalachee River"
  },
  {
    "department": "ScienceBase.gov",
    "state": "Alabama",
    "county": "Mobile County",
    "latitude": 30.4623499998,
    "longitude": -88.1547333334,
    "accessName": "Memories Fish Camp",
    "riverName": "Fowl River",
    "type": "Semi-Private",
    "otherName": "Fowl River"
  },
  {
    "department": "ScienceBase.gov",
    "state": "Alabama",
    "county": "Baldwin County",
    "latitude": 30.4161499997,
    "longitude": -87.9086833335,
    "accessName": "Mullet Point",
    "riverName": "Mobile Bay",
    "type": "Public",
    "otherName": "Fly Creek"
  },
  {
    "department": "ScienceBase.gov",
    "state": "Alabama",
    "county": "Baldwin County",
    "latitude": 30.343783726,
    "longitude": -87.5066502373,
    "accessName": "Palmetto Creekp",
    "riverName": "Gulf of Mexico",
    "type": "Public",
    "otherName": "Palmetto Creek-Perdido Bay"
  },
  {
    "department": "ScienceBase.gov",
    "state": "Alabama",
    "county": "Baldwin County",
    "latitude": 30.517879256,
    "longitude": -87.915643942,
    "accessName": "Pier Street",
    "riverName": "Mobile Bay",
    "type": "Public",
    "otherName": "Fly Creek"
  },
  {
    "department": "ScienceBase.gov",
    "state": "Alabama",
    "county": "Mobile County",
    "latitude": 30.5761500001,
    "longitude": -88.1299000003,
    "accessName": "Schwartz Lane",
    "riverName": "Rabbit Creek",
    "type": "Semi-Private",
    "otherName": "Lower Dog River"
  },
  {
    "department": "ScienceBase.gov",
    "state": "Alabama",
    "county": "Baldwin County",
    "latitude": 30.6681333335,
    "longitude": -87.9224833331,
    "accessName": "Scott's Landing",
    "riverName": "Mobile Bay",
    "type": "Semi-Private",
    "otherName": "Tensaw River-Apalachee River"
  },
  {
    "department": "ScienceBase.gov",
    "state": "Alabama",
    "county": "Baldwin County",
    "latitude": 30.6816666671,
    "longitude": -88.0049999998,
    "accessName": "Tensaw Landing",
    "riverName": "Mobile Bay",
    "type": "Public",
    "otherName": "Tensaw River-Apalachee River"
  },
  {
    "department": "ScienceBase.gov",
    "state": "Alabama",
    "county": "Baldwin County",
    "latitude": 30.2392333335,
    "longitude": -87.8901166671,
    "accessName": "The Pines",
    "riverName": "Gulf of Mexico",
    "type": "Public",
    "otherName": "Oyster Bay"
  },
  {
    "department": "ScienceBase.gov",
    "state": "Alabama",
    "county": "Mobile County",
    "latitude": 30.5643166667,
    "longitude": -88.0889333333,
    "accessName": "The River Shack",
    "riverName": "Mobile Bay",
    "type": "Semi-Private",
    "otherName": "Lower Dog River"
  },
  {
    "department": "ScienceBase.gov",
    "state": "Alabama",
    "county": "Baldwin County",
    "latitude": 30.3765333329,
    "longitude": -87.837266667,
    "accessName": "View Point",
    "riverName": "Mobile Bay",
    "type": "Public",
    "otherName": "Fly Creek"
  },
  {
    "department": "ScienceBase.gov",
    "state": "Alabama",
    "county": "Baldwin County",
    "latitude": 30.3563079778,
    "longitude": -87.601558883,
    "accessName": "Wolf Bay",
    "riverName": "Wolf Creek",
    "type": "Semi-Private",
    "otherName": "Graham Bayou"
  },
  {
    "department": "U.S. Geological Survey",
    "state": "Alabama",
    "county": "Mobile County",
    "latitude": 30.4457673941,
    "longitude": -88.1135239198,
    "accessName": "West Gate Drive",
    "riverName": "Fowl River",
    "type": "Public",
    "otherName": "Fowl River"
  },
  {
    "department": "U.S. Geological Survey",
    "state": "Alabama",
    "county": "Mobile County",
    "latitude": 30.5692753559,
    "longitude": -88.0856420783,
    "accessName": "Mobile Yacht Club",
    "riverName": "Mobile Bay",
    "type": "Semi-Private",
    "otherName": "Deer River"
  },
  {
    "department": "U.S. Geological Survey",
    "state": "Alabama",
    "county": "Baldwin County",
    "latitude": 30.6728576656,
    "longitude": -87.9349788293,
    "accessName": "Division of Wildlife and Freshwater Fisheries",
    "riverName": "Mobile Bay",
    "type": "Public",
    "otherName": "Tensaw River-Apalachee River"
  }
]