[
  {
    "department": "Oregon.gov",
    "state": "Oregon",
    "county": "Douglas County",
    "latitude": 43.117,
    "longitude": -123.425,
    "accessName": "Sid Nichols Park",
    "riverName": "South Umpqua River",
    "type": "Public",
    "otherName": "Newton Creek-South Umpqua River"
  },
  {
    "department": "Oregon.gov",
    "state": "Oregon",
    "county": "Lake County",
    "latitude": 41.99323,
    "longitude": -120.3297167,
    "accessName": "Goose Lake State Park",
    "riverName": "Goose Lake",
    "type": "Public",
    "otherName": "Goose Lake"
  },
  {
    "department": "Oregon.gov",
    "state": "Oregon",
    "county": "Klamath County",
    "latitude": 42.00928,
    "longitude": -121.1162,
    "accessName": "Willow Valley",
    "riverName": "East Branch Lost River - Willow Valley Reservoir",
    "type": "Public",
    "otherName": "East Branch Lost River"
  },
  {
    "department": "Oregon.gov",
    "state": "Oregon",
    "county": "Jackson County",
    "latitude": 42.02834,
    "longitude": -123.14879,
    "accessName": "Copper",
    "riverName": "Applegate River - Applegate Reservoir",
    "type": "Public",
    "otherName": "Applegate Lake"
  },
  {
    "department": "Oregon.gov",
    "state": "Oregon",
    "county": "Jackson County",
    "latitude": 42.0481037591,
    "longitude": -123.106442719,
    "accessName": "French Gulch",
    "riverName": "Applegate River - Applegate Reservoir",
    "type": "Public",
    "otherName": "Applegate Lake"
  },
  {
    "department": "Oregon.gov",
    "state": "Oregon",
    "county": "Jackson County",
    "latitude": 42.05159,
    "longitude": -123.12571,
    "accessName": "Hart-Tish",
    "riverName": "Applegate River - Applegate Reservoir",
    "type": "Public",
    "otherName": "Applegate Lake"
  },
  {
    "department": "Oregon.gov",
    "state": "Oregon",
    "county": "Lake County",
    "latitude": 42.08431,
    "longitude": -120.7046667,
    "accessName": "Dog Lake Campground",
    "riverName": "Dog Lake",
    "type": "Public",
    "otherName": "Drews Reservoir"
  },
  {
    "department": "Oregon.gov",
    "state": "Oregon",
    "county": "Klamath County",
    "latitude": 42.0898666156,
    "longitude": -122.072322869,
    "accessName": "Upper Klamath River",
    "riverName": "Klamath River",
    "type": "Public",
    "otherName": "Big Bend-Klamath River"
  },
  {
    "department": "Oregon.gov",
    "state": "Oregon",
    "county": "Lake County",
    "latitude": 42.12005,
    "longitude": -120.6194,
    "accessName": "Drews Reservoir",
    "riverName": "Drews Creek - Drews Reservoir",
    "type": "Public",
    "otherName": "Drews Reservoir"
  },
  {
    "department": "Oregon.gov",
    "state": "Oregon",
    "county": "Lake County",
    "latitude": 42.12225,
    "longitude": -119.995717,
    "accessName": "Lucky Reservoir",
    "riverName": "Lucky Reservoir",
    "type": "Public",
    "otherName": "Big Lake"
  },
  {
    "department": "Oregon.gov",
    "state": "Oregon",
    "county": "Klamath County",
    "latitude": 42.13411,
    "longitude": -122.0328833,
    "accessName": "Pioneer Park",
    "riverName": "Klamath River - J.C. Boyle Reservoir",
    "type": "Public",
    "otherName": "John C Boyle Reservoir"
  },
  {
    "department": "Oregon.gov",
    "state": "Oregon",
    "county": "Klamath County",
    "latitude": 42.1358544336,
    "longitude": -121.942524836,
    "accessName": "Keno Recreation Area",
    "riverName": "Klamath River",
    "type": "Public",
    "otherName": "Keno Reservoir-Klamath River"
  },
  {
    "department": "Oregon.gov",
    "state": "Oregon",
    "county": "Jackson County",
    "latitude": 42.14111,
    "longitude": -122.5941667,
    "accessName": "Songer Wayside",
    "riverName": "Emigrant Lake",
    "type": "Public",
    "otherName": "Lower Emigrant Creek"
  },
  {
    "department": "Oregon.gov",
    "state": "Oregon",
    "county": "Jackson County",
    "latitude": 42.14177,
    "longitude": -122.61238,
    "accessName": "Patrick Dunn",
    "riverName": "Emigrant Lake",
    "type": "Public",
    "otherName": "Lower Emigrant Creek"
  },
  {
    "department": "Oregon.gov",
    "state": "Oregon",
    "county": "Klamath County",
    "latitude": 42.1471607303,
    "longitude": -121.848188722,
    "accessName": "Miller Island",
    "riverName": "Klamath River",
    "type": "Public",
    "otherName": "Keno Reservoir-Klamath River"
  },
  {
    "department": "Oregon.gov",
    "state": "Oregon",
    "county": "Klamath County",
    "latitude": 42.1550837026,
    "longitude": -121.663638067,
    "accessName": "Crystal Springs",
    "riverName": "Lost River",
    "type": "Public",
    "otherName": "Nuss Lake-Lost River"
  },
  {
    "department": "Oregon.gov",
    "state": "Oregon",
    "county": "Jackson County",
    "latitude": 42.1572970765,
    "longitude": -122.616753776,
    "accessName": "Emigrant Lake West",
    "riverName": "Emigrant Lake",
    "type": "Public",
    "otherName": "Lower Emigrant Creek"
  },
  {
    "department": "Oregon.gov",
    "state": "Oregon",
    "county": "Jackson County",
    "latitude": 42.15953,
    "longitude": -122.6169,
    "accessName": "Emigrant Lake North",
    "riverName": "Emigrant Lake",
    "type": "Public",
    "otherName": "Lower Emigrant Creek"
  },
  {
    "department": "Oregon.gov",
    "state": "Oregon",
    "county": "Klamath County",
    "latitude": 42.1762838229,
    "longitude": -121.060442678,
    "accessName": "Barnes Valley",
    "riverName": "Gerber Reservoir",
    "type": "Public",
    "otherName": "Barnes Valley Creek-Gerber Reservoir"
  },
  {
    "department": "Oregon.gov",
    "state": "Oregon",
    "county": "Jackson County",
    "latitude": 42.18374,
    "longitude": -122.44932,
    "accessName": "Wildcat Campground",
    "riverName": "Keene Creek - Hyatt Reservoir",
    "type": "Public",
    "otherName": "Keene Creek"
  },
  {
    "department": "Oregon.gov",
    "state": "Oregon",
    "county": "Klamath County",
    "latitude": 42.21801,
    "longitude": -121.13355,
    "accessName": "North Gerber Campground",
    "riverName": "Barnes Valley Creek - Gerber Reservoir",
    "type": "Public",
    "otherName": "Ben Hall Creek"
  },
  {
    "department": "Oregon.gov",
    "state": "Oregon",
    "county": "Klamath County",
    "latitude": 42.2188174058,
    "longitude": -121.788304106,
    "accessName": "Veteran's Memorial Park",
    "riverName": "Klamath River - Lake Ewauna",
    "type": "Public",
    "otherName": "Klamath Falls-Klamath River"
  },
  {
    "department": "Oregon.gov",
    "state": "Oregon",
    "county": "Lake County",
    "latitude": 42.21917,
    "longitude": -119.715692,
    "accessName": "Mud Lake",
    "riverName": "Mud Lake",
    "type": "Public",
    "otherName": "Fish Creek"
  },
  {
    "department": "Oregon.gov",
    "state": "Oregon",
    "county": "Klamath County",
    "latitude": 42.234642972,
    "longitude": -121.814566361,
    "accessName": "Moore Park Marina #2",
    "riverName": "Klamath River - Upper Klamath Lake",
    "type": "Public",
    "otherName": "Eagle Ridge-Frontal Upper Klamath Lake"
  },
  {
    "department": "Oregon.gov",
    "state": "Oregon",
    "county": "Klamath County",
    "latitude": 42.23496,
    "longitude": -121.8091833,
    "accessName": "Moore Park Marina #1",
    "riverName": "Klamath River - Upper Klamath Lake",
    "type": "Public",
    "otherName": "Eagle Ridge-Frontal Upper Klamath Lake"
  },
  {
    "department": "Oregon.gov",
    "state": "Oregon",
    "county": "Klamath County",
    "latitude": 42.23972,
    "longitude": -121.80928,
    "accessName": "Pelican Marina",
    "riverName": "Klamath River - Upper Klamath Lake",
    "type": "Semi-Private",
    "otherName": "King Cabin Canyon-Frontal Upper Klamath Lake"
  },
  {
    "department": "Oregon.gov",
    "state": "Oregon",
    "county": "Jackson County",
    "latitude": 42.23987,
    "longitude": -122.410483,
    "accessName": "Howard Prairie Resort",
    "riverName": "Grizzly Creek - Howard Prairie Lake",
    "type": "Public",
    "otherName": "Upper Jenny Creek"
  },
  {
    "department": "Oregon.gov",
    "state": "Oregon",
    "county": "Jackson County",
    "latitude": 42.4131213945,
    "longitude": -122.775355593,
    "accessName": "Agate Lake County Park",
    "riverName": "Agate Lake",
    "type": "Public",
    "otherName": "Lower Antelope Creek"
  },
  {
    "department": "Oregon.gov",
    "state": "Oregon",
    "county": "Lake County",
    "latitude": 42.2533,
    "longitude": -120.507139,
    "accessName": "Lower Cottonwood",
    "riverName": "Cottonwood Creek - Cottonwood Meadows Lake",
    "type": "Public",
    "otherName": "Upper Cottonwood Creek"
  },
  {
    "department": "Oregon.gov",
    "state": "Oregon",
    "county": "Lake County",
    "latitude": 42.25525,
    "longitude": -120.83895,
    "accessName": "Heart Lake Landing",
    "riverName": "Heart Lake",
    "type": "Public",
    "otherName": "Upper Fishhole Creek"
  },
  {
    "department": "Oregon.gov",
    "state": "Oregon",
    "county": "Josephine County",
    "latitude": 42.25895,
    "longitude": -123.57794,
    "accessName": "Reeves Creek",
    "riverName": "Lake Selmac",
    "type": "Public",
    "otherName": "McMullin Creek"
  },
  {
    "department": "Oregon.gov",
    "state": "Oregon",
    "county": "Lake County",
    "latitude": 42.26371,
    "longitude": -120.8147,
    "accessName": "Lofton Campground",
    "riverName": "Lofton Reservoir",
    "type": "Public",
    "otherName": "Upper Fishhole Creek"
  },
  {
    "department": "Oregon.gov",
    "state": "Oregon",
    "county": "Lake County",
    "latitude": 42.2676280386,
    "longitude": -119.876422574,
    "accessName": "Crump Lake Landing",
    "riverName": "Crump Lake",
    "type": "Public",
    "otherName": "Deep Creek-Crump Lake"
  },
  {
    "department": "Oregon.gov",
    "state": "Oregon",
    "county": "Lake County",
    "latitude": 42.28418,
    "longitude": -120.6420667,
    "accessName": "Cottonwood Meadow Campground",
    "riverName": "Cottonwood Creek - Cottonwood Meadows Lake",
    "type": "Public",
    "otherName": "Upper Cottonwood Creek"
  },
  {
    "department": "Oregon.gov",
    "state": "Oregon",
    "county": "Klamath County",
    "latitude": 42.31433,
    "longitude": -121.9422667,
    "accessName": "Wocus Bay",
    "riverName": "Upper Klamath Lake",
    "type": "Public",
    "otherName": "Eagle Ridge-Frontal Upper Klamath Lake"
  },
  {
    "department": "Oregon.gov",
    "state": "Oregon",
    "county": "Klamath County",
    "latitude": 42.36945,
    "longitude": -122.20832,
    "accessName": "Sunset Campground",
    "riverName": "Lake of the Woods",
    "type": "Public",
    "otherName": "Seldom Creek"
  },
  {
    "department": "Oregon.gov",
    "state": "Oregon",
    "county": "Klamath County",
    "latitude": 42.3778017132,
    "longitude": -122.21071529,
    "accessName": "Rainbow Bay",
    "riverName": "Lake of the Woods",
    "type": "Public",
    "otherName": "Seldom Creek"
  },
  {
    "department": "Oregon.gov",
    "state": "Oregon",
    "county": "Klamath County",
    "latitude": 42.38508,
    "longitude": -122.2151333,
    "accessName": "Aspen Point Campground",
    "riverName": "Lake of the Woods",
    "type": "Public",
    "otherName": "Seldom Creek"
  },
  {
    "department": "Oregon.gov",
    "state": "Oregon",
    "county": "Jackson County",
    "latitude": 42.39346656,
    "longitude": -122.3148495,
    "accessName": "Fish Lake Resort",
    "riverName": "Fish Lake",
    "type": "Semi-Private",
    "otherName": "Upper North Fork Little Butte Creek"
  },
  {
    "department": "Oregon.gov",
    "state": "Oregon",
    "county": "Jackson County",
    "latitude": 42.3936245456,
    "longitude": -122.319587999,
    "accessName": "Fish Lake Recreation Area",
    "riverName": "Fish Lake",
    "type": "Public",
    "otherName": "Upper North Fork Little Butte Creek"
  },
  {
    "department": "Oregon.gov",
    "state": "Oregon",
    "county": "Klamath County",
    "latitude": 42.40565,
    "longitude": -121.95318,
    "accessName": "Eagle Ridge",
    "riverName": "Upper Klamath Lake",
    "type": "Public",
    "otherName": "Eagle Ridge-Frontal Upper Klamath Lake"
  },
  {
    "department": "Oregon.gov",
    "state": "Oregon",
    "county": "Jackson County",
    "latitude": 42.41208,
    "longitude": -123.1266,
    "accessName": "Valley of the Rogue State Park",
    "riverName": "Rogue River",
    "type": "Public",
    "otherName": "Sardine Creek-Rogue River"
  },
  {
    "department": "Oregon.gov",
    "state": "Oregon",
    "county": "Curry County",
    "latitude": 42.41976,
    "longitude": -124.42266,
    "accessName": "Port of Gold Beach",
    "riverName": "Rogue River Bay",
    "type": "Public",
    "otherName": "Indian Creek-Rogue River"
  },
  {
    "department": "Oregon.gov",
    "state": "Oregon",
    "county": "Lake County",
    "latitude": 42.42184,
    "longitude": -120.16176,
    "accessName": "Vee Lake",
    "riverName": "Vee Lake",
    "type": "Public",
    "otherName": "Upper Honey Creek"
  },
  {
    "department": "Oregon.gov",
    "state": "Oregon",
    "county": "Josephine County",
    "latitude": 42.42306,
    "longitude": -123.2426333,
    "accessName": "Pierce Riffle",
    "riverName": "Rogue River",
    "type": "Public",
    "otherName": "Savage Creek-Rogue River"
  },
  {
    "department": "Oregon.gov",
    "state": "Oregon",
    "county": "Curry County",
    "latitude": 42.4289835558,
    "longitude": -124.414940331,
    "accessName": "Jot's Resort",
    "riverName": "Rogue River Bay",
    "type": "Semi-Private",
    "otherName": "Indian Creek-Rogue River"
  },
  {
    "department": "Oregon.gov",
    "state": "Oregon",
    "county": "Josephine County",
    "latitude": 42.42943,
    "longitude": -123.2599833,
    "accessName": "Chinook Park",
    "riverName": "Rogue River",
    "type": "Public",
    "otherName": "Savage Creek-Rogue River"
  },
  {
    "department": "Oregon.gov",
    "state": "Oregon",
    "county": "Josephine County",
    "latitude": 42.42998,
    "longitude": -123.324892,
    "accessName": "Riverside Park",
    "riverName": "Rogue River",
    "type": "Public",
    "otherName": "Gilbert Creek-Rogue River"
  },
  {
    "department": "Oregon.gov",
    "state": "Oregon",
    "county": "Curry County",
    "latitude": 42.4307240364,
    "longitude": -124.410166115,
    "accessName": "Lex's Landing",
    "riverName": "Rogue River Bay",
    "type": "Semi-Private",
    "otherName": "Indian Creek-Rogue River"
  },
  {
    "department": "Oregon.gov",
    "state": "Oregon",
    "county": "Klamath County",
    "latitude": 42.43085,
    "longitude": -122.06043,
    "accessName": "Odessa Campground",
    "riverName": "Odessa Creek",
    "type": "Public",
    "otherName": "Moss Creek-Frontal Upper Klamath Lake"
  },
  {
    "department": "Oregon.gov",
    "state": "Oregon",
    "county": "Jackson County",
    "latitude": 42.43107,
    "longitude": -123.17109,
    "accessName": "Coyote Evans Wayside",
    "riverName": "Rogue River",
    "type": "Public",
    "otherName": "Ward Creek-Rogue River"
  },
  {
    "department": "Oregon.gov",
    "state": "Oregon",
    "county": "Josephine County",
    "latitude": 42.43281,
    "longitude": -123.4576833,
    "accessName": "Whitehorse Park",
    "riverName": "Rogue River",
    "type": "Public",
    "otherName": "Pickett Creek-Rogue River"
  },
  {
    "department": "Oregon.gov",
    "state": "Oregon",
    "county": "Jackson County",
    "latitude": 42.4353546235,
    "longitude": -123.081619089,
    "accessName": "Sardine Creek",
    "riverName": "Rogue River",
    "type": "Public",
    "otherName": "Sardine Creek-Rogue River"
  },
  {
    "department": "Oregon.gov",
    "state": "Oregon",
    "county": "Josephine County",
    "latitude": 42.43616,
    "longitude": -123.3758667,
    "accessName": "Schroeder Park",
    "riverName": "Rogue River",
    "type": "Public",
    "otherName": "Gilbert Creek-Rogue River"
  },
  {
    "department": "Oregon.gov",
    "state": "Oregon",
    "county": "Jackson County",
    "latitude": 42.4373113497,
    "longitude": -123.042229057,
    "accessName": "Gold Hill",
    "riverName": "Rogue River",
    "type": "Public",
    "otherName": "Sams Creek-Rogue River"
  },
  {
    "department": "Oregon.gov",
    "state": "Oregon",
    "county": "Josephine County",
    "latitude": 42.43883,
    "longitude": -123.3880333,
    "accessName": "Lathrop Landing",
    "riverName": "Rogue River",
    "type": "Public",
    "otherName": "Gilbert Creek-Rogue River"
  },
  {
    "department": "Oregon.gov",
    "state": "Oregon",
    "county": "Jackson County",
    "latitude": 42.43996,
    "longitude": -122.8959333,
    "accessName": "Tou Velle State Park",
    "riverName": "Rogue River",
    "type": "Public",
    "otherName": "Whetstone Creek-Rogue River"
  },
  {
    "department": "Oregon.gov",
    "state": "Oregon",
    "county": "Jackson County",
    "latitude": 42.44055,
    "longitude": -122.99833,
    "accessName": "Fishers Ferry",
    "riverName": "Rogue River",
    "type": "Public",
    "otherName": "Whetstone Creek-Rogue River"
  },
  {
    "department": "Oregon.gov",
    "state": "Oregon",
    "county": "Josephine County",
    "latitude": 42.44213,
    "longitude": -123.49911,
    "accessName": "Matson Park",
    "riverName": "Rogue River",
    "type": "Public",
    "otherName": "Pickett Creek-Rogue River"
  },
  {
    "department": "Oregon.gov",
    "state": "Oregon",
    "county": "Lake County",
    "latitude": 42.44383,
    "longitude": -119.83357,
    "accessName": "Hart Lake Landing",
    "riverName": "Hart Lake",
    "type": "Public",
    "otherName": "Hart Lake"
  },
  {
    "department": "Oregon.gov",
    "state": "Oregon",
    "county": "Lake County",
    "latitude": 42.4464975831,
    "longitude": -120.085171486,
    "accessName": "Sid Luce Reservoir",
    "riverName": "Luce Reservoir",
    "type": "Public",
    "otherName": "Snyder Creek"
  },
  {
    "department": "Oregon.gov",
    "state": "Oregon",
    "county": "Klamath County",
    "latitude": 42.44736,
    "longitude": -121.23771,
    "accessName": "Beatty Access",
    "riverName": "Sprague River",
    "type": "Public",
    "otherName": "Flu Pond-Sprague River"
  },
  {
    "department": "Oregon.gov",
    "state": "Oregon",
    "county": "Klamath County",
    "latitude": 42.4548604291,
    "longitude": -122.244381595,
    "accessName": "Fourmile Lake Campground",
    "riverName": "Fourmile Lake",
    "type": "Public",
    "otherName": "Upper Fourmile Creek"
  },
  {
    "department": "Oregon.gov",
    "state": "Oregon",
    "county": "Josephine County",
    "latitude": 42.46565,
    "longitude": -123.4865,
    "accessName": "Ferry Hole Landing",
    "riverName": "Rogue River",
    "type": "Public",
    "otherName": "Pickett Creek-Rogue River"
  },
  {
    "department": "Oregon.gov",
    "state": "Oregon",
    "county": "Jackson County",
    "latitude": 42.46996,
    "longitude": -122.45705,
    "accessName": "Willow Lake County Park",
    "riverName": "Willow Lake",
    "type": "Public",
    "otherName": "Willow Creek"
  },
  {
    "department": "Oregon.gov",
    "state": "Oregon",
    "county": "Klamath County",
    "latitude": 42.47783,
    "longitude": -122.087194,
    "accessName": "Rocky Point",
    "riverName": "Upper Klamath Lake",
    "type": "Public",
    "otherName": "Upper Klamath Lake"
  },
  {
    "department": "Oregon.gov",
    "state": "Oregon",
    "county": "Curry County",
    "latitude": 42.4793149893,
    "longitude": -124.328948158,
    "accessName": "Huntley Park",
    "riverName": "Rogue River",
    "type": "Public",
    "otherName": "Indian Creek-Rogue River"
  },
  {
    "department": "Oregon.gov",
    "state": "Oregon",
    "county": "Josephine County",
    "latitude": 42.49512,
    "longitude": -123.48663,
    "accessName": "Robertson Bridge",
    "riverName": "Rogue River",
    "type": "Public",
    "otherName": "Pickett Creek-Rogue River"
  },
  {
    "department": "Oregon.gov",
    "state": "Oregon",
    "county": "Curry County",
    "latitude": 42.49953,
    "longitude": -124.23045,
    "accessName": "Quosatana Campground",
    "riverName": "Rogue River",
    "type": "Public",
    "otherName": "Copper Canyon-Rogue River"
  },
  {
    "department": "Oregon.gov",
    "state": "Oregon",
    "county": "Curry County",
    "latitude": 42.50305,
    "longitude": -124.29515,
    "accessName": "Lobster Creek",
    "riverName": "Rogue River",
    "type": "Public",
    "otherName": "Indian Creek-Rogue River"
  },
  {
    "department": "Oregon.gov",
    "state": "Oregon",
    "county": "Jackson County",
    "latitude": 42.5260482858,
    "longitude": -122.842540075,
    "accessName": "Dodge Bridge Park",
    "riverName": "Rogue River",
    "type": "Public",
    "otherName": "Reese Creek-Rogue River"
  },
  {
    "department": "Oregon.gov",
    "state": "Oregon",
    "county": "Klamath County",
    "latitude": 42.5295767184,
    "longitude": -121.929348063,
    "accessName": "Henzel Park",
    "riverName": "Agency Lake",
    "type": "Public",
    "otherName": "Upper Klamath Lake"
  },
  {
    "department": "Oregon.gov",
    "state": "Oregon",
    "county": "Klamath County",
    "latitude": 42.53047,
    "longitude": -122.08584,
    "accessName": "Malone Springs",
    "riverName": "Crystal Springs Creek",
    "type": "Public",
    "otherName": "Upper Klamath Lake"
  },
  {
    "department": "Oregon.gov",
    "state": "Oregon",
    "county": "Josephine County",
    "latitude": 42.5399295277,
    "longitude": -123.501067782,
    "accessName": "Hog Creek",
    "riverName": "Rogue River",
    "type": "Public",
    "otherName": "Stratton Creek-Rogue River"
  },
  {
    "department": "Oregon.gov",
    "state": "Oregon",
    "county": "Josephine County",
    "latitude": 42.5542902526,
    "longitude": -123.540045317,
    "accessName": "Indian Mary Park",
    "riverName": "Rogue River",
    "type": "Public",
    "otherName": "Stratton Creek-Rogue River"
  },
  {
    "department": "Oregon.gov",
    "state": "Oregon",
    "county": "Lake County",
    "latitude": 42.55788,
    "longitude": -120.77453,
    "accessName": "Deadhorse Lake Campground",
    "riverName": "Deadhorse Lake",
    "type": "Public",
    "otherName": "Upper North Fork Sprague River"
  },
  {
    "department": "Oregon.gov",
    "state": "Oregon",
    "county": "Lake County",
    "latitude": 42.55991,
    "longitude": -120.75407,
    "accessName": "Campbell Lake Campground",
    "riverName": "Campbell Lake",
    "type": "Public",
    "otherName": "Elder Creek"
  },
  {
    "department": "Oregon.gov",
    "state": "Oregon",
    "county": "Curry County",
    "latitude": 42.5597901877,
    "longitude": -124.056964529,
    "accessName": "Cougar Lane Store & Lodge",
    "riverName": "Rogue River",
    "type": "Semi-Private",
    "otherName": "Foster Bar-Rogue River"
  },
  {
    "department": "Oregon.gov",
    "state": "Oregon",
    "county": "Josephine County",
    "latitude": 42.56331,
    "longitude": -123.5776167,
    "accessName": "Ennis Riffle",
    "riverName": "Rogue River",
    "type": "Public",
    "otherName": "Bailey Creek-Rogue River"
  },
  {
    "department": "Oregon.gov",
    "state": "Oregon",
    "county": "Klamath County",
    "latitude": 42.570583233,
    "longitude": -121.879112615,
    "accessName": "Chiloquin Access",
    "riverName": "Williamson River",
    "type": "Public",
    "otherName": "Lobert Draw-Williamson River"
  },
  {
    "department": "Oregon.gov",
    "state": "Oregon",
    "county": "Jackson County",
    "latitude": 42.57663,
    "longitude": -122.8402667,
    "accessName": "Takelma Park",
    "riverName": "Rogue River",
    "type": "Public",
    "otherName": "Indian Creek-Rogue River"
  },
  {
    "department": "Oregon.gov",
    "state": "Oregon",
    "county": "Klamath County",
    "latitude": 42.58801,
    "longitude": -121.93134,
    "accessName": "Petric Park",
    "riverName": "Agency Lake",
    "type": "Public",
    "otherName": "Crooked Creek-Wood River"
  },
  {
    "department": "Oregon.gov",
    "state": "Oregon",
    "county": "Josephine County",
    "latitude": 42.6062670594,
    "longitude": -123.579551175,
    "accessName": "Almeda Park",
    "riverName": "Rogue River",
    "type": "Public",
    "otherName": "Bailey Creek-Rogue River"
  },
  {
    "department": "Oregon.gov",
    "state": "Oregon",
    "county": "Jackson County",
    "latitude": 42.65902,
    "longitude": -122.698889,
    "accessName": "Casey State Park",
    "riverName": "Rogue River",
    "type": "Public",
    "otherName": "Brush Creek-Rogue River"
  },
  {
    "department": "Oregon.gov",
    "state": "Oregon",
    "county": "Jackson County",
    "latitude": 42.6618368998,
    "longitude": -122.752107996,
    "accessName": "Rogue Elk Park",
    "riverName": "Rogue River",
    "type": "Public",
    "otherName": "Brush Creek-Rogue River"
  },
  {
    "department": "Oregon.gov",
    "state": "Oregon",
    "county": "Jackson County",
    "latitude": 42.66535,
    "longitude": -122.68726,
    "accessName": "McGregor Park",
    "riverName": "Rogue River",
    "type": "Public",
    "otherName": "Lost Creek-Rogue River"
  },
  {
    "department": "Oregon.gov",
    "state": "Oregon",
    "county": "Curry County",
    "latitude": 42.75286,
    "longitude": -124.50368,
    "accessName": "Pinehurst",
    "riverName": "Garrison Lake",
    "type": "Public",
    "otherName": "Hubbard Creek-Frontal Pacific Ocean"
  },
  {
    "department": "Oregon.gov",
    "state": "Oregon",
    "county": "Harney County",
    "latitude": 42.77476,
    "longitude": -118.45143,
    "accessName": "Mann Lake (West)",
    "riverName": "Mann Lake",
    "type": "Public",
    "otherName": "Summit Creek"
  },
  {
    "department": "Oregon.gov",
    "state": "Oregon",
    "county": "Harney County",
    "latitude": 42.7763394207,
    "longitude": -118.439596344,
    "accessName": "Mann Lake (East)",
    "riverName": "Mann Lake",
    "type": "Public",
    "otherName": "Summit Creek"
  },
  {
    "department": "Oregon.gov",
    "state": "Oregon",
    "county": "Curry County",
    "latitude": 42.81525,
    "longitude": -124.41218,
    "accessName": "Edson Creek Recreation Site",
    "riverName": "Sixes River",
    "type": "Public",
    "otherName": "Lower Sixes River"
  },
  {
    "department": "Oregon.gov",
    "state": "Oregon",
    "county": "Curry County",
    "latitude": 42.81758,
    "longitude": -124.48377,
    "accessName": "Sixes River Store",
    "riverName": "Sixes River",
    "type": "Semi-Private",
    "otherName": "Lower Sixes River"
  },
  {
    "department": "Oregon.gov",
    "state": "Oregon",
    "county": "Malheur County",
    "latitude": 42.8365370259,
    "longitude": -117.621880255,
    "accessName": "Rome Access",
    "riverName": "Owyhee River",
    "type": "Public",
    "otherName": "China Gulch-Owyhee River"
  },
  {
    "department": "Oregon.gov",
    "state": "Oregon",
    "county": "Curry County",
    "latitude": 42.84463,
    "longitude": -124.537361,
    "accessName": "Cape Blanco State Park",
    "riverName": "Sixes River",
    "type": "Public",
    "otherName": "Lower Sixes River"
  },
  {
    "department": "Oregon.gov",
    "state": "Oregon",
    "county": "Douglas County",
    "latitude": 42.84888,
    "longitude": -123.15919,
    "accessName": "Chief Milwaleta Day Use Park",
    "riverName": "Cow Creek - Galesville Reservoir",
    "type": "Public",
    "otherName": "McGinnis Creek-Cow Creek"
  },
  {
    "department": "Oregon.gov",
    "state": "Oregon",
    "county": "Douglas County",
    "latitude": 42.85025,
    "longitude": -123.16336,
    "accessName": "Chief Miwaleta Park",
    "riverName": "Cow Creek - Galesville Reservoir",
    "type": "Public",
    "otherName": "McGinnis Creek-Cow Creek"
  },
  {
    "department": "Oregon.gov",
    "state": "Oregon",
    "county": "Coos County",
    "latitude": 42.85861,
    "longitude": -124.049167,
    "accessName": "Orchard Park",
    "riverName": "South Fork Coquille River",
    "type": "Public",
    "otherName": "Mill Creek-South Fork Coquille River"
  },
  {
    "department": "Oregon.gov",
    "state": "Oregon",
    "county": "Coos County",
    "latitude": 42.8927001584,
    "longitude": -124.077078605,
    "accessName": "Powers Park",
    "riverName": "Powers Park Pond",
    "type": "Public",
    "otherName": "Rowland Creek-South Fork Coquille River"
  },
  {
    "department": "Oregon.gov",
    "state": "Oregon",
    "county": "Curry County",
    "latitude": 42.9028350336,
    "longitude": -124.502071509,
    "accessName": "Boice-Cope Park",
    "riverName": "Floras Creek",
    "type": "Public",
    "otherName": "Floras Lake"
  },
  {
    "department": "Oregon.gov",
    "state": "Oregon",
    "county": "Malheur County",
    "latitude": 42.9090631616,
    "longitude": -117.236035335,
    "accessName": "Antelope Reservoir",
    "riverName": "Antelope Creek - Antelope Reservoir",
    "type": "Public",
    "otherName": "Jack Creek"
  },
  {
    "department": "Oregon.gov",
    "state": "Oregon",
    "county": "Douglas County",
    "latitude": 42.93971,
    "longitude": -123.10882,
    "accessName": "Lavadour",
    "riverName": "South Umpqua River",
    "type": "Public",
    "otherName": "Saint John Creek-South Umpqua River"
  },
  {
    "department": "Oregon.gov",
    "state": "Oregon",
    "county": "Douglas County",
    "latitude": 42.93972,
    "longitude": -123.26542,
    "accessName": "Pickett Park",
    "riverName": "South Umpqua River",
    "type": "Public",
    "otherName": "O'Shea Creek-South Umpqua River"
  },
  {
    "department": "Oregon.gov",
    "state": "Oregon",
    "county": "Douglas County",
    "latitude": 42.94738,
    "longitude": -123.291806,
    "accessName": "Stanton Park",
    "riverName": "South Umpqua River",
    "type": "Public",
    "otherName": "O'Shea Creek-South Umpqua River"
  },
  {
    "department": "Oregon.gov",
    "state": "Oregon",
    "county": "Douglas County",
    "latitude": 42.9481026544,
    "longitude": -123.323256973,
    "accessName": "I-5 Ford's Bridge",
    "riverName": "South Umpqua River",
    "type": "Public",
    "otherName": "O'Shea Creek-South Umpqua River"
  },
  {
    "department": "Oregon.gov",
    "state": "Oregon",
    "county": "Douglas County",
    "latitude": 42.94829,
    "longitude": -123.33653,
    "accessName": "Lawson Bar",
    "riverName": "South Umpqua River",
    "type": "Public",
    "otherName": "O'Shea Creek-South Umpqua River"
  },
  {
    "department": "Oregon.gov",
    "state": "Oregon",
    "county": "Harney County",
    "latitude": 42.95101,
    "longitude": -118.806628,
    "accessName": "Krumbo Reservoir",
    "riverName": "Krumbo Creek - Krumbo Reservoir",
    "type": "Public",
    "otherName": "Krumbo Creek"
  },
  {
    "department": "Oregon.gov",
    "state": "Oregon",
    "county": "Lake County",
    "latitude": 42.959725328,
    "longitude": -121.090508161,
    "accessName": "Thompson Reservoir Campground",
    "riverName": "Silver Creek - Thompson Reservoir",
    "type": "Public",
    "otherName": "Thompson Reservoir"
  },
  {
    "department": "Oregon.gov",
    "state": "Oregon",
    "county": "Coos County",
    "latitude": 42.9769509509,
    "longitude": -124.143828423,
    "accessName": "66 Mid-Drift",
    "riverName": "South Fork Coquille River",
    "type": "Public",
    "otherName": "Dement Creek-South Fork Coquille River"
  },
  {
    "department": "Oregon.gov",
    "state": "Oregon",
    "county": "Lake County",
    "latitude": 42.99746,
    "longitude": -120.7498,
    "accessName": "Ana Reservoir",
    "riverName": "Ana River - Ana Reservoir",
    "type": "Public",
    "otherName": "Ana River-Frontal Summer Lake"
  },
  {
    "department": "Oregon.gov",
    "state": "Oregon",
    "county": "Douglas County",
    "latitude": 43.01797,
    "longitude": -123.30023,
    "accessName": "Myrtle Creek Gravel Bar",
    "riverName": "South Umpqua River",
    "type": "Public",
    "otherName": "Judd Creek-South Umpqua River"
  },
  {
    "department": "Oregon.gov",
    "state": "Oregon",
    "county": "Coos County",
    "latitude": 43.06348,
    "longitude": -124.42461,
    "accessName": "Bradley Lake Park",
    "riverName": "Bradley Lake",
    "type": "Public",
    "otherName": "China Creek-Crooked Creek-Frontal Pacific Ocean"
  },
  {
    "department": "Oregon.gov",
    "state": "Oregon",
    "county": "Coos County",
    "latitude": 43.0667699455,
    "longitude": -124.147179412,
    "accessName": "Bryant",
    "riverName": "South Fork Coquille River",
    "type": "Public",
    "otherName": "Catching Creek-South Fork Coquille River"
  },
  {
    "department": "Oregon.gov",
    "state": "Oregon",
    "county": "Lake County",
    "latitude": 43.07111,
    "longitude": -120.9448667,
    "accessName": "Duncan Reservoir",
    "riverName": "Duncan Creek - Duncan Reservoir",
    "type": "Public",
    "otherName": "Duncan Creek"
  },
  {
    "department": "Oregon.gov",
    "state": "Oregon",
    "county": "Douglas County",
    "latitude": 43.08022,
    "longitude": -123.38772,
    "accessName": "Weigle Landing",
    "riverName": "South Umpqua River",
    "type": "Public",
    "otherName": "Willis Creek-South Umpqua River"
  },
  {
    "department": "Oregon.gov",
    "state": "Oregon",
    "county": "Coos County",
    "latitude": 43.09831,
    "longitude": -124.1897167,
    "accessName": "Arago",
    "riverName": "Coquille River",
    "type": "Public",
    "otherName": "Hall Creek-Coquille River"
  },
  {
    "department": "Oregon.gov",
    "state": "Oregon",
    "county": "Malheur County",
    "latitude": 43.0991502278,
    "longitude": -117.330272698,
    "accessName": "Upper Cow Lake",
    "riverName": "Upper Cow Lake",
    "type": "Public",
    "otherName": "Cove Creek-Cow Creek"
  },
  {
    "department": "Oregon.gov",
    "state": "Oregon",
    "county": "Coos County",
    "latitude": 43.12047,
    "longitude": -124.41482,
    "accessName": "Port of Bandon",
    "riverName": "Coquille River",
    "type": "Public",
    "otherName": "Ferry Creek-Coquille River"
  },
  {
    "department": "Oregon.gov",
    "state": "Oregon",
    "county": "Douglas County",
    "latitude": 43.13683,
    "longitude": -122.14403,
    "accessName": "South Shore - Diamond Lake",
    "riverName": "Diamond Lake",
    "type": "Public",
    "otherName": "Camp Creek-Diamond Lake"
  },
  {
    "department": "Oregon.gov",
    "state": "Oregon",
    "county": "Douglas County",
    "latitude": 43.14704,
    "longitude": -122.13552,
    "accessName": "Diamond Lake Campground - M Loop",
    "riverName": "Diamond Lake",
    "type": "Public",
    "otherName": "Camp Creek-Diamond Lake"
  },
  {
    "department": "Oregon.gov",
    "state": "Oregon",
    "county": "Coos County",
    "latitude": 43.14775,
    "longitude": -124.40095,
    "accessName": "Bullards Beach State Park",
    "riverName": "Coquille River",
    "type": "Public",
    "otherName": "Ferry Creek-Coquille River"
  },
  {
    "department": "Oregon.gov",
    "state": "Oregon",
    "county": "Coos County",
    "latitude": 43.15314,
    "longitude": -124.27843,
    "accessName": "Riverton",
    "riverName": "Coquille River",
    "type": "Public",
    "otherName": "Lampa Creek-Coquille River"
  },
  {
    "department": "Oregon.gov",
    "state": "Oregon",
    "county": "Douglas County",
    "latitude": 43.16136,
    "longitude": -123.3941333,
    "accessName": "Happy Valley",
    "riverName": "South Umpqua River",
    "type": "Public",
    "otherName": "Newton Creek-South Umpqua River"
  },
  {
    "department": "Oregon.gov",
    "state": "Oregon",
    "county": "Douglas County",
    "latitude": 43.16237,
    "longitude": -122.13387,
    "accessName": "Diamond Lake Campground - C Loop",
    "riverName": "Diamond Lake",
    "type": "Public",
    "otherName": "Camp Creek-Diamond Lake"
  },
  {
    "department": "Oregon.gov",
    "state": "Oregon",
    "county": "Coos County",
    "latitude": 43.163448633,
    "longitude": -124.361538186,
    "accessName": "Rocky Point",
    "riverName": "Coquille River",
    "type": "Public",
    "otherName": "Ferry Creek-Coquille River"
  },
  {
    "department": "Oregon.gov",
    "state": "Oregon",
    "county": "Douglas County",
    "latitude": 43.16829,
    "longitude": -122.166,
    "accessName": "Thielsen View Campground",
    "riverName": "Diamond Lake",
    "type": "Public",
    "otherName": "Camp Creek-Diamond Lake"
  },
  {
    "department": "Oregon.gov",
    "state": "Oregon",
    "county": "Coos County",
    "latitude": 43.17465,
    "longitude": -124.19877,
    "accessName": "Sturdivant Park",
    "riverName": "Coquille River",
    "type": "Public",
    "otherName": "Cunningham Creek-Coquille River"
  },
  {
    "department": "Oregon.gov",
    "state": "Oregon",
    "county": "Douglas County",
    "latitude": 43.1747510995,
    "longitude": -122.138170366,
    "accessName": "North End",
    "riverName": "Diamond Lake",
    "type": "Public",
    "otherName": "Camp Creek-Diamond Lake"
  },
  {
    "department": "Oregon.gov",
    "state": "Oregon",
    "county": "Douglas County",
    "latitude": 43.18826,
    "longitude": -122.69802,
    "accessName": "Hemlock Lake",
    "riverName": "Hemlock Lake",
    "type": "Public",
    "otherName": "Headwaters Little River"
  },
  {
    "department": "Oregon.gov",
    "state": "Oregon",
    "county": "Douglas County",
    "latitude": 43.19463,
    "longitude": -123.3552833,
    "accessName": "Fairgrounds",
    "riverName": "South Umpqua River",
    "type": "Public",
    "otherName": "Newton Creek-South Umpqua River"
  },
  {
    "department": "Oregon.gov",
    "state": "Oregon",
    "county": "Klamath County",
    "latitude": 43.22469,
    "longitude": -121.96473,
    "accessName": "Digit Point Campground",
    "riverName": "Miller Lake",
    "type": "Public",
    "otherName": "Miller Creek"
  },
  {
    "department": "Oregon.gov",
    "state": "Oregon",
    "county": "Douglas County",
    "latitude": 43.27198,
    "longitude": -123.44552,
    "accessName": "River Forks Park",
    "riverName": "Umpqua River",
    "type": "Public",
    "otherName": "Mill Creek-Umpqua River"
  },
  {
    "department": "Oregon.gov",
    "state": "Oregon",
    "county": "Douglas County",
    "latitude": 43.27233,
    "longitude": -122.4095833,
    "accessName": "Toketee Reservoir",
    "riverName": "North Umpqua River - Toketee Reservoir",
    "type": "Public",
    "otherName": "Soda Springs Reservoir-North Umpqua River"
  },
  {
    "department": "Oregon.gov",
    "state": "Oregon",
    "county": "Douglas County",
    "latitude": 43.28155,
    "longitude": -123.35595,
    "accessName": "Amacher Park",
    "riverName": "North Umpqua River",
    "type": "Public",
    "otherName": "North Umpqua River"
  },
  {
    "department": "Oregon.gov",
    "state": "Oregon",
    "county": "Douglas County",
    "latitude": 43.28381,
    "longitude": -123.39177,
    "accessName": "Hestness Landing",
    "riverName": "North Umpqua River",
    "type": "Public",
    "otherName": "North Umpqua River"
  },
  {
    "department": "Oregon.gov",
    "state": "Oregon",
    "county": "Douglas County",
    "latitude": 43.29658,
    "longitude": -123.1063,
    "accessName": "Colliding Rivers",
    "riverName": "North Umpqua River",
    "type": "Public",
    "otherName": "Bradley Creek-North Umpqua River"
  },
  {
    "department": "Oregon.gov",
    "state": "Oregon",
    "county": "Douglas County",
    "latitude": 43.29793,
    "longitude": -123.4698167,
    "accessName": "Cleveland Rapids",
    "riverName": "Umpqua River",
    "type": "Public",
    "otherName": "Mill Creek-Umpqua River"
  },
  {
    "department": "Oregon.gov",
    "state": "Oregon",
    "county": "Douglas County",
    "latitude": 43.31135,
    "longitude": -122.16435,
    "accessName": "East Lemolo",
    "riverName": "Lemolo Lake",
    "type": "Public",
    "otherName": "Lemolo Lake-North Umpqua River"
  },
  {
    "department": "Oregon.gov",
    "state": "Oregon",
    "county": "Douglas County",
    "latitude": 43.31235,
    "longitude": -123.22059,
    "accessName": "Whistlers Bend Park",
    "riverName": "North Umpqua River",
    "type": "Public",
    "otherName": "Cooper Creek-North Umpqua River"
  },
  {
    "department": "Oregon.gov",
    "state": "Oregon",
    "county": "Douglas County",
    "latitude": 43.31421,
    "longitude": -122.193,
    "accessName": "Poole Creek",
    "riverName": "North Umpqua River - Lemolo Lake",
    "type": "Public",
    "otherName": "Lemolo Lake-North Umpqua River"
  },
  {
    "department": "Oregon.gov",
    "state": "Oregon",
    "county": "Douglas County",
    "latitude": 43.31688,
    "longitude": -123.061167,
    "accessName": "Lone Rock",
    "riverName": "North Umpqua River",
    "type": "Public",
    "otherName": "Bradley Creek-North Umpqua River"
  },
  {
    "department": "Oregon.gov",
    "state": "Oregon",
    "county": "Coos County",
    "latitude": 43.32571,
    "longitude": -124.20644,
    "accessName": "Shinglehouse Slough",
    "riverName": "Shinglehouse Slough",
    "type": "Public",
    "otherName": "Isthmus Slough"
  },
  {
    "department": "Oregon.gov",
    "state": "Oregon",
    "county": "Coos County",
    "latitude": 43.33542,
    "longitude": -124.37231,
    "accessName": "Sunset Bay State Park",
    "riverName": "Pacific Ocean",
    "type": "Public",
    "otherName": "Big Creek-Frontal Pacific Ocean"
  },
  {
    "department": "Oregon.gov",
    "state": "Oregon",
    "county": "Douglas County",
    "latitude": 43.3414395787,
    "longitude": -122.725141874,
    "accessName": "Gravel Bin Take Out",
    "riverName": "North Umpqua River",
    "type": "Public",
    "otherName": "Apple Creek-North Umpqua River"
  },
  {
    "department": "Oregon.gov",
    "state": "Oregon",
    "county": "Coos County",
    "latitude": 43.36351,
    "longitude": -124.2058667,
    "accessName": "Eastside",
    "riverName": "Isthmus Slough",
    "type": "Public",
    "otherName": "Isthmus Slough"
  },
  {
    "department": "Oregon.gov",
    "state": "Oregon",
    "county": "Douglas County",
    "latitude": 43.36621,
    "longitude": -123.46788,
    "accessName": "Umpqua Landing",
    "riverName": "Umpqua River",
    "type": "Public",
    "otherName": "Williams Creek-Calapooya Creek"
  },
  {
    "department": "Oregon.gov",
    "state": "Oregon",
    "county": "Douglas County",
    "latitude": 43.37621,
    "longitude": -123.26049,
    "accessName": "Cooper Creek East",
    "riverName": "Cooper Creek - Cooper Creek Reservoir",
    "type": "Public",
    "otherName": "Sutherlin Creek"
  },
  {
    "department": "Oregon.gov",
    "state": "Oregon",
    "county": "Coos County",
    "latitude": 43.38038,
    "longitude": -124.0949167,
    "accessName": "Doris Place",
    "riverName": "Millicoma River",
    "type": "Public",
    "otherName": "Millicoma River"
  },
  {
    "department": "Oregon.gov",
    "state": "Oregon",
    "county": "Douglas County",
    "latitude": 43.3811178386,
    "longitude": -123.281561228,
    "accessName": "Cooper Creek West",
    "riverName": "Cooper Creek - Cooper Creek Reservoir",
    "type": "Public",
    "otherName": "Sutherlin Creek"
  },
  {
    "department": "Oregon.gov",
    "state": "Oregon",
    "county": "Coos County",
    "latitude": 43.39321,
    "longitude": -124.2799833,
    "accessName": "Empire Ramp",
    "riverName": "Coos Bay",
    "type": "Public",
    "otherName": "Coos Bay"
  },
  {
    "department": "Oregon.gov",
    "state": "Oregon",
    "county": "Coos County",
    "latitude": 43.40556,
    "longitude": -124.058364,
    "accessName": "Rooke-Higgins",
    "riverName": "Millicoma River",
    "type": "Public",
    "otherName": "Millicoma River"
  },
  {
    "department": "Oregon.gov",
    "state": "Oregon",
    "county": "Douglas County",
    "latitude": 43.40601,
    "longitude": -123.53615,
    "accessName": "James Wood",
    "riverName": "Umpqua River",
    "type": "Public",
    "otherName": "Cougar Creek-Umpqua River"
  },
  {
    "department": "Oregon.gov",
    "state": "Oregon",
    "county": "Coos County",
    "latitude": 43.4081563364,
    "longitude": -124.221059902,
    "accessName": "California Street",
    "riverName": "Coos Bay",
    "type": "Public",
    "otherName": "Coos Bay"
  },
  {
    "department": "Oregon.gov",
    "state": "Oregon",
    "county": "Harney County",
    "latitude": 43.40829,
    "longitude": -119.3999,
    "accessName": "Moon Reservoir Recreation Site",
    "riverName": "Silver Creek - Moon Reservoir",
    "type": "Public",
    "otherName": "Moon Reservoir-Silver Creek"
  },
  {
    "department": "Oregon.gov",
    "state": "Oregon",
    "county": "Coos County",
    "latitude": 43.4149189904,
    "longitude": -124.279604357,
    "accessName": "North Spit",
    "riverName": "Coos Bay",
    "type": "Public",
    "otherName": "Coos Bay"
  },
  {
    "department": "Oregon.gov",
    "state": "Oregon",
    "county": "Coos County",
    "latitude": 43.44793,
    "longitude": -124.2043,
    "accessName": "Conde B. McCullough S.R.S. Wayside",
    "riverName": "Coos Bay",
    "type": "Public",
    "otherName": "Haynes Inlet"
  },
  {
    "department": "Oregon.gov",
    "state": "Oregon",
    "county": "Klamath County",
    "latitude": 43.46208,
    "longitude": -122.13338,
    "accessName": "Summit Lake",
    "riverName": "Summit Lake",
    "type": "Public",
    "otherName": "Summit Lake"
  },
  {
    "department": "Oregon.gov",
    "state": "Oregon",
    "county": "Klamath County",
    "latitude": 43.46325,
    "longitude": -122.01623,
    "accessName": "Spring Campground",
    "riverName": "Crescent Lake",
    "type": "Public",
    "otherName": "Crescent Lake"
  },
  {
    "department": "Oregon.gov",
    "state": "Oregon",
    "county": "Klamath County",
    "latitude": 43.48948,
    "longitude": -121.959486,
    "accessName": "Tranquil Cove",
    "riverName": "Crescent Lake",
    "type": "Public",
    "otherName": "Crescent Lake"
  },
  {
    "department": "Oregon.gov",
    "state": "Oregon",
    "county": "Klamath County",
    "latitude": 43.50099,
    "longitude": -121.97376,
    "accessName": "Crescent Lake Campground",
    "riverName": "Crescent Lake",
    "type": "Public",
    "otherName": "Crescent Lake"
  },
  {
    "department": "Oregon.gov",
    "state": "Oregon",
    "county": "Klamath County",
    "latitude": 43.50145,
    "longitude": -121.9727,
    "accessName": "Crescent Lake Resort",
    "riverName": "Crescent Lake",
    "type": "Semi-Private",
    "otherName": "Crescent Lake"
  },
  {
    "department": "Oregon.gov",
    "state": "Oregon",
    "county": "Douglas County",
    "latitude": 43.50262,
    "longitude": -123.49391,
    "accessName": "Yellow Creek",
    "riverName": "Umpqua River",
    "type": "Public",
    "otherName": "McGee Creek-Umpqua River"
  },
  {
    "department": "Oregon.gov",
    "state": "Oregon",
    "county": "Coos County",
    "latitude": 43.51888,
    "longitude": -124.222222,
    "accessName": "Butterfield Lake",
    "riverName": "Butterfield Lake",
    "type": "Public",
    "otherName": "Clear Creek-Frontal Pacific Ocean"
  },
  {
    "department": "Oregon.gov",
    "state": "Oregon",
    "county": "Coos County",
    "latitude": 43.53037,
    "longitude": -124.2168,
    "accessName": "Saunders Lake",
    "riverName": "Saunders Lake",
    "type": "Public",
    "otherName": "Tenmile Creek"
  },
  {
    "department": "Oregon.gov",
    "state": "Oregon",
    "county": "Harney County",
    "latitude": 43.54538,
    "longitude": -119.61385,
    "accessName": "Chickahominy Reservoir",
    "riverName": "Chickahominy Creek - Chickahominy Reservoir",
    "type": "Public",
    "otherName": "Chickahominy Reservoir"
  },
  {
    "department": "Oregon.gov",
    "state": "Oregon",
    "county": "Klamath County",
    "latitude": 43.54986,
    "longitude": -121.9648333,
    "accessName": "Odell Lake Resort",
    "riverName": "Odell Lake",
    "type": "Semi-Private",
    "otherName": "Odell Lake"
  },
  {
    "department": "Oregon.gov",
    "state": "Oregon",
    "county": "Coos County",
    "latitude": 43.57063,
    "longitude": -124.20495,
    "accessName": "Spinreel Campground",
    "riverName": "Tenmile Creek",
    "type": "Public",
    "otherName": "Tenmile Creek"
  },
  {
    "department": "Oregon.gov",
    "state": "Oregon",
    "county": "Coos County",
    "latitude": 43.57261,
    "longitude": -124.16775,
    "accessName": "Osprey Point Resort",
    "riverName": "Tenmile Lake",
    "type": "Semi-Private",
    "otherName": "Tenmile Lake-Tenmile Creek"
  },
  {
    "department": "Oregon.gov",
    "state": "Oregon",
    "county": "Coos County",
    "latitude": 43.5729,
    "longitude": -124.170339,
    "accessName": "Tenmile Lake Park",
    "riverName": "Tenmile Lake",
    "type": "Public",
    "otherName": "Tenmile Lake-Tenmile Creek"
  },
  {
    "department": "Oregon.gov",
    "state": "Oregon",
    "county": "Coos County",
    "latitude": 43.57354,
    "longitude": -124.17458,
    "accessName": "8th Street",
    "riverName": "Tenmile Creek",
    "type": "Public",
    "otherName": "Tenmile Lake-Tenmile Creek"
  },
  {
    "department": "Oregon.gov",
    "state": "Oregon",
    "county": "Coos County",
    "latitude": 43.57406,
    "longitude": -124.17669,
    "accessName": "South 8th Street",
    "riverName": "Tenmile Creek",
    "type": "Public",
    "otherName": "Tenmile Lake-Tenmile Creek"
  },
  {
    "department": "Oregon.gov",
    "state": "Oregon",
    "county": "Coos County",
    "latitude": 43.57488,
    "longitude": -124.15425,
    "accessName": "La Playa",
    "riverName": "Tenmile Lake",
    "type": "Semi-Private",
    "otherName": "Tenmile Lake-Tenmile Creek"
  },
  {
    "department": "Oregon.gov",
    "state": "Oregon",
    "county": "Coos County",
    "latitude": 43.5772972128,
    "longitude": -124.160483476,
    "accessName": "North Lake Resort and Marina",
    "riverName": "North Tenmile Lake",
    "type": "Semi-Private",
    "otherName": "North Tenmile Lake"
  },
  {
    "department": "Oregon.gov",
    "state": "Oregon",
    "county": "Klamath County",
    "latitude": 43.57865,
    "longitude": -122.03868,
    "accessName": "Shelter Cove Resort",
    "riverName": "Odell Lake",
    "type": "Semi-Private",
    "otherName": "Odell Lake"
  },
  {
    "department": "Oregon.gov",
    "state": "Oregon",
    "county": "Douglas County",
    "latitude": 43.58411,
    "longitude": -123.826647,
    "accessName": "Loon Lake Lodge Resorts",
    "riverName": "Loon Lake",
    "type": "Semi-Private",
    "otherName": "Loon Lake-Mill Creek"
  },
  {
    "department": "Oregon.gov",
    "state": "Oregon",
    "county": "Klamath County",
    "latitude": 43.58475,
    "longitude": -122.04631,
    "accessName": "Trapper Creek Campground",
    "riverName": "Odell Lake",
    "type": "Public",
    "otherName": "Odell Lake"
  },
  {
    "department": "Oregon.gov",
    "state": "Oregon",
    "county": "Klamath County",
    "latitude": 43.58538,
    "longitude": -122.0091167,
    "accessName": "Princess Creek Campground",
    "riverName": "Odell Lake",
    "type": "Public",
    "otherName": "Odell Lake"
  },
  {
    "department": "Oregon.gov",
    "state": "Oregon",
    "county": "Coos County",
    "latitude": 43.5906070007,
    "longitude": -124.111345153,
    "accessName": "Sunlake Marina",
    "riverName": "North Tenmile Lake",
    "type": "Semi-Private",
    "otherName": "North Tenmile Lake"
  },
  {
    "department": "Oregon.gov",
    "state": "Oregon",
    "county": "Klamath County",
    "latitude": 43.59231,
    "longitude": -121.85325,
    "accessName": "Davis Creek",
    "riverName": "Odell Creek - Davis Lake",
    "type": "Public",
    "otherName": "Upper Odell Creek"
  },
  {
    "department": "Oregon.gov",
    "state": "Oregon",
    "county": "Douglas County",
    "latitude": 43.59602,
    "longitude": -123.846936,
    "accessName": "Loon Lake",
    "riverName": "Loon Lake",
    "type": "Public",
    "otherName": "Loon Lake-Mill Creek"
  },
  {
    "department": "Oregon.gov",
    "state": "Oregon",
    "county": "Harney County",
    "latitude": 43.60299,
    "longitude": -118.241894,
    "accessName": "Middle Warm Springs",
    "riverName": "Warm Springs Reservoir",
    "type": "Public",
    "otherName": "Gold Gulch-Malheur River"
  },
  {
    "department": "Oregon.gov",
    "state": "Oregon",
    "county": "Deschutes County",
    "latitude": 43.62326,
    "longitude": -121.8225167,
    "accessName": "Lava Flow Campground",
    "riverName": "Davis Lake",
    "type": "Public",
    "otherName": "Lower Odell Creek"
  },
  {
    "department": "Oregon.gov",
    "state": "Oregon",
    "county": "Lane County",
    "latitude": 43.6299890382,
    "longitude": -122.049609422,
    "accessName": "Gold Lake Campground",
    "riverName": "Salt Creek - Gold Lake",
    "type": "Public",
    "otherName": "Upper Salt Creek"
  },
  {
    "department": "Oregon.gov",
    "state": "Oregon",
    "county": "Douglas County",
    "latitude": 43.63672,
    "longitude": -123.57032,
    "accessName": "Alfred S. Tyson Park",
    "riverName": "Umpqua River",
    "type": "Public",
    "otherName": "Lutsinger Creek-Umpqua River"
  },
  {
    "department": "Oregon.gov",
    "state": "Oregon",
    "county": "Harney County",
    "latitude": 43.64249,
    "longitude": -118.256992,
    "accessName": "North Warm Springs",
    "riverName": "Warm Springs Reservoir",
    "type": "Public",
    "otherName": "Gold Gulch-Malheur River"
  },
  {
    "department": "Oregon.gov",
    "state": "Oregon",
    "county": "Douglas County",
    "latitude": 43.66325,
    "longitude": -123.7017,
    "accessName": "Scott Creek",
    "riverName": "Umpqua River",
    "type": "Public",
    "otherName": "Lutsinger Creek-Umpqua River"
  },
  {
    "department": "Oregon.gov",
    "state": "Oregon",
    "county": "Lane County",
    "latitude": 43.66812,
    "longitude": -122.43368,
    "accessName": "Packard Creek Campground",
    "riverName": "Middle Fork Willamette River - Hills Creek Reservoir",
    "type": "Public",
    "otherName": "Packard Creek-Middle Fork Willamette River"
  },
  {
    "department": "Oregon.gov",
    "state": "Oregon",
    "county": "Deschutes County",
    "latitude": 43.66953,
    "longitude": -121.76955,
    "accessName": "Reservoir Campground",
    "riverName": "Deschutes River - Wickiup Reservoir",
    "type": "Public",
    "otherName": "Davis Creek"
  },
  {
    "department": "Oregon.gov",
    "state": "Oregon",
    "county": "Douglas County",
    "latitude": 43.67497,
    "longitude": -123.655,
    "accessName": "Paradise Creek",
    "riverName": "McKenzie River",
    "type": "Public",
    "otherName": "Lutsinger Creek-Umpqua River"
  },
  {
    "department": "Oregon.gov",
    "state": "Oregon",
    "county": "Deschutes County",
    "latitude": 43.67758,
    "longitude": -121.68907,
    "accessName": "Wickiup Butte",
    "riverName": "Deschutes River - Wickiup Reservoir",
    "type": "Public",
    "otherName": "Wickiup Reservoir-Deschutes River"
  },
  {
    "department": "Oregon.gov",
    "state": "Oregon",
    "county": "Douglas County",
    "latitude": 43.67775,
    "longitude": -123.93345,
    "accessName": "Umpqua Wayside State Park",
    "riverName": "Umpqua River",
    "type": "Public",
    "otherName": "Dean Creek-Umpqua River"
  },
  {
    "department": "Oregon.gov",
    "state": "Oregon",
    "county": "Douglas County",
    "latitude": 43.68081,
    "longitude": -124.1769,
    "accessName": "Salmon Harbor - East Basin",
    "riverName": "Winchester Bay",
    "type": "Public",
    "otherName": "Winchester Creek-Umpqua River"
  },
  {
    "department": "Oregon.gov",
    "state": "Oregon",
    "county": "Deschutes County",
    "latitude": 43.6885795359,
    "longitude": -121.67447219,
    "accessName": "Tenino",
    "riverName": "Deschutes River",
    "type": "Public",
    "otherName": "Pringle Falls-Deschutes River"
  },
  {
    "department": "Oregon.gov",
    "state": "Oregon",
    "county": "Lane County",
    "latitude": 43.69014,
    "longitude": -123.06799,
    "accessName": "Wilson Creek Park",
    "riverName": "Coast Fork Willamette River - Cottage Grove Reservoir",
    "type": "Public",
    "otherName": "Cottage Grove Lake-Coast Fork Willamette River"
  },
  {
    "department": "Oregon.gov",
    "state": "Oregon",
    "county": "Lane County",
    "latitude": 43.69193,
    "longitude": -122.04362,
    "accessName": "Shadow Bay Campground",
    "riverName": "Waldo Lake",
    "type": "Public",
    "otherName": "Waldo Lake-North Fork Middle Fork Willamette River"
  },
  {
    "department": "Oregon.gov",
    "state": "Oregon",
    "county": "Lane County",
    "latitude": 43.70188,
    "longitude": -122.3872833,
    "accessName": "C.T. Beach Picnic Area",
    "riverName": "Hills Creek Reservoir",
    "type": "Public",
    "otherName": "Lower Hills Creek"
  },
  {
    "department": "Oregon.gov",
    "state": "Oregon",
    "county": "Deschutes County",
    "latitude": 43.70261,
    "longitude": -121.7636333,
    "accessName": "Gull Point Campground",
    "riverName": "Deschutes River - Wickiup Reservoir",
    "type": "Public",
    "otherName": "Wickiup Reservoir-Deschutes River"
  },
  {
    "department": "Oregon.gov",
    "state": "Oregon",
    "county": "Deschutes County",
    "latitude": 43.70327,
    "longitude": -121.499044,
    "accessName": "Mid-Drift - Little Deschutes",
    "riverName": "Little Deschutes River",
    "type": "Public",
    "otherName": "Town of La Pine-Little Deschutes River"
  },
  {
    "department": "Oregon.gov",
    "state": "Oregon",
    "county": "Deschutes County",
    "latitude": 43.70388,
    "longitude": -121.752889,
    "accessName": "North Wickiup",
    "riverName": "Deschutes River - Wickiup Reservoir",
    "type": "Public",
    "otherName": "Wickiup Reservoir-Deschutes River"
  },
  {
    "department": "Oregon.gov",
    "state": "Oregon",
    "county": "Douglas County",
    "latitude": 43.70466,
    "longitude": -124.0947333,
    "accessName": "Rainbow Plaza",
    "riverName": "Umpqua River",
    "type": "Public",
    "otherName": "Winchester Creek-Umpqua River"
  },
  {
    "department": "Oregon.gov",
    "state": "Oregon",
    "county": "Deschutes County",
    "latitude": 43.71283,
    "longitude": -121.27339,
    "accessName": "Paulina Lake Campground",
    "riverName": "Paulina Lake",
    "type": "Public",
    "otherName": "Upper Paulina Creek"
  },
  {
    "department": "Oregon.gov",
    "state": "Oregon",
    "county": "Deschutes County",
    "latitude": 43.714452077,
    "longitude": -121.275905682,
    "accessName": "Paulina Lake Lodge",
    "riverName": "Paulina Lake",
    "type": "Semi-Private",
    "otherName": "Upper Paulina Creek"
  },
  {
    "department": "Oregon.gov",
    "state": "Oregon",
    "county": "Deschutes County",
    "latitude": 43.71472,
    "longitude": -121.770944,
    "accessName": "South Twin Lake Campground",
    "riverName": "South Twin Lake",
    "type": "Public",
    "otherName": "Wickiup Reservoir-Deschutes River"
  },
  {
    "department": "Oregon.gov",
    "state": "Oregon",
    "county": "Deschutes County",
    "latitude": 43.71558,
    "longitude": -121.774472,
    "accessName": "West South Twin Lake Campground",
    "riverName": "Deschutes River - Wickiup Reservoir",
    "type": "Public",
    "otherName": "Wickiup Reservoir-Deschutes River"
  },
  {
    "department": "Oregon.gov",
    "state": "Oregon",
    "county": "Lane County",
    "latitude": 43.71668,
    "longitude": -123.0570333,
    "accessName": "Lakeside Park",
    "riverName": "Coast Fork Willamette River - Cottage Grove Reservoir",
    "type": "Public",
    "otherName": "Cottage Grove Lake-Coast Fork Willamette River"
  },
  {
    "department": "Oregon.gov",
    "state": "Oregon",
    "county": "Deschutes County",
    "latitude": 43.71805,
    "longitude": -121.21095,
    "accessName": "East Lake Campground",
    "riverName": "East Lake",
    "type": "Public",
    "otherName": "Upper Paulina Creek"
  },
  {
    "department": "Oregon.gov",
    "state": "Oregon",
    "county": "Deschutes County",
    "latitude": 43.7204269928,
    "longitude": -121.197654371,
    "accessName": "Hot Springs Ramp",
    "riverName": "East Lake",
    "type": "Public",
    "otherName": "Upper Paulina Creek"
  },
  {
    "department": "Oregon.gov",
    "state": "Oregon",
    "county": "Deschutes County",
    "latitude": 43.72421,
    "longitude": -121.1956667,
    "accessName": "East Lake Resort",
    "riverName": "East Lake",
    "type": "Semi-Private",
    "otherName": "Upper Paulina Creek"
  },
  {
    "department": "Oregon.gov",
    "state": "Oregon",
    "county": "Deschutes County",
    "latitude": 43.7257626612,
    "longitude": -121.62764856,
    "accessName": "Bull Bend Campground",
    "riverName": "Deschutes River",
    "type": "Public",
    "otherName": "Pringle Falls-Deschutes River"
  },
  {
    "department": "Oregon.gov",
    "state": "Oregon",
    "county": "Douglas County",
    "latitude": 43.72708,
    "longitude": -124.1111,
    "accessName": "Gardiner Ramp",
    "riverName": "Umpqua River",
    "type": "Public",
    "otherName": "Winchester Creek-Umpqua River"
  },
  {
    "department": "Oregon.gov",
    "state": "Oregon",
    "county": "Malheur County",
    "latitude": 43.7303829269,
    "longitude": -117.070833056,
    "accessName": "Adrian",
    "riverName": "Snake River",
    "type": "Public",
    "otherName": "South Boise Drain-Snake River"
  },
  {
    "department": "Oregon.gov",
    "state": "Oregon",
    "county": "Deschutes County",
    "latitude": 43.73133,
    "longitude": -121.764,
    "accessName": "North Twin Lake Campground",
    "riverName": "North Twin Lake",
    "type": "Public",
    "otherName": "Wickiup Reservoir-Deschutes River"
  },
  {
    "department": "Oregon.gov",
    "state": "Oregon",
    "county": "Deschutes County",
    "latitude": 43.7315246921,
    "longitude": -121.196725808,
    "accessName": "Cinder Hill Campground",
    "riverName": "East Lake",
    "type": "Public",
    "otherName": "Upper Paulina Creek"
  },
  {
    "department": "Oregon.gov",
    "state": "Oregon",
    "county": "Deschutes County",
    "latitude": 43.73248,
    "longitude": -121.78632,
    "accessName": "Sheep Bridge Campground",
    "riverName": "Deschutes River - Wickiup Reservoir",
    "type": "Public",
    "otherName": "Wickiup Reservoir-Deschutes River"
  },
  {
    "department": "Oregon.gov",
    "state": "Oregon",
    "county": "Deschutes County",
    "latitude": 43.75838,
    "longitude": -121.7926333,
    "accessName": "Browns Mountain",
    "riverName": "Deschutes River - Crane Prairie Reservoir",
    "type": "Public",
    "otherName": "Crane Prairie Reservoir-Deschutes River"
  },
  {
    "department": "Oregon.gov",
    "state": "Oregon",
    "county": "Lane County",
    "latitude": 43.7602426548,
    "longitude": -122.006206419,
    "accessName": "North Waldo Campground",
    "riverName": "Waldo Lake",
    "type": "Public",
    "otherName": "Waldo Lake-North Fork Middle Fork Willamette River"
  },
  {
    "department": "Oregon.gov",
    "state": "Oregon",
    "county": "Deschutes County",
    "latitude": 43.76054,
    "longitude": -121.5805,
    "accessName": "Tetherow Log Jam",
    "riverName": "Deschutes River",
    "type": "Public",
    "otherName": "Pringle Falls-Deschutes River"
  },
  {
    "department": "Oregon.gov",
    "state": "Oregon",
    "county": "Deschutes County",
    "latitude": 43.76863,
    "longitude": -121.83209,
    "accessName": "Rock Creek Campground",
    "riverName": "Deschutes River - Crane Prairie Reservoir",
    "type": "Public",
    "otherName": "Charlton Creek"
  },
  {
    "department": "Oregon.gov",
    "state": "Oregon",
    "county": "Lane County",
    "latitude": 43.77241,
    "longitude": -122.93728,
    "accessName": "Baker Bay",
    "riverName": "Row River - Dorena Reservoir",
    "type": "Public",
    "otherName": "Dorena Lake-Row River"
  },
  {
    "department": "Oregon.gov",
    "state": "Oregon",
    "county": "Deschutes County",
    "latitude": 43.77325,
    "longitude": -121.52955,
    "accessName": "LaPine State Park",
    "riverName": "Deschutes River",
    "type": "Public",
    "otherName": "The Dead Slough-Deschutes River"
  },
  {
    "department": "Oregon.gov",
    "state": "Oregon",
    "county": "Douglas County",
    "latitude": 43.7743958897,
    "longitude": -123.995336116,
    "accessName": "Smith River Marina & Campground",
    "riverName": "Smith River",
    "type": "Semi-Private",
    "otherName": "Otter Creek-Smith River"
  },
  {
    "department": "Oregon.gov",
    "state": "Oregon",
    "county": "Douglas County",
    "latitude": 43.77438,
    "longitude": -123.9727,
    "accessName": "Riverside",
    "riverName": "Smith River",
    "type": "Public",
    "otherName": "Otter Creek-Smith River"
  },
  {
    "department": "Oregon.gov",
    "state": "Oregon",
    "county": "Douglas County",
    "latitude": 43.78275,
    "longitude": -123.9899,
    "accessName": "Noel Ranch",
    "riverName": "Smith River",
    "type": "Public",
    "otherName": "Otter Creek-Smith River"
  },
  {
    "department": "Oregon.gov",
    "state": "Oregon",
    "county": "Lane County",
    "latitude": 43.78331,
    "longitude": -122.9236833,
    "accessName": "Harms Park Row River Trail Access",
    "riverName": "Row River - Dorena Reservoir",
    "type": "Public",
    "otherName": "Dorena Lake-Row River"
  },
  {
    "department": "Oregon.gov",
    "state": "Oregon",
    "county": "Douglas County",
    "latitude": 43.78409,
    "longitude": -123.8297,
    "accessName": "Fawn Creek",
    "riverName": "Smith River",
    "type": "Public",
    "otherName": "Spencer Creek-Smith River"
  },
  {
    "department": "Oregon.gov",
    "state": "Oregon",
    "county": "Deschutes County",
    "latitude": 43.78542,
    "longitude": -121.83413,
    "accessName": "Quinn River",
    "riverName": "Deschutes River - Crane Prairie Reservoir",
    "type": "Public",
    "otherName": "Charlton Creek"
  },
  {
    "department": "Oregon.gov",
    "state": "Oregon",
    "county": "Douglas County",
    "latitude": 43.78879,
    "longitude": -123.85331,
    "accessName": "Dailey Ranch",
    "riverName": "Smith River",
    "type": "Public",
    "otherName": "Spencer Creek-Smith River"
  },
  {
    "department": "Oregon.gov",
    "state": "Oregon",
    "county": "Deschutes County",
    "latitude": 43.7976060786,
    "longitude": -121.760677486,
    "accessName": "Crane Prairie Campground",
    "riverName": "Deschutes River - Crane Prairie Reservoir",
    "type": "Public",
    "otherName": "Crane Prairie Reservoir-Deschutes River"
  },
  {
    "department": "Oregon.gov",
    "state": "Oregon",
    "county": "Deschutes County",
    "latitude": 43.7990033591,
    "longitude": -121.758508028,
    "accessName": "Crane Prairie Resort",
    "riverName": "Deschutes River - Crane Prairie Reservoir",
    "type": "Semi-Private",
    "otherName": "Crane Prairie Reservoir-Deschutes River"
  },
  {
    "department": "Oregon.gov",
    "state": "Oregon",
    "county": "Deschutes County",
    "latitude": 43.79906,
    "longitude": -121.7661833,
    "accessName": "Crane Prairie Day Use Area",
    "riverName": "Deschutes River - Crane Prairie Reservoir",
    "type": "Public",
    "otherName": "Crane Prairie Reservoir-Deschutes River"
  },
  {
    "department": "Oregon.gov",
    "state": "Oregon",
    "county": "Douglas County",
    "latitude": 43.79979,
    "longitude": -124.14633,
    "accessName": "Tahkenitch Landing",
    "riverName": "Tahkenitch Lake",
    "type": "Public",
    "otherName": "Tahkenitch Lake-Frontal Pacific Ocean"
  },
  {
    "department": "Oregon.gov",
    "state": "Oregon",
    "county": "Deschutes County",
    "latitude": 43.79996,
    "longitude": -121.8695333,
    "accessName": "Little Cultus Lake Campground",
    "riverName": "Little Cultus Lake",
    "type": "Public",
    "otherName": "Deer Creek"
  },
  {
    "department": "Oregon.gov",
    "state": "Oregon",
    "county": "Lane County",
    "latitude": 43.80805,
    "longitude": -122.56445,
    "accessName": "Black Canyon",
    "riverName": "Middle Fork Willamette River",
    "type": "Public",
    "otherName": "Deception Creek-Middle Fork Willamette River"
  },
  {
    "department": "Oregon.gov",
    "state": "Oregon",
    "county": "Deschutes County",
    "latitude": 43.8122314211,
    "longitude": -121.776871822,
    "accessName": "Cow Meadow",
    "riverName": "Deschutes River - Crane Prairie Reservoir",
    "type": "Public",
    "otherName": "Crane Prairie Reservoir-Deschutes River"
  },
  {
    "department": "Oregon.gov",
    "state": "Oregon",
    "county": "Lane County",
    "latitude": 43.81626,
    "longitude": -122.5883833,
    "accessName": "Hampton",
    "riverName": "MIddle Fork Willamette River - Lookout Point Reservoir",
    "type": "Public",
    "otherName": "Dexter Reservoir-Middle Fork Willamette River"
  },
  {
    "department": "Oregon.gov",
    "state": "Oregon",
    "county": "Deschutes County",
    "latitude": 43.8176815522,
    "longitude": -121.497297328,
    "accessName": "Big River Campground",
    "riverName": "Deschutes River",
    "type": "Public",
    "otherName": "The Dead Slough-Deschutes River"
  },
  {
    "department": "Oregon.gov",
    "state": "Oregon",
    "county": "Deschutes County",
    "latitude": 43.82851,
    "longitude": -121.8383,
    "accessName": "Cultus Lake Resort",
    "riverName": "Cultus Lake",
    "type": "Semi-Private",
    "otherName": "Cultus Creek"
  },
  {
    "department": "Oregon.gov",
    "state": "Oregon",
    "county": "Deschutes County",
    "latitude": 43.83313,
    "longitude": -121.8338667,
    "accessName": "Cultus Lake Campground",
    "riverName": "Cultus Lake",
    "type": "Public",
    "otherName": "Cultus Creek"
  },
  {
    "department": "Oregon.gov",
    "state": "Oregon",
    "county": "Douglas County",
    "latitude": 43.85635,
    "longitude": -124.14481,
    "accessName": "Carter Lake Campground",
    "riverName": "Carter Lake",
    "type": "Public",
    "otherName": "Tahkenitch Lake-Frontal Pacific Ocean"
  },
  {
    "department": "Oregon.gov",
    "state": "Oregon",
    "county": "Malheur County",
    "latitude": 43.87601,
    "longitude": -116.9849667,
    "accessName": "Nyssa River Park",
    "riverName": "Snake River",
    "type": "Public",
    "otherName": "Homestead Gulch-Snake River"
  },
  {
    "department": "Oregon.gov",
    "state": "Oregon",
    "county": "Harney County",
    "latitude": 43.87721,
    "longitude": -119.27062,
    "accessName": "Yellow Jacket",
    "riverName": "Yellow Jacket Lake",
    "type": "Public",
    "otherName": "Yellowjacket Creek-Emigrant Creek"
  },
  {
    "department": "Oregon.gov",
    "state": "Oregon",
    "county": "Deschutes County",
    "latitude": 43.88018,
    "longitude": -121.46341,
    "accessName": "Besson",
    "riverName": "Deschutes River",
    "type": "Public",
    "otherName": "Town of Sunriver-Deschutes River"
  },
  {
    "department": "Oregon.gov",
    "state": "Oregon",
    "county": "Lane County",
    "latitude": 43.88058,
    "longitude": -124.110903,
    "accessName": "Fish Mill Lodges",
    "riverName": "Siltcoos Lake",
    "type": "Semi-Private",
    "otherName": "Siltcoos Lake-Frontal Pacific Ocean"
  },
  {
    "department": "Oregon.gov",
    "state": "Oregon",
    "county": "Lane County",
    "latitude": 43.88379,
    "longitude": -122.68855,
    "accessName": "Signal Point",
    "riverName": "MIddle Fork Willamette River - Lookout Point Reservoir",
    "type": "Public",
    "otherName": "Dexter Reservoir-Middle Fork Willamette River"
  },
  {
    "department": "Oregon.gov",
    "state": "Oregon",
    "county": "Lane County",
    "latitude": 43.88471,
    "longitude": -124.11386,
    "accessName": "Westlake Landing",
    "riverName": "Siltcoos Lake",
    "type": "Public",
    "otherName": "Siltcoos Lake-Frontal Pacific Ocean"
  },
  {
    "department": "Oregon.gov",
    "state": "Oregon",
    "county": "Lane County",
    "latitude": 43.89325,
    "longitude": -124.10976,
    "accessName": "Darlings Resort",
    "riverName": "Siltcoos Lake",
    "type": "Semi-Private",
    "otherName": "Siltcoos Lake-Frontal Pacific Ocean"
  },
  {
    "department": "Oregon.gov",
    "state": "Oregon",
    "county": "Deschutes County",
    "latitude": 43.91065,
    "longitude": -121.76143,
    "accessName": "Little Lava Lake Campground",
    "riverName": "Little Lava Lake",
    "type": "Public",
    "otherName": "Snow Creek-Deschutes River"
  },
  {
    "department": "Oregon.gov",
    "state": "Oregon",
    "county": "Malheur County",
    "latitude": 43.9113248257,
    "longitude": -118.152330536,
    "accessName": "Beulah Reservoir",
    "riverName": "North Fork Malheur River - Beulah Reservoir",
    "type": "Public",
    "otherName": "Currey Canyon-North Fork Malheur River"
  },
  {
    "department": "Oregon.gov",
    "state": "Oregon",
    "county": "Deschutes County",
    "latitude": 43.91462,
    "longitude": -121.76728,
    "accessName": "Lava Lake Lodge",
    "riverName": "Lava Lake",
    "type": "Public",
    "otherName": "Snow Creek-Deschutes River"
  },
  {
    "department": "Oregon.gov",
    "state": "Oregon",
    "county": "Deschutes County",
    "latitude": 43.91475,
    "longitude": -121.76501,
    "accessName": "Lava Lake Campground",
    "riverName": "Lava Lake",
    "type": "Public",
    "otherName": "Snow Creek-Deschutes River"
  },
  {
    "department": "Oregon.gov",
    "state": "Oregon",
    "county": "Lane County",
    "latitude": 43.91618,
    "longitude": -122.8116167,
    "accessName": "Dexter State Park",
    "riverName": "MIddle Fork Willamette River - Dexter Reservoir",
    "type": "Public",
    "otherName": "Dexter Reservoir-Middle Fork Willamette River"
  },
  {
    "department": "Oregon.gov",
    "state": "Oregon",
    "county": "Lane County",
    "latitude": 43.92754,
    "longitude": -124.09828,
    "accessName": "East Woahink Lake",
    "riverName": "Woahink Lake",
    "type": "Public",
    "otherName": "Siltcoos Lake-Frontal Pacific Ocean"
  },
  {
    "department": "Oregon.gov",
    "state": "Oregon",
    "county": "Deschutes County",
    "latitude": 43.93135,
    "longitude": -121.41316,
    "accessName": "Benham Falls",
    "riverName": "Deschutes River",
    "type": "Public",
    "otherName": "Town of Sunriver-Deschutes River"
  },
  {
    "department": "Oregon.gov",
    "state": "Oregon",
    "county": "Deschutes County",
    "latitude": 43.9452542063,
    "longitude": -121.430504735,
    "accessName": "Slough Camp",
    "riverName": "Deschutes River",
    "type": "Public",
    "otherName": "Benham Falls-Deschutes River"
  },
  {
    "department": "Oregon.gov",
    "state": "Oregon",
    "county": "Lane County",
    "latitude": 43.94955,
    "longitude": -122.844681,
    "accessName": "Pengra",
    "riverName": "MIddle Fork Willamette River",
    "type": "Public",
    "otherName": "Dexter Reservoir-Middle Fork Willamette River"
  },
  {
    "department": "Oregon.gov",
    "state": "Oregon",
    "county": "Deschutes County",
    "latitude": 43.95713,
    "longitude": -121.4165833,
    "accessName": "Dillon Falls",
    "riverName": "Deschutes River",
    "type": "Public",
    "otherName": "Benham Falls-Deschutes River"
  },
  {
    "department": "Oregon.gov",
    "state": "Oregon",
    "county": "Deschutes County",
    "latitude": 43.95911,
    "longitude": -121.78885,
    "accessName": "South Campground",
    "riverName": "Hosmer Lake",
    "type": "Public",
    "otherName": "Quinn Creek"
  },
  {
    "department": "Oregon.gov",
    "state": "Oregon",
    "county": "Deschutes County",
    "latitude": 43.96385,
    "longitude": -121.79726,
    "accessName": "Little Fawn Campground",
    "riverName": "Elk Lake",
    "type": "Public",
    "otherName": "Elk Lake"
  },
  {
    "department": "Oregon.gov",
    "state": "Oregon",
    "county": "Deschutes County",
    "latitude": 43.96592,
    "longitude": -121.80806,
    "accessName": "Point Campground",
    "riverName": "Elk Lake",
    "type": "Public",
    "otherName": "Elk Lake"
  },
  {
    "department": "Oregon.gov",
    "state": "Oregon",
    "county": "Lane County",
    "latitude": 43.96813,
    "longitude": -124.10173,
    "accessName": "Port of Siuslaw",
    "riverName": "Siuslaw River",
    "type": "Public",
    "otherName": "Bernhardt Creek-Siuslaw River"
  },
  {
    "department": "Oregon.gov",
    "state": "Oregon",
    "county": "Lane County",
    "latitude": 43.96826,
    "longitude": -123.63457,
    "accessName": "Ford Access",
    "riverName": "Siuslaw River",
    "type": "Public",
    "otherName": "Whittaker Creek-Siuslaw River"
  },
  {
    "department": "Oregon.gov",
    "state": "Oregon",
    "county": "Deschutes County",
    "latitude": 43.97888,
    "longitude": -121.8074333,
    "accessName": "Elk Lake Campground",
    "riverName": "Elk Lake",
    "type": "Public",
    "otherName": "Elk Lake"
  },
  {
    "department": "Oregon.gov",
    "state": "Oregon",
    "county": "Deschutes County",
    "latitude": 43.9804409224,
    "longitude": -121.805542142,
    "accessName": "Elk Lake Resort",
    "riverName": "Elk Lake",
    "type": "Semi-Private",
    "otherName": "Elk Lake"
  },
  {
    "department": "Oregon.gov",
    "state": "Oregon",
    "county": "Lane County",
    "latitude": 43.98221,
    "longitude": -124.05184,
    "accessName": "Siuslaw River RV Park & Marina",
    "riverName": "Siuslaw River",
    "type": "Semi-Private",
    "otherName": "Bernhardt Creek-Siuslaw River"
  },
  {
    "department": "Oregon.gov",
    "state": "Oregon",
    "county": "Lane County",
    "latitude": 43.99791,
    "longitude": -122.906225,
    "accessName": "Jasper Bridge Access",
    "riverName": "Willamette River",
    "type": "Public",
    "otherName": "Mill Race-Middle Fork Willamette River"
  },
  {
    "department": "Oregon.gov",
    "state": "Oregon",
    "county": "Lane County",
    "latitude": 43.99956,
    "longitude": -123.6898,
    "accessName": "Linslaw Park",
    "riverName": "Siuslaw River",
    "type": "Public",
    "otherName": "Turner Creek-Siuslaw River"
  },
  {
    "department": "Oregon.gov",
    "state": "Oregon",
    "county": "Crook County",
    "latitude": 44.00358,
    "longitude": -120.3921833,
    "accessName": "Antelope Flat Reservoir",
    "riverName": "Bear Creek - Antelope Flat Reservoir",
    "type": "Public",
    "otherName": "Headwaters Bear Creek"
  },
  {
    "department": "Oregon.gov",
    "state": "Oregon",
    "county": "Lane County",
    "latitude": 44.00391,
    "longitude": -124.0707833,
    "accessName": "Bender Landing",
    "riverName": "Siuslaw River",
    "type": "Public",
    "otherName": "Lower North Fork Siuslaw River"
  },
  {
    "department": "Oregon.gov",
    "state": "Oregon",
    "county": "Lane County",
    "latitude": 44.0042256155,
    "longitude": -123.651688858,
    "accessName": "Austa",
    "riverName": "Siuslaw River",
    "type": "Public",
    "otherName": "Lower Wildcat Creek"
  },
  {
    "department": "Oregon.gov",
    "state": "Oregon",
    "county": "Lane County",
    "latitude": 44.00618,
    "longitude": -124.08778,
    "accessName": "Munsel Landing County Park",
    "riverName": "Munsel Lake",
    "type": "Public",
    "otherName": "Bernhardt Creek-Siuslaw River"
  },
  {
    "department": "Oregon.gov",
    "state": "Oregon",
    "county": "Lane County",
    "latitude": 44.01388,
    "longitude": -123.708056,
    "accessName": "Richardson's Pole Slide",
    "riverName": "Siuslaw River",
    "type": "Public",
    "otherName": "Turner Creek-Siuslaw River"
  },
  {
    "department": "Oregon.gov",
    "state": "Oregon",
    "county": "Deschutes County",
    "latitude": 44.01403,
    "longitude": -121.7383667,
    "accessName": "Sparks Lake",
    "riverName": "Sparks Lake",
    "type": "Public",
    "otherName": "Soda Creek"
  },
  {
    "department": "Oregon.gov",
    "state": "Oregon",
    "county": "Lane County",
    "latitude": 44.01511,
    "longitude": -123.9396167,
    "accessName": "Tiernan",
    "riverName": "Siuslaw River",
    "type": "Public",
    "otherName": "Bernhardt Creek-Siuslaw River"
  },
  {
    "department": "Oregon.gov",
    "state": "Oregon",
    "county": "Malheur County",
    "latitude": 44.0220467953,
    "longitude": -117.401294807,
    "accessName": "Bully Creek Campground",
    "riverName": "Bully Creek - Bully Creek Reservoir",
    "type": "Public",
    "otherName": "Bully Creek"
  },
  {
    "department": "Oregon.gov",
    "state": "Oregon",
    "county": "Lane County",
    "latitude": 44.02446,
    "longitude": -122.9565667,
    "accessName": "Clearwater Park",
    "riverName": "Willamette River",
    "type": "Public",
    "otherName": "Mill Race-Middle Fork Willamette River"
  },
  {
    "department": "Oregon.gov",
    "state": "Oregon",
    "county": "Lane County",
    "latitude": 44.02485,
    "longitude": -123.8555667,
    "accessName": "Mapleton Landing",
    "riverName": "Siuslaw River",
    "type": "Public",
    "otherName": "Knowles Creek-Siuslaw River"
  },
  {
    "department": "Oregon.gov",
    "state": "Oregon",
    "county": "Lane County",
    "latitude": 44.04523,
    "longitude": -123.0264667,
    "accessName": "Island Park",
    "riverName": "Willamette River",
    "type": "Public",
    "otherName": "Sring Creek-Willamette River"
  },
  {
    "department": "Oregon.gov",
    "state": "Oregon",
    "county": "Malheur County",
    "latitude": 44.04891,
    "longitude": -116.97405,
    "accessName": "Ontario State Park",
    "riverName": "Snake River",
    "type": "Public",
    "otherName": "Plummer Slough-Snake River"
  },
  {
    "department": "Oregon.gov",
    "state": "Oregon",
    "county": "Lane County",
    "latitude": 44.04971,
    "longitude": -124.0823,
    "accessName": "Mercer Lake Resort",
    "riverName": "Mercer Lake",
    "type": "Semi-Private",
    "otherName": "Mercer Lake-Frontal Pacific Ocean"
  },
  {
    "department": "Oregon.gov",
    "state": "Oregon",
    "county": "Lane County",
    "latitude": 44.05056,
    "longitude": -123.8864667,
    "accessName": "Farnham Landing",
    "riverName": "Siuslaw River",
    "type": "Public",
    "otherName": "Knowles Creek-Siuslaw River"
  },
  {
    "department": "Oregon.gov",
    "state": "Oregon",
    "county": "Lane County",
    "latitude": 44.05358,
    "longitude": -124.0972,
    "accessName": "Sutton Lake",
    "riverName": "Sutton Lake",
    "type": "Public",
    "otherName": "Mercer Lake-Frontal Pacific Ocean"
  },
  {
    "department": "Oregon.gov",
    "state": "Oregon",
    "county": "Lane County",
    "latitude": 44.05437,
    "longitude": -123.28989,
    "accessName": "Perkins Peninsula Park",
    "riverName": "Coyote Creek - Fern Ridge Lake",
    "type": "Public",
    "otherName": "Lower Coyote Creek"
  },
  {
    "department": "Oregon.gov",
    "state": "Oregon",
    "county": "Lane County",
    "latitude": 44.05472,
    "longitude": -123.989167,
    "accessName": "Houghton Landing County Park",
    "riverName": "Siuslaw River, North Fork",
    "type": "Public",
    "otherName": "Lower North Fork Siuslaw River"
  },
  {
    "department": "Oregon.gov",
    "state": "Oregon",
    "county": "Lane County",
    "latitude": 44.05621,
    "longitude": -122.8291333,
    "accessName": "Hendrick's Bridge Park",
    "riverName": "McKenzie River",
    "type": "Public",
    "otherName": "Walterville Canal-McKenzie River"
  },
  {
    "department": "Oregon.gov",
    "state": "Oregon",
    "county": "Lane County",
    "latitude": 44.06611,
    "longitude": -123.839444,
    "accessName": "Tide Wayside",
    "riverName": "Siuslaw River",
    "type": "Public",
    "otherName": "Knowles Creek-Siuslaw River"
  },
  {
    "department": "Oregon.gov",
    "state": "Oregon",
    "county": "Lane County",
    "latitude": 44.0708319485,
    "longitude": -123.787069829,
    "accessName": "Konnie Fishing Access",
    "riverName": "Lake Creek, Siuslaw River",
    "type": "Public",
    "otherName": "Green Creek-Lake Creek"
  },
  {
    "department": "Oregon.gov",
    "state": "Oregon",
    "county": "Lane County",
    "latitude": 44.07233,
    "longitude": -122.96529,
    "accessName": "Hayden Bridge",
    "riverName": "McKenzie River",
    "type": "Public",
    "otherName": "Walterville Canal-McKenzie River"
  },
  {
    "department": "Oregon.gov",
    "state": "Oregon",
    "county": "Lane County",
    "latitude": 44.07606,
    "longitude": -122.7429167,
    "accessName": "Taylor Landing RV Park and Marina",
    "riverName": "McKenzie River",
    "type": "Public",
    "otherName": "Holden Creek-McKenzie River"
  },
  {
    "department": "Oregon.gov",
    "state": "Oregon",
    "county": "Lane County",
    "latitude": 44.07646,
    "longitude": -122.2259833,
    "accessName": "Slide Creek Campground",
    "riverName": "East Fork South Fork McKenzie River - Cougar Reservoir",
    "type": "Public",
    "otherName": "Cougar Reservoir-South Fork McKenzie River"
  },
  {
    "department": "Oregon.gov",
    "state": "Oregon",
    "county": "Lane County",
    "latitude": 44.07685,
    "longitude": -122.76485,
    "accessName": "Walterville",
    "riverName": "McKenzie River",
    "type": "Public",
    "otherName": "Holden Creek-McKenzie River"
  },
  {
    "department": "Oregon.gov",
    "state": "Oregon",
    "county": "Lane County",
    "latitude": 44.07861,
    "longitude": -122.99895,
    "accessName": "Harvest Lane",
    "riverName": "McKenzie River",
    "type": "Public",
    "otherName": "Walterville Canal-McKenzie River"
  },
  {
    "department": "Oregon.gov",
    "state": "Oregon",
    "county": "Lane County",
    "latitude": 44.0796252098,
    "longitude": -123.30704521,
    "accessName": "Fern Ridge Shores RV Park",
    "riverName": "Coyote Creek - Fern Ridge Lake",
    "type": "Semi-Private",
    "otherName": "Lower Coyote Creek"
  },
  {
    "department": "Oregon.gov",
    "state": "Oregon",
    "county": "Lane County",
    "latitude": 44.07986,
    "longitude": -123.7909167,
    "accessName": "Schindler Landing",
    "riverName": "Lake Creek, Siuslaw River",
    "type": "Public",
    "otherName": "Green Creek-Lake Creek"
  },
  {
    "department": "Oregon.gov",
    "state": "Oregon",
    "county": "Lane County",
    "latitude": 44.09061,
    "longitude": -123.02451,
    "accessName": "Deadmond's Ferry Landing",
    "riverName": "McKenzie River",
    "type": "Public",
    "otherName": "Walterville Canal-McKenzie River"
  },
  {
    "department": "Oregon.gov",
    "state": "Oregon",
    "county": "Lane County",
    "latitude": 44.09133,
    "longitude": -122.7157667,
    "accessName": "Deerhorn Landing",
    "riverName": "McKenzie River",
    "type": "Public",
    "otherName": "Holden Creek-McKenzie River"
  },
  {
    "department": "Oregon.gov",
    "state": "Oregon",
    "county": "Lane County",
    "latitude": 44.09447,
    "longitude": -123.75593,
    "accessName": "Deadwood",
    "riverName": "Lake Creek",
    "type": "Public",
    "otherName": "Green Creek-Lake Creek"
  },
  {
    "department": "Oregon.gov",
    "state": "Oregon",
    "county": "Lane County",
    "latitude": 44.10445,
    "longitude": -122.68088,
    "accessName": "Leaburg Landing",
    "riverName": "McKenzie River",
    "type": "Public",
    "otherName": "Ritchie Creek-McKenzie River"
  },
  {
    "department": "Oregon.gov",
    "state": "Oregon",
    "county": "Crook County",
    "latitude": 44.10605,
    "longitude": -120.7777,
    "accessName": "Powder House Cove",
    "riverName": "Crooked River - Prineville Reservoir",
    "type": "Public",
    "otherName": "Lower Prineville Reservoir"
  },
  {
    "department": "Oregon.gov",
    "state": "Oregon",
    "county": "Lane County",
    "latitude": 44.11183,
    "longitude": -123.0477333,
    "accessName": "Armitage Park",
    "riverName": "McKenzie River",
    "type": "Public",
    "otherName": "Walterville Canal-McKenzie River"
  },
  {
    "department": "Oregon.gov",
    "state": "Oregon",
    "county": "Lane County",
    "latitude": 44.11536,
    "longitude": -123.2800333,
    "accessName": "Orchard Point Park",
    "riverName": "Coyote Creek - Fern Ridge Lake",
    "type": "Public",
    "otherName": "Fern Ridge Lake-Long Tom River"
  },
  {
    "department": "Oregon.gov",
    "state": "Oregon",
    "county": "Lane County",
    "latitude": 44.11626,
    "longitude": -122.44279,
    "accessName": "Silver Creek Landing",
    "riverName": "McKenzie River",
    "type": "Public",
    "otherName": "East Fork Deer Creek-McKenzie River"
  },
  {
    "department": "Oregon.gov",
    "state": "Oregon",
    "county": "Lane County",
    "latitude": 44.11664,
    "longitude": -123.10904,
    "accessName": "Whiteley Landing",
    "riverName": "Willamette River",
    "type": "Public",
    "otherName": "Sring Creek-Willamette River"
  },
  {
    "department": "Oregon.gov",
    "state": "Oregon",
    "county": "Lane County",
    "latitude": 44.11748,
    "longitude": -123.31465,
    "accessName": "Richardson Park",
    "riverName": "Coyote Creek - Fern Ridge Lake",
    "type": "Public",
    "otherName": "Fern Ridge Lake-Long Tom River"
  },
  {
    "department": "Oregon.gov",
    "state": "Oregon",
    "county": "Lane County",
    "latitude": 44.1192989703,
    "longitude": -122.211446472,
    "accessName": "Echo",
    "riverName": "East Fork South Fork McKenzie River - Cougar Reservoir",
    "type": "Public",
    "otherName": "East Fork South Fork McKenzie River"
  },
  {
    "department": "Oregon.gov",
    "state": "Oregon",
    "county": "Crook County",
    "latitude": 44.12258,
    "longitude": -120.68675,
    "accessName": "Prineville Reservoir Resort",
    "riverName": "Crooked River - Prineville Reservoir",
    "type": "Semi-Private",
    "otherName": "Lower Prineville Reservoir"
  },
  {
    "department": "Oregon.gov",
    "state": "Oregon",
    "county": "Lane County",
    "latitude": 44.12298,
    "longitude": -122.406622,
    "accessName": "McMullen's Landing",
    "riverName": "McKenzie River",
    "type": "Public",
    "otherName": "Elk Creek-McKenzie River"
  },
  {
    "department": "Oregon.gov",
    "state": "Oregon",
    "county": "Crook County",
    "latitude": 44.12698,
    "longitude": -120.72285,
    "accessName": "Prineville Reservoir State Park",
    "riverName": "Crooked River - Prineville Reservoir",
    "type": "Public",
    "otherName": "Lower Prineville Reservoir"
  },
  {
    "department": "Oregon.gov",
    "state": "Oregon",
    "county": "Lane County",
    "latitude": 44.12798,
    "longitude": -122.5346167,
    "accessName": "Helfrich Landing",
    "riverName": "McKenzie River",
    "type": "Public",
    "otherName": "East Fork Deer Creek-McKenzie River"
  },
  {
    "department": "Oregon.gov",
    "state": "Oregon",
    "county": "Lane County",
    "latitude": 44.12868,
    "longitude": -122.3795333,
    "accessName": "Finn Rock Rest Area",
    "riverName": "McKenzie River",
    "type": "Public",
    "otherName": "Elk Creek-McKenzie River"
  },
  {
    "department": "Oregon.gov",
    "state": "Oregon",
    "county": "Lane County",
    "latitude": 44.13165,
    "longitude": -122.5193,
    "accessName": "Ben & Kay Dorris Park",
    "riverName": "McKenzie River",
    "type": "Public",
    "otherName": "East Fork Deer Creek-McKenzie River"
  },
  {
    "department": "Oregon.gov",
    "state": "Oregon",
    "county": "Crook County",
    "latitude": 44.13271,
    "longitude": -120.7503833,
    "accessName": "County Ramp",
    "riverName": "Crooked River - Prineville Reservoir",
    "type": "Public",
    "otherName": "Lower Prineville Reservoir"
  },
  {
    "department": "Oregon.gov",
    "state": "Oregon",
    "county": "Crook County",
    "latitude": 44.13596,
    "longitude": -120.693319,
    "accessName": "Jasper Point",
    "riverName": "Crooked River - Prineville Reservoir",
    "type": "Public",
    "otherName": "Lower Prineville Reservoir"
  },
  {
    "department": "Oregon.gov",
    "state": "Oregon",
    "county": "Lane County",
    "latitude": 44.13859,
    "longitude": -122.6113,
    "accessName": "Lloyd KnoxWater Board Park",
    "riverName": "McKenzie River",
    "type": "Public",
    "otherName": "Ritchie Creek-McKenzie River"
  },
  {
    "department": "Oregon.gov",
    "state": "Oregon",
    "county": "Lane County",
    "latitude": 44.14555,
    "longitude": -122.357222,
    "accessName": "Shepard's Landing",
    "riverName": "McKenzie River",
    "type": "Public",
    "otherName": "Elk Creek-McKenzie River"
  },
  {
    "department": "Oregon.gov",
    "state": "Oregon",
    "county": "Lane County",
    "latitude": 44.1639840285,
    "longitude": -122.260455488,
    "accessName": "Brukart Landing",
    "riverName": "McKenzie River",
    "type": "Public",
    "otherName": "Elk Creek-McKenzie River"
  },
  {
    "department": "Oregon.gov",
    "state": "Oregon",
    "county": "Lane County",
    "latitude": 44.1739039245,
    "longitude": -123.581059359,
    "accessName": "Triangle Lake Landing",
    "riverName": "Triangle Lake",
    "type": "Public",
    "otherName": "Triangle Lake-Lake Creek"
  },
  {
    "department": "Oregon.gov",
    "state": "Oregon",
    "county": "Lane County",
    "latitude": 44.17541,
    "longitude": -122.28182,
    "accessName": "Saddle Dam",
    "riverName": "Blue River - Blue River Reservoir",
    "type": "Public",
    "otherName": "Lower Blue River"
  },
  {
    "department": "Oregon.gov",
    "state": "Oregon",
    "county": "Lane County",
    "latitude": 44.18558,
    "longitude": -122.087528,
    "accessName": "Paradise Campground",
    "riverName": "McKenzie River",
    "type": "Public",
    "otherName": "Florence Creek-McKenzie River"
  },
  {
    "department": "Oregon.gov",
    "state": "Oregon",
    "county": "Lane County",
    "latitude": 44.1880293788,
    "longitude": -123.144549521,
    "accessName": "Christensen's Landing",
    "riverName": "Willamette River",
    "type": "Public",
    "otherName": "Sring Creek-Willamette River"
  },
  {
    "department": "Oregon.gov",
    "state": "Oregon",
    "county": "Lane County",
    "latitude": 44.188928961,
    "longitude": -123.147123108,
    "accessName": "Marshall Island Access",
    "riverName": "Willamette River",
    "type": "Public",
    "otherName": "Sring Creek-Willamette River"
  },
  {
    "department": "Oregon.gov",
    "state": "Oregon",
    "county": "Lane County",
    "latitude": 44.20446649,
    "longitude": -122.261861057,
    "accessName": "Lookout Campground",
    "riverName": "Blue River Reservoir",
    "type": "Public",
    "otherName": "Lower Blue River"
  },
  {
    "department": "Oregon.gov",
    "state": "Oregon",
    "county": "Lane County",
    "latitude": 44.24117,
    "longitude": -123.495239,
    "accessName": "Hult Reservoir",
    "riverName": "Lake Creek - Hult Reservoir",
    "type": "Public",
    "otherName": "Congdon Creek-Lake Creek"
  },
  {
    "department": "Oregon.gov",
    "state": "Oregon",
    "county": "Malheur County",
    "latitude": 44.2629275419,
    "longitude": -117.12752138,
    "accessName": "Oasis on the Snake",
    "riverName": "Snake River",
    "type": "Semi-Private",
    "otherName": "Road Gulch-Snake River"
  },
  {
    "department": "Oregon.gov",
    "state": "Oregon",
    "county": "Linn County",
    "latitude": 44.27305,
    "longitude": -123.17401,
    "accessName": "Harrisburg Landing",
    "riverName": "Willamette River",
    "type": "Public",
    "otherName": "Curtis Slough-Willamette River"
  },
  {
    "department": "Oregon.gov",
    "state": "Oregon",
    "county": "Linn County",
    "latitude": 44.2787910046,
    "longitude": -122.050059013,
    "accessName": "Trail Bridge Campground",
    "riverName": "McKenzie River - Trail Bridge Reservoir",
    "type": "Public",
    "otherName": "Smith River"
  },
  {
    "department": "Oregon.gov",
    "state": "Oregon",
    "county": "Baker County",
    "latitude": 44.30586,
    "longitude": -117.2236333,
    "accessName": "Farewell Bend State Park",
    "riverName": "Snake River - Brownlee Reservoir",
    "type": "Public",
    "otherName": "Grouse Creek-Snake River"
  },
  {
    "department": "Oregon.gov",
    "state": "Oregon",
    "county": "Crook County",
    "latitude": 44.30598,
    "longitude": -120.7035,
    "accessName": "Ochoco Reservoir County Park",
    "riverName": "Ochoco Creek - Ochoco Reservoir",
    "type": "Public",
    "otherName": "Ochoco Reservoir-Ochoco Creek"
  },
  {
    "department": "Oregon.gov",
    "state": "Oregon",
    "county": "Linn County",
    "latitude": 44.3097690768,
    "longitude": -122.043280117,
    "accessName": "Smith Reservoir",
    "riverName": "Smith River - Smith Reservoir",
    "type": "Public",
    "otherName": "Smith River"
  },
  {
    "department": "Oregon.gov",
    "state": "Oregon",
    "county": "Linn County",
    "latitude": 44.31705,
    "longitude": -123.21633,
    "accessName": "McCartney Park",
    "riverName": "Willamette River",
    "type": "Public",
    "otherName": "Curtis Slough-Willamette River"
  },
  {
    "department": "Oregon.gov",
    "state": "Oregon",
    "county": "Linn County",
    "latitude": 44.34005,
    "longitude": -122.00225,
    "accessName": "Carmen Diversion",
    "riverName": "Carmen Reservoir",
    "type": "Public",
    "otherName": "Hackleman Creek-McKenzie River"
  },
  {
    "department": "Oregon.gov",
    "state": "Oregon",
    "county": "Benton County",
    "latitude": 44.3430693877,
    "longitude": -123.6860525,
    "accessName": "Salmonberry Park",
    "riverName": "Alsea River",
    "type": "Public",
    "otherName": "Cow Creek-Alsea River"
  },
  {
    "department": "Oregon.gov",
    "state": "Oregon",
    "county": "Benton County",
    "latitude": 44.34615,
    "longitude": -123.72153,
    "accessName": "Missouri Bend",
    "riverName": "Alsea River",
    "type": "Public",
    "otherName": "Cow Creek-Alsea River"
  },
  {
    "department": "Oregon.gov",
    "state": "Oregon",
    "county": "Malheur County",
    "latitude": 44.3609878139,
    "longitude": -117.682926948,
    "accessName": "Malheur Reservoir",
    "riverName": "Willow Creek - Malheur Reservoir",
    "type": "Public",
    "otherName": "Jeff Davis Creek-Willow Creek"
  },
  {
    "department": "Oregon.gov",
    "state": "Oregon",
    "county": "Benton County",
    "latitude": 44.36295,
    "longitude": -123.22022,
    "accessName": "Irish Bend",
    "riverName": "Willamette River",
    "type": "Public",
    "otherName": "Lake Creek-Willamette River"
  },
  {
    "department": "Oregon.gov",
    "state": "Oregon",
    "county": "Lincoln County",
    "latitude": 44.36358,
    "longitude": -123.8274833,
    "accessName": "Five Rivers",
    "riverName": "Alsea River",
    "type": "Public",
    "otherName": "Cow Creek-Alsea River"
  },
  {
    "department": "Oregon.gov",
    "state": "Oregon",
    "county": "Linn County",
    "latitude": 44.36548,
    "longitude": -121.9903,
    "accessName": "Cold Water Cove Campground",
    "riverName": "Clear Lake",
    "type": "Public",
    "otherName": "Hackleman Creek-McKenzie River"
  },
  {
    "department": "Oregon.gov",
    "state": "Oregon",
    "county": "Benton County",
    "latitude": 44.36596,
    "longitude": -123.6891167,
    "accessName": "Campbell Park",
    "riverName": "Alsea River",
    "type": "Public",
    "otherName": "Cow Creek-Alsea River"
  },