[
  {
    "department": "Montana Fish, Wildlife and Parks",
    "state": "Montana",
    "county": "Flathead County",
    "latitude": 48.0605680682,
    "longitude": -114.076119963,
    "accessName": "Bigfork",
    "riverName": "Flathead Lake",
    "type": "Public",
    "otherName": "Town of Bigfork-Swan River"
  },
  {
    "department": "Montana Fish, Wildlife and Parks",
    "state": "Montana",
    "county": "Powell County",
    "latitude": 47.073047824,
    "longitude": -113.229813362,
    "accessName": "Upsata Lake",
    "riverName": "Upsata Lake",
    "type": "Public",
    "otherName": "Lower Monture Creek"
  },
  {
    "department": "Montana Fish, Wildlife and Parks",
    "state": "Montana",
    "county": "Missoula County",
    "latitude": 47.022549062,
    "longitude": -113.307302421,
    "accessName": "Russell Gates Memorial",
    "riverName": "Blackfoot River",
    "type": "Public",
    "otherName": "Bear Creek-Blackfoot River"
  },
  {
    "department": "Montana Fish, Wildlife and Parks",
    "state": "Montana",
    "county": "Jefferson County",
    "latitude": 45.856721886,
    "longitude": -112.013963016,
    "accessName": "Mayflower Bridge",
    "riverName": "Jefferson River",
    "type": "Public",
    "otherName": "Mayflower Creek-Jefferson River"
  },
  {
    "department": "Montana Fish, Wildlife and Parks",
    "state": "Montana",
    "county": "Madison County",
    "latitude": 45.0967905404,
    "longitude": -111.66176599,
    "accessName": "McAtee Bridge",
    "riverName": "Madison River",
    "type": "Public",
    "otherName": "Corral Creek-Madison River"
  },
  {
    "department": "Montana Fish, Wildlife and Parks",
    "state": "Montana",
    "county": "Madison County",
    "latitude": 45.2306873514,
    "longitude": -111.751446985,
    "accessName": "Varney Bridge",
    "riverName": "Madison River",
    "type": "Public",
    "otherName": "Upper O'Dell Creek-Madison River"
  },
  {
    "department": "Montana Fish, Wildlife and Parks",
    "state": "Montana",
    "county": "Madison County",
    "latitude": 45.3149154641,
    "longitude": -111.747740371,
    "accessName": "Burnt Tree Hole",
    "riverName": "Madison River",
    "type": "Public",
    "otherName": "Lower O'Dell Creek-Madison River"
  },
  {
    "department": "Montana Fish, Wildlife and Parks",
    "state": "Montana",
    "county": "Madison County",
    "latitude": 45.3672610185,
    "longitude": -111.705404386,
    "accessName": "Valley Garden",
    "riverName": "Madison River",
    "type": "Public",
    "otherName": "Ennis Lake"
  },
  {
    "department": "Montana Fish, Wildlife and Parks",
    "state": "Montana",
    "county": "Lewis and Clark County",
    "latitude": 47.5475535234,
    "longitude": -112.439136371,
    "accessName": "Willow Creek Reservoir",
    "riverName": "Willow Creek Reservoir",
    "type": "Public",
    "otherName": "Willow Creek Reservoir-Willow Creek"
  },
  {
    "department": "Montana Fish, Wildlife and Parks",
    "state": "Montana",
    "county": "Ravalli County",
    "latitude": 46.3703119807,
    "longitude": -114.139889431,
    "accessName": "Tucker Crossing",
    "riverName": "Bitterroot River",
    "type": "Public",
    "otherName": "Birch Creek-Bitterroot River"
  },
  {
    "department": "Montana Fish, Wildlife and Parks",
    "state": "Montana",
    "county": "Missoula County",
    "latitude": 46.943086373,
    "longitude": -113.601358352,
    "accessName": "Whitaker Bridge",
    "riverName": "Blackfoot River",
    "type": "Public",
    "otherName": "Buck Creek-Blackfoot River"
  },
  {
    "department": "Montana Fish, Wildlife and Parks",
    "state": "Montana",
    "county": "Yellowstone County",
    "latitude": 46.1445915976,
    "longitude": -107.464464306,
    "accessName": "Manuel Lisa",
    "riverName": "Bighorn River",
    "type": "Public",
    "otherName": "Big Ox Bottom-Bighorn River"
  },
  {
    "department": "Montana Fish, Wildlife and Parks",
    "state": "Montana",
    "county": "Flathead County",
    "latitude": 48.1078281998,
    "longitude": -114.441494499,
    "accessName": "Smith Lake",
    "riverName": "Smith Lake",
    "type": "Public",
    "otherName": "Middle Ashley Creek"
  },
  {
    "department": "Montana Fish, Wildlife and Parks",
    "state": "Montana",
    "county": "Lake County",
    "latitude": 48.0207910974,
    "longitude": -113.996933434,
    "accessName": "Horseshoe Lake/Ferndale",
    "riverName": "Horseshoe Lake",
    "type": "Public",
    "otherName": "Swan Lake"
  },
  {
    "department": "Montana Fish, Wildlife and Parks",
    "state": "Montana",
    "county": "Lincoln County",
    "latitude": 48.9559130341,
    "longitude": -115.126774991,
    "accessName": "Sophie Lake",
    "riverName": "Sophie Lake",
    "type": "Public",
    "otherName": "Phillips Creek"
  },
  {
    "department": "Montana Fish, Wildlife and Parks",
    "state": "Montana",
    "county": "Sanders County",
    "latitude": 47.5422051326,
    "longitude": -115.092898899,
    "accessName": "McKay Landing",
    "riverName": "Clark Fork River",
    "type": "Public",
    "otherName": "Munson Creek-Clark Fork"
  },
  {
    "department": "Montana Fish, Wildlife and Parks",
    "state": "Montana",
    "county": "Lincoln County",
    "latitude": 48.8702167617,
    "longitude": -114.950350588,
    "accessName": "Glen Lake",
    "riverName": "Glen Lake",
    "type": "Public",
    "otherName": "Tobacco River"
  },
  {
    "department": "Montana Fish, Wildlife and Parks",
    "state": "Montana",
    "county": "Flathead County",
    "latitude": 48.3930919489,
    "longitude": -114.36679248,
    "accessName": "Blanchard Lake",
    "riverName": "Blanchard Lake",
    "type": "Public",
    "otherName": "Whitefish River-Whitefish"
  },
  {
    "department": "Montana Fish, Wildlife and Parks",
    "state": "Montana",
    "county": "Flathead County",
    "latitude": 48.3660377639,
    "longitude": -114.17058202,
    "accessName": "Teakettle",
    "riverName": "Flathead River",
    "type": "Public",
    "otherName": "Gooderich Bayou-Flathead River"
  },
  {
    "department": "Montana Fish, Wildlife and Parks",
    "state": "Montana",
    "county": "Flathead County",
    "latitude": 48.3429003045,
    "longitude": -114.21704714,
    "accessName": "Kokanee Bend",
    "riverName": "Flathead River",
    "type": "Public",
    "otherName": "Gooderich Bayou-Flathead River"
  },
  {
    "department": "Montana Fish, Wildlife and Parks",
    "state": "Montana",
    "county": "Missoula County",
    "latitude": 46.9149164154,
    "longitude": -113.677917042,
    "accessName": "Johnsrud Park",
    "riverName": "Blackfoot River",
    "type": "Public",
    "otherName": "West Twin Creek-Blackfoot River"
  },
  {
    "department": "Montana Fish, Wildlife and Parks",
    "state": "Montana",
    "county": "Madison County",
    "latitude": 45.6334217631,
    "longitude": -112.318586143,
    "accessName": "Hell's Canyon",
    "riverName": "Jefferson River",
    "type": "Public",
    "otherName": "Dry Boulder Creek-Jefferson River"
  },
  {
    "department": "Montana Fish, Wildlife and Parks",
    "state": "Montana",
    "county": "Richland County",
    "latitude": 48.1226537395,
    "longitude": -104.475221677,
    "accessName": "Culbertson Bridge",
    "riverName": "Missouri River",
    "type": "Public",
    "otherName": "Day Creek-Missouri River"
  },
  {
    "department": "Montana Fish, Wildlife and Parks",
    "state": "Montana",
    "county": "Meagher County",
    "latitude": 46.6408602587,
    "longitude": -110.937556146,
    "accessName": "Newlan Creek Reservoir",
    "riverName": "Newlan Reservoir",
    "type": "Public",
    "otherName": "Lower Newlan Creek"
  },
  {
    "department": "Montana Fish, Wildlife and Parks",
    "state": "Montana",
    "county": "Richland County",
    "latitude": 47.673459989,
    "longitude": -104.157242167,
    "accessName": "Sidney Bridge",
    "riverName": "Yellowstone River",
    "type": "Public",
    "otherName": "Town of Newlon Junction-Yellowstone River"
  },
  {
    "department": "Montana Fish, Wildlife and Parks",
    "state": "Montana",
    "county": "Lake County",
    "latitude": 47.8343629453,
    "longitude": -114.333392975,
    "accessName": "Elmo",
    "riverName": "Flathead Lake",
    "type": "Public",
    "otherName": "Town of Elmo-Frontal Flathead Lake"
  },
  {
    "department": "Montana Fish, Wildlife and Parks",
    "state": "Montana",
    "county": "Granite County",
    "latitude": 46.661904653,
    "longitude": -113.14984571,
    "accessName": "Drummond",
    "riverName": "Clark Fork River",
    "type": "Public",
    "otherName": "Town of Drummond-Clark Fork"
  },
  {
    "department": "Montana Fish, Wildlife and Parks",
    "state": "Montana",
    "county": "Madison County",
    "latitude": 45.3453016185,
    "longitude": -111.723750775,
    "accessName": "Ennis",
    "riverName": "Madison River",
    "type": "Public",
    "otherName": "Lower O'Dell Creek-Madison River"
  },
  {
    "department": "Montana Fish, Wildlife and Parks",
    "state": "Montana",
    "county": "Flathead County",
    "latitude": 48.292176118,
    "longitude": -114.222861563,
    "accessName": "Pressentine",
    "riverName": "Flathead River",
    "type": "Public",
    "otherName": "Gooderich Bayou-Flathead River"
  },
  {
    "department": "Montana Fish, Wildlife and Parks",
    "state": "Montana",
    "county": "Flathead County",
    "latitude": 48.2089051428,
    "longitude": -114.258140939,
    "accessName": "Old Steel Bridge",
    "riverName": "Flathead River",
    "type": "Public",
    "otherName": "Egan Slough-Flathead River"
  },
  {
    "department": "Montana Fish, Wildlife and Parks",
    "state": "Montana",
    "county": "Flathead County",
    "latitude": 48.0771732662,
    "longitude": -114.235847683,
    "accessName": "Somers",
    "riverName": "Flathead Lake",
    "type": "Public",
    "otherName": "Flathead Lake"
  },
  {
    "department": "Montana Fish, Wildlife and Parks",
    "state": "Montana",
    "county": "Flathead County",
    "latitude": 48.0924474344,
    "longitude": -114.113980374,
    "accessName": "Sportsmans Bridge",
    "riverName": "Flathead River",
    "type": "Public",
    "otherName": "Rose Creek-Frontal Flathead River"
  },
  {
    "department": "Montana Fish, Wildlife and Parks",
    "state": "Montana",
    "county": "Cascade County",
    "latitude": 47.3897179879,
    "longitude": -111.338639576,
    "accessName": "Big Bend",
    "riverName": "Missouri River",
    "type": "Public",
    "otherName": "Wilson Butte-Missouri River"
  },
  {
    "department": "Montana Fish, Wildlife and Parks",
    "state": "Montana",
    "county": "Madison County",
    "latitude": 44.8266302825,
    "longitude": -111.485687896,
    "accessName": "Raynolds' Pass",
    "riverName": "Madison River",
    "type": "Public",
    "otherName": "Mile Creek-Madison River"
  },
  {
    "department": "Montana Fish, Wildlife and Parks",
    "state": "Montana",
    "county": "Carbon County",
    "latitude": 45.2961844285,
    "longitude": -108.899798414,
    "accessName": "Bridger",
    "riverName": "Clarks Fork Yellowstone River",
    "type": "Public",
    "otherName": "Skunk Creek-Clarks Fork Yellowstone Creek"
  },
  {
    "department": "Montana Fish, Wildlife and Parks",
    "state": "Montana",
    "county": "Ravalli County",
    "latitude": 45.921784788,
    "longitude": -114.142137557,
    "accessName": "WW White Memorial",
    "riverName": "West Fork Bitterroot River",
    "type": "Public",
    "otherName": "Lloyd Creek-West Fork Bitterroot River"
  },
  {
    "department": "Montana Fish, Wildlife and Parks",
    "state": "Montana",
    "county": "Broadwater County",
    "latitude": 46.2660401683,
    "longitude": -111.492573001,
    "accessName": "York's Islands",
    "riverName": "Missouri River",
    "type": "Public",
    "otherName": "Town of Holker-Missouri River"
  },
  {
    "department": "Montana Fish, Wildlife and Parks",
    "state": "Montana",
    "county": "Ravalli County",
    "latitude": 46.0147396397,
    "longitude": -114.164012657,
    "accessName": "Darby Bridge",
    "riverName": "Bitterroot River",
    "type": "Public",
    "otherName": "Town of Darby-Bitterroot River"
  },
  {
    "department": "Montana Fish, Wildlife and Parks",
    "state": "Montana",
    "county": "Lake County",
    "latitude": 48.025865685,
    "longitude": -113.990456774,
    "accessName": "Loon Lake/Ferndale",
    "riverName": "Loon Lake",
    "type": "Public",
    "otherName": "Town of Bigfork-Swan River"
  },
  {
    "department": "Montana Fish, Wildlife and Parks",
    "state": "Montana",
    "county": "Madison County",
    "latitude": 45.4681175304,
    "longitude": -112.667522383,
    "accessName": "Glen",
    "riverName": "Big Hole River",
    "type": "Public",
    "otherName": "Lost Creek-Big Hole River"
  },
  {
    "department": "Montana Fish, Wildlife and Parks",
    "state": "Montana",
    "county": "Madison County",
    "latitude": 45.4373045578,
    "longitude": -112.564634174,
    "accessName": "Notch Bottom",
    "riverName": "Big Hole River",
    "type": "Public",
    "otherName": "Biltmore Hot Springs-Big Hole River"
  },
  {
    "department": "Montana Fish, Wildlife and Parks",
    "state": "Montana",
    "county": "Yellowstone County",
    "latitude": 45.6868447918,
    "longitude": -108.643673398,
    "accessName": "Duck Creek Bridge",
    "riverName": "Yellowstone River",
    "type": "Public",
    "otherName": "Brockway Coulee-Yellowstone River"
  },
  {
    "department": "Montana Fish, Wildlife and Parks",
    "state": "Montana",
    "county": "Flathead County",
    "latitude": 48.4311311017,
    "longitude": -114.421125986,
    "accessName": "Beaver Lake",
    "riverName": "Beaver Lake",
    "type": "Public",
    "otherName": "Tobie Creek-Stillwater River"
  },
  {
    "department": "Montana Fish, Wildlife and Parks",
    "state": "Montana",
    "county": "Powell County",
    "latitude": 46.983613244,
    "longitude": -113.129654273,
    "accessName": "River Junction",
    "riverName": "Blackfoot River",
    "type": "Public",
    "otherName": "Warren Creek-Blackfoot River"
  },
  {
    "department": "Montana Fish, Wildlife and Parks",
    "state": "Montana",
    "county": "Powell County",
    "latitude": 46.9798957425,
    "longitude": -113.099994701,
    "accessName": "Harry Morgan",
    "riverName": "North Fork Blackfoot River",
    "type": "Public",
    "otherName": "Lower North Fork Blackfoot River"
  },
  {
    "department": "Montana Fish, Wildlife and Parks",
    "state": "Montana",
    "county": "Powell County",
    "latitude": 46.9514073132,
    "longitude": -113.010372613,
    "accessName": "Brown's Lake",
    "riverName": "Brown's Lake",
    "type": "Public",
    "otherName": "Browns Lake"
  },
  {
    "department": "Montana Fish, Wildlife and Parks",
    "state": "Montana",
    "county": "Powell County",
    "latitude": 46.8971796374,
    "longitude": -113.059108851,
    "accessName": "Cedar Meadow",
    "riverName": "Blackfoot River",
    "type": "Public",
    "otherName": "Company Ditch-Blackfoot River"
  },
  {
    "department": "Montana Fish, Wildlife and Parks",
    "state": "Montana",
    "county": "Missoula County",
    "latitude": 46.9505684957,
    "longitude": -113.535950726,
    "accessName": "Corrick's River Bend",
    "riverName": "Blackfoot River",
    "type": "Public",
    "otherName": "Buck Creek-Blackfoot River"
  },
  {
    "department": "Montana Fish, Wildlife and Parks",
    "state": "Montana",
    "county": "Missoula County",
    "latitude": 46.9915575651,
    "longitude": -114.445563832,
    "accessName": "Petty Creek",
    "riverName": "Clark Fork River",
    "type": "Public",
    "otherName": "Town of Alberton-Clark Fork"
  },
  {
    "department": "Montana Fish, Wildlife and Parks",
    "state": "Montana",
    "county": "Ravalli County",
    "latitude": 46.6324712117,
    "longitude": -114.051538582,
    "accessName": "Florence Bridge",
    "riverName": "Bitterroot River",
    "type": "Public",
    "otherName": "Larry Creek-Bitterroot River"
  },
  {
    "department": "Montana Fish, Wildlife and Parks",
    "state": "Montana",
    "county": "Lewis and Clark County",
    "latitude": 47.4730074485,
    "longitude": -112.522276452,
    "accessName": "Nilan Reservoir",
    "riverName": "Nilan Reservoir",
    "type": "Public",
    "otherName": "Little Willow Creek-Willow Creek"
  },
  {
    "department": "Montana Fish, Wildlife and Parks",
    "state": "Montana",
    "county": "Lewis and Clark County",
    "latitude": 47.0199124945,
    "longitude": -112.011625142,
    "accessName": "Wolf Creek Bridge",
    "riverName": "Missouri River",
    "type": "Public",
    "otherName": "Log Gulch-Missouri River"
  },
  {
    "department": "Montana Fish, Wildlife and Parks",
    "state": "Montana",
    "county": "Beaverhead County",
    "latitude": 45.778213329,
    "longitude": -112.848808413,
    "accessName": "George Grant Memorial",
    "riverName": "Big Hole River",
    "type": "Public",
    "otherName": "Charcoal Creek-Big Hole River"
  },
  {
    "department": "Montana Fish, Wildlife and Parks",
    "state": "Montana",
    "county": "Madison County",
    "latitude": 45.5473617054,
    "longitude": -112.693071322,
    "accessName": "Brownes Bridge",
    "riverName": "Big Hole River",
    "type": "Public",
    "otherName": "Brownes Gulch-Big Hole River"
  },
  {
    "department": "Montana Fish, Wildlife and Parks",
    "state": "Montana",
    "county": "Beaverhead County",
    "latitude": 45.6257179929,
    "longitude": -112.687663082,
    "accessName": "Salmon Fly",
    "riverName": "Big Hole River",
    "type": "Public",
    "otherName": "Town of Melrose-Big Hole River"
  },
  {
    "department": "Montana Fish, Wildlife and Parks",
    "state": "Montana",
    "county": "Madison County",
    "latitude": 45.84329369,
    "longitude": -112.061842847,
    "accessName": "Kountz Bridge",
    "riverName": "Jefferson River",
    "type": "Public",
    "otherName": "Mayflower Creek-Jefferson River"
  },
  {
    "department": "Montana Fish, Wildlife and Parks",
    "state": "Montana",
    "county": "Sanders County",
    "latitude": 47.6302457705,
    "longitude": -115.406463725,
    "accessName": "Flatiron Ridge",
    "riverName": "Noxon Rapids Reservoir",
    "type": "Public",
    "otherName": "Sqaylth-kwum Creek-Noxon Reservoir"
  },
  {
    "department": "Montana Fish, Wildlife and Parks",
    "state": "Montana",
    "county": "Lewis and Clark County",
    "latitude": 47.0742574085,
    "longitude": -111.962673185,
    "accessName": "Craig",
    "riverName": "Missouri River",
    "type": "Public",
    "otherName": "Dog Creek-Missouri River"
  },
  {
    "department": "Montana Fish, Wildlife and Parks",
    "state": "Montana",
    "county": "Lewis and Clark County",
    "latitude": 47.1165670107,
    "longitude": -111.945395041,
    "accessName": "Stickney Creek",
    "riverName": "Missouri River",
    "type": "Public",
    "otherName": "Dog Creek-Missouri River"
  },
  {
    "department": "Montana Fish, Wildlife and Parks",
    "state": "Montana",
    "county": "Cascade County",
    "latitude": 47.1710204379,
    "longitude": -111.826765562,
    "accessName": "Prewett Creek",
    "riverName": "Missouri River",
    "type": "Public",
    "otherName": "Prewett Creek-Missouri River"
  },
  {
    "department": "Montana Fish, Wildlife and Parks",
    "state": "Montana",
    "county": "Cascade County",
    "latitude": 47.201518344,
    "longitude": -111.778868211,
    "accessName": "Pelican Point",
    "riverName": "Missouri River",
    "type": "Public",
    "otherName": "Finigan Creek-Missouri River"
  },
  {
    "department": "Montana Fish, Wildlife and Parks",
    "state": "Montana",
    "county": "Valley County",
    "latitude": 48.0485804144,
    "longitude": -106.364597967,
    "accessName": "School Trust",
    "riverName": "Missouri River",
    "type": "Public",
    "otherName": "Fort Peck Dam-Missouri River"
  },
  {
    "department": "Montana Fish, Wildlife and Parks",
    "state": "Montana",
    "county": "Beaverhead County",
    "latitude": 45.1003162595,
    "longitude": -112.777359293,
    "accessName": "Grasshopper",
    "riverName": "Beaverhead River",
    "type": "Public",
    "otherName": "Gallagher Creek-Beaverhead River"
  },
  {
    "department": "Montana Fish, Wildlife and Parks",
    "state": "Montana",
    "county": "Valley County",
    "latitude": 48.0540074845,
    "longitude": -106.444214312,
    "accessName": "Fort Peck Dredge Cuts Pond",
    "riverName": "Fort Peck Dredge Cuts Pond",
    "type": "Public",
    "otherName": "Fort Peck Dam-Missouri River"
  },
  {
    "department": "Montana Fish, Wildlife and Parks",
    "state": "Montana",
    "county": "Missoula County",
    "latitude": 46.9319975532,
    "longitude": -114.210313908,
    "accessName": "Deep Creek",
    "riverName": "Clark Fork River",
    "type": "Public",
    "otherName": "Martin Gulch-Clark Fork"
  },
  {
    "department": "Montana Fish, Wildlife and Parks",
    "state": "Montana",
    "county": "Prairie County",
    "latitude": 46.8566147098,
    "longitude": -105.114710188,
    "accessName": "Fallon Bridge",
    "riverName": "Yellowstone River",
    "type": "Public",
    "otherName": "Town of Fallon-Yellowstone River"
  },
  {
    "department": "Montana Fish, Wildlife and Parks",
    "state": "Montana",
    "county": "Treasure County",
    "latitude": 46.2546118559,
    "longitude": -107.343123155,
    "accessName": "Myers Bridge",
    "riverName": "Yellowstone River",
    "type": "Public",
    "otherName": "Fortyfour Creek-Yellowstone River"
  },
  {
    "department": "Montana Fish, Wildlife and Parks",
    "state": "Montana",
    "county": "Flathead County",
    "latitude": 47.9941871628,
    "longitude": -114.062260416,
    "accessName": "Woods Bay",
    "riverName": "Flathead Lake",
    "type": "Public",
    "otherName": "Flathead Lake"
  },
  {
    "department": "Montana Fish, Wildlife and Parks",
    "state": "Montana",
    "county": "Deer Lodge County",
    "latitude": 45.8711754666,
    "longitude": -113.223004216,
    "accessName": "Fishtrap Creek",
    "riverName": "Big Hole River",
    "type": "Public",
    "otherName": "Toomey Creek-Big Hole River"
  },
  {
    "department": "Montana Fish, Wildlife and Parks",
    "state": "Montana",
    "county": "Madison County",
    "latitude": 45.2984948243,
    "longitude": -111.755200941,
    "accessName": "Eight Mile Ford",
    "riverName": "Madison River",
    "type": "Public",
    "otherName": "Lower O'Dell Creek-Madison River"
  },
  {
    "department": "Montana Fish, Wildlife and Parks",
    "state": "Montana",
    "county": "Mineral County",
    "latitude": 47.0767551894,
    "longitude": -114.761832309,
    "accessName": "Forest Grove",
    "riverName": "Clark Fork River",
    "type": "Public",
    "otherName": "Meadow Creek-Clark Fork"
  },
  {
    "department": "Montana Fish, Wildlife and Parks",
    "state": "Montana",
    "county": "Phillips County",
    "latitude": 48.5390414043,
    "longitude": -107.468299312,
    "accessName": "Cole Ponds",
    "riverName": "Cole Ponds",
    "type": "Public",
    "otherName": "Hewitt Lake-Milk River"
  },
  {
    "department": "Montana Fish, Wildlife and Parks",
    "state": "Montana",
    "county": "Richland County",
    "latitude": 48.0057527232,
    "longitude": -104.102792937,
    "accessName": "Snowden Bridge",
    "riverName": "Missouri River",
    "type": "Public",
    "otherName": "Garden Coulee-Missouri River"
  },
  {
    "department": "Montana Fish, Wildlife and Parks",
    "state": "Montana",
    "county": "Park County",
    "latitude": 45.2602990507,
    "longitude": -110.811791191,
    "accessName": "Dailey Lake",
    "riverName": "Dailey Lake",
    "type": "Public",
    "otherName": "Emigrant Creek-Yellowstone River"
  },
  {
    "department": "Montana Fish, Wildlife and Parks",
    "state": "Montana",
    "county": "Stillwater County",
    "latitude": 45.6658740345,
    "longitude": -109.353235331,
    "accessName": "Holmgren Ranch",
    "riverName": "Yellowstone River",
    "type": "Public",
    "otherName": "Quinn Coulee-Yellowstone River"
  },
  {
    "department": "Montana Fish, Wildlife and Parks",
    "state": "Montana",
    "county": "Big Horn County",
    "latitude": 45.8440970384,
    "longitude": -107.583150437,
    "accessName": "Grant Marsh",
    "riverName": "Bighorn River",
    "type": "Public",
    "otherName": "Chimney Creek-Bighorn River"
  },
  {
    "department": "Montana Fish, Wildlife and Parks",
    "state": "Montana",
    "county": "Missoula County",
    "latitude": 46.8813207337,
    "longitude": -113.934445025,
    "accessName": "Sha-Ron",
    "riverName": "Clark Fork River",
    "type": "Public",
    "otherName": "Marshall Creek-Clark Fork"
  },
  {
    "department": "Montana Fish, Wildlife and Parks",
    "state": "Montana",
    "county": "Missoula County",
    "latitude": 46.8219255264,
    "longitude": -113.807769392,
    "accessName": "Turah",
    "riverName": "Clark Fork River",
    "type": "Public",
    "otherName": "Donovan Creek-Clark Fork"
  },
  {
    "department": "Montana Fish, Wildlife and Parks",
    "state": "Montana",
    "county": "Missoula County",
    "latitude": 46.7516806789,
    "longitude": -113.719749981,
    "accessName": "Schwartz Creek",
    "riverName": "Clark Fork River",
    "type": "Public",
    "otherName": "Wallace Creek-Clark Creek"
  },
  {
    "department": "Montana Fish, Wildlife and Parks",
    "state": "Montana",
    "county": "Missoula County",
    "latitude": 46.7278615592,
    "longitude": -113.576593622,
    "accessName": "Beavertail Pond",
    "riverName": "Beavertail Pond",
    "type": "Public",
    "otherName": "Ryan Creek-Clark Fork"
  },
  {
    "department": "Montana Fish, Wildlife and Parks",
    "state": "Montana",
    "county": "Madison County",
    "latitude": 44.8995902109,
    "longitude": -111.592538367,
    "accessName": "Lyons Bridge",
    "riverName": "Madison River",
    "type": "Public",
    "otherName": "Papoose Creek-Madison River"
  },
  {
    "department": "Montana Fish, Wildlife and Parks",
    "state": "Montana",
    "county": "Madison County",
    "latitude": 45.853753088,
    "longitude": -111.951575253,
    "accessName": "Cardwell Bridge",
    "riverName": "Jefferson River",
    "type": "Public",
    "otherName": "Mayflower Creek-Jefferson River"
  },
  {
    "department": "Montana Fish, Wildlife and Parks",
    "state": "Montana",
    "county": "Madison County",
    "latitude": 45.7003230027,
    "longitude": -111.705159059,
    "accessName": "Harrison Lake",
    "riverName": "Willow Creek Reservoir",
    "type": "Public",
    "otherName": "Norwegian Creek"
  },
  {
    "department": "Montana Fish, Wildlife and Parks",
    "state": "Montana",
    "county": "Jefferson County",
    "latitude": 45.8040116814,
    "longitude": -111.751286083,
    "accessName": "Sappington Bridge",
    "riverName": "Jefferson River",
    "type": "Public",
    "otherName": "Sand Creek-Jefferson River"
  },
  {
    "department": "Montana Fish, Wildlife and Parks",
    "state": "Montana",
    "county": "Gallatin County",
    "latitude": 45.8019391704,
    "longitude": -111.696462115,
    "accessName": "Williams' Bridge",
    "riverName": "Jefferson River",
    "type": "Public",
    "otherName": "City of Three Forks-Jefferson River"
  },
  {
    "department": "Montana Fish, Wildlife and Parks",
    "state": "Montana",
    "county": "Gallatin County",
    "latitude": 45.897564886,
    "longitude": -111.594927088,
    "accessName": "Drouillard",
    "riverName": "Jefferson River",
    "type": "Public",
    "otherName": "City of Three Forks-Jefferson River"
  },
  {
    "department": "Montana Fish, Wildlife and Parks",
    "state": "Montana",
    "county": "Gallatin County",
    "latitude": 45.6460736599,
    "longitude": -111.523493911,
    "accessName": "Black's Ford",
    "riverName": "Madison River",
    "type": "Public",
    "otherName": "Cold Spring Creek-Madison River"
  },
  {
    "department": "Montana Fish, Wildlife and Parks",
    "state": "Montana",
    "county": "Lewis and Clark County",
    "latitude": 46.7110914882,
    "longitude": -111.810365499,
    "accessName": "York Bridge",
    "riverName": "Hauser Reservoir",
    "type": "Public",
    "otherName": "Missouri River-Hauser Lake"
  },
  {
    "department": "Montana Fish, Wildlife and Parks",
    "state": "Montana",
    "county": "Lewis and Clark County",
    "latitude": 46.6430140229,
    "longitude": -111.880174732,
    "accessName": "Helena Valley Reservoir",
    "riverName": "Helena Valley Reservoir",
    "type": "Public",
    "otherName": "Lake Helena"
  },
  {
    "department": "Montana Fish, Wildlife and Parks",
    "state": "Montana",
    "county": "Cascade County",
    "latitude": 47.1248757134,
    "longitude": -111.884734727,
    "accessName": "Mid Canon",
    "riverName": "Missouri River",
    "type": "Public",
    "otherName": "Prewett Creek-Missouri River"
  },
  {
    "department": "Montana Fish, Wildlife and Parks",
    "state": "Montana",
    "county": "Rosebud County",
    "latitude": 46.2746066002,
    "longitude": -106.678657005,
    "accessName": "Rosebud East",
    "riverName": "Yellowstone River",
    "type": "Public",
    "otherName": "Hammond Valley-Yellowstone River"
  },
  {
    "department": "Montana Fish, Wildlife and Parks",
    "state": "Montana",
    "county": "Park County",
    "latitude": 45.3976227936,
    "longitude": -110.703921303,
    "accessName": "Grey Owl",
    "riverName": "Yellowstone River",
    "type": "Public",
    "otherName": "Emigrant Creek-Yellowstone River"
  },
  {
    "department": "Montana Fish, Wildlife and Parks",
    "state": "Montana",
    "county": "Park County",
    "latitude": 45.4571058348,
    "longitude": -110.624810018,
    "accessName": "Loch Leven",
    "riverName": "Yellowstone River",
    "type": "Public",
    "otherName": "Strawberry Creek-Yellowstone River"
  },
  {
    "department": "Montana Fish, Wildlife and Parks",
    "state": "Montana",
    "county": "Park County",
    "latitude": 45.4831480776,
    "longitude": -110.620465947,
    "accessName": "Mallard's Rest",
    "riverName": "Yellowstone River",
    "type": "Public",
    "otherName": "Strawberry Creek-Yellowstone River"
  },
  {
    "department": "Montana Fish, Wildlife and Parks",
    "state": "Montana",
    "county": "Sweet Grass County",
    "latitude": 45.854313024,
    "longitude": -109.913956118,
    "accessName": "Otter Creek",
    "riverName": "Yellowstone River",
    "type": "Public",
    "otherName": "Whitetail Creek-Yellowstone River"
  },
  {
    "department": "Montana Fish, Wildlife and Parks",
    "state": "Montana",
    "county": "Stillwater County",
    "latitude": 45.7150792544,
    "longitude": -109.549496662,
    "accessName": "Indian Fort",
    "riverName": "Yellowstone River",
    "type": "Public",
    "otherName": "Hump Creek-Yellowstone River"
  },
  {
    "department": "Montana Fish, Wildlife and Parks",
    "state": "Montana",
    "county": "Stillwater County",
    "latitude": 45.5752381726,
    "longitude": -109.337034412,
    "accessName": "Whitebird",
    "riverName": "Stillwater River",
    "type": "Public",
    "otherName": "Norve Coulee-Stillwater River"
  },
  {
    "department": "Montana Fish, Wildlife and Parks",
    "state": "Montana",
    "county": "Yellowstone County",
    "latitude": 46.1110753592,
    "longitude": -108.883233584,
    "accessName": "Broadview Pond",
    "riverName": "Broadview Pond",
    "type": "Public",
    "otherName": "Sand Creek"
  },
  {
    "department": "Montana Fish, Wildlife and Parks",
    "state": "Montana",
    "county": "Yellowstone County",
    "latitude": 45.6120825637,
    "longitude": -108.8417401,
    "accessName": "Buffalo Mirage",
    "riverName": "Yellowstone River",
    "type": "Public",
    "otherName": "Indian Creek-Yellowstone River"
  },
  {
    "department": "Montana Fish, Wildlife and Parks",
    "state": "Montana",
    "county": "Yellowstone County",
    "latitude": 45.7968611393,
    "longitude": -108.468840442,
    "accessName": "East Bridge",
    "riverName": "Yellowstone River",
    "type": "Public",
    "otherName": "City of Billings-Yellowstone River"
  },
  {
    "department": "Montana Fish, Wildlife and Parks",
    "state": "Montana",
    "county": "Beaverhead County",
    "latitude": 45.0549387867,
    "longitude": -112.815014843,
    "accessName": "Henneberry",
    "riverName": "Beaverhead Reservoir",
    "type": "Public",
    "otherName": "Henneberry Creek-Beaverhead River"
  },
  {
    "department": "Montana Fish, Wildlife and Parks",
    "state": "Montana",
    "county": "Beaverhead County",
    "latitude": 45.06568524,
    "longitude": -112.800995532,
    "accessName": "Pipe Organ",
    "riverName": "Beaverhead River",
    "type": "Public",
    "otherName": "Henneberry Creek-Beaverhead River"
  },
  {
    "department": "Montana Fish, Wildlife and Parks",
    "state": "Montana",
    "county": "Ravalli County",
    "latitude": 46.4441251811,
    "longitude": -114.124769791,
    "accessName": "Bell Crossing",
    "riverName": "Bitterroot River",
    "type": "Public",
    "otherName": "Spooner Creek-Bitterroot River"
  },
  {
    "department": "Montana Fish, Wildlife and Parks",
    "state": "Montana",
    "county": "Ravalli County",
    "latitude": 46.3128310903,
    "longitude": -114.14534764,
    "accessName": "Woodside Bridge",
    "riverName": "Bitterroot River",
    "type": "Public",
    "otherName": "Bitterroot River-Woodside"
  },
  {
    "department": "Montana Fish, Wildlife and Parks",
    "state": "Montana",
    "county": "Ravalli County",
    "latitude": 46.0921239532,
    "longitude": -114.175055275,
    "accessName": "Wally Crawford",
    "riverName": "Bitterroot River",
    "type": "Public",
    "otherName": "Lick Creek-Bitterroot River"
  },
  {
    "department": "Montana Fish, Wildlife and Parks",
    "state": "Montana",
    "county": "Mineral County",
    "latitude": 47.2256324313,
    "longitude": -114.963978298,
    "accessName": "Dry Creek",
    "riverName": "Clark Fork River",
    "type": "Public",
    "otherName": "Slowey Gulch-Clark Fork"
  },
  {
    "department": "Montana Fish, Wildlife and Parks",
    "state": "Montana",
    "county": "Mineral County",
    "latitude": 47.0149730965,
    "longitude": -114.539750681,
    "accessName": "St. John's",
    "riverName": "Clark Fork River",
    "type": "Public",
    "otherName": "Sawmill Creek-Clark Fork"
  },
  {
    "department": "Montana Fish, Wildlife and Parks",
    "state": "Montana",
    "county": "Big Horn County",
    "latitude": 45.7557782018,
    "longitude": -107.566109286,
    "accessName": "Arapooish",
    "riverName": "Bighorn River",
    "type": "Public",
    "otherName": "City of Hardin-Bighorn River"
  },
  {
    "department": "Montana Fish, Wildlife and Parks",
    "state": "Montana",
    "county": "Big Horn County",
    "latitude": 45.5216675031,
    "longitude": -107.726197654,
    "accessName": "Mallard's Landing",
    "riverName": "Bighorn River",
    "type": "Public",
    "otherName": "Spring Creek-Bighorn River"
  },
  {
    "department": "Montana Fish, Wildlife and Parks",
    "state": "Montana",
    "county": "Valley County",
    "latitude": 47.9863049117,
    "longitude": -106.526964359,
    "accessName": "Duck Creek",
    "riverName": "Missouri River, Fort Peck Lake",
    "type": "Public",
    "otherName": "North Fork Duck Creek-Missouri River"
  },
  {
    "department": "Montana Fish, Wildlife and Parks",
    "state": "Montana",
    "county": "Rosebud County",
    "latitude": 46.2637787921,
    "longitude": -106.695096837,
    "accessName": "Rosebud West",
    "riverName": "Yellowstone River",
    "type": "Public",
    "otherName": "Hammond Valley-Yellowstone River"
  },
  {
    "department": "Montana Fish, Wildlife and Parks",
    "state": "Montana",
    "county": "Daniels County",
    "latitude": 48.8896424354,
    "longitude": -105.159490364,
    "accessName": "Whitetail Reservoir",
    "riverName": "Whitetail Reservoir",
    "type": "Public",
    "otherName": "Upper Whitehall Creek"
  },
  {
    "department": "Montana Fish, Wildlife and Parks",
    "state": "Montana",
    "county": "Custer County",
    "latitude": 46.5330177744,
    "longitude": -105.71301589,
    "accessName": "Kinsey Bridge",
    "riverName": "Yellowstone River",
    "type": "Public",
    "otherName": "Tree Creek-Yellowstone River"
  },
  {
    "department": "Montana Fish, Wildlife and Parks",
    "state": "Montana",
    "county": "Custer County",
    "latitude": 46.6321167746,
    "longitude": -105.566691504,
    "accessName": "Bonfield",
    "riverName": "Yellowstone River",
    "type": "Public",
    "otherName": "Miles Creek-Yellowstone River"
  },
  {
    "department": "Montana Fish, Wildlife and Parks",
    "state": "Montana",
    "county": "Custer County",
    "latitude": 46.4211846026,
    "longitude": -105.85646915,
    "accessName": "Roche Jaune",
    "riverName": "Yellowstone River",
    "type": "Public",
    "otherName": "Kircher Creek-Yellowstone River"
  },
  {
    "department": "Montana Fish, Wildlife and Parks",
    "state": "Montana",
    "county": "Mineral County",
    "latitude": 47.3017845476,
    "longitude": -115.08788021,
    "accessName": "St. Regis",
    "riverName": "Clark Fork River",
    "type": "Public",
    "otherName": "Cold Creek-Clark Fork"
  },
  {
    "department": "Montana Fish, Wildlife and Parks",
    "state": "Montana",
    "county": "Mineral County",
    "latitude": 47.1927039489,
    "longitude": -114.880455762,
    "accessName": "Big Eddy",
    "riverName": "Clark Fork River",
    "type": "Public",
    "otherName": "Johnson Creek-Clark Fork"
  },
  {
    "department": "Montana Fish, Wildlife and Parks",
    "state": "Montana",
    "county": "Mineral County",
    "latitude": 47.0146257019,
    "longitude": -114.739434493,
    "accessName": "Tarkio",
    "riverName": "Clark Fork River",
    "type": "Public",
    "otherName": "Rock Creek-Clark Fork"
  },
  {
    "department": "Montana Fish, Wildlife and Parks",
    "state": "Montana",
    "county": "Rosebud County",
    "latitude": 46.2800108839,
    "longitude": -106.485113883,
    "accessName": "Far West",
    "riverName": "Yellowstone River",
    "type": "Public",
    "otherName": "Butte Creek-Yellowstone River"
  },
  {
    "department": "Montana Fish, Wildlife and Parks",
    "state": "Montana",
    "county": "Gallatin County",
    "latitude": 45.899733851,
    "longitude": -111.52416237,
    "accessName": "Milwaukee",
    "riverName": "Madison River",
    "type": "Public",
    "otherName": "City of Three Forks-Madison River"
  },
  {
    "department": "Montana Fish, Wildlife and Parks",
    "state": "Montana",
    "county": "Teton County",
    "latitude": 47.9956546954,
    "longitude": -112.029167859,
    "accessName": "Arod Lake",
    "riverName": "Lower Eyraud Lake",
    "type": "Public",
    "otherName": "Eyraud Lakes-Muddy Creek"
  },
  {
    "department": "Montana Fish, Wildlife and Parks",
    "state": "Montana",
    "county": "Cascade County",
    "latitude": 47.4302816109,
    "longitude": -111.501594789,
    "accessName": "Ulm Bridge",
    "riverName": "Missouri River",
    "type": "Public",
    "otherName": "Nelson Island-Missouri River"
  },
  {
    "department": "Montana Fish, Wildlife and Parks",
    "state": "Montana",
    "county": "Silver Bow County",
    "latitude": 45.760035463,
    "longitude": -112.801533534,
    "accessName": "Powerhouse",
    "riverName": "Big Hole RIver",
    "type": "Public",
    "otherName": "Charcoal Creek-Big Hole River"
  },
  {
    "department": "Montana Fish, Wildlife and Parks",
    "state": "Montana",
    "county": "Chouteau County",
    "latitude": 47.7607245157,
    "longitude": -110.897263948,
    "accessName": "Carter Ferry",
    "riverName": "Missouri River",
    "type": "Public",
    "otherName": "Bullhead Coulee-Missouri River"
  },
  {
    "department": "Montana Fish, Wildlife and Parks",
    "state": "Montana",
    "county": "Teton County",
    "latitude": 47.6943133604,
    "longitude": -112.477250084,
    "accessName": "Pishkun Reservoir",
    "riverName": "Pishkun Reservoir",
    "type": "Public",
    "otherName": "Pishkun Reservoir-Sun River"
  },
  {
    "department": "Montana Fish, Wildlife and Parks",
    "state": "Montana",
    "county": "Dawson County",
    "latitude": 47.2815213664,
    "longitude": -104.526561788,
    "accessName": "Intake Dam",
    "riverName": "Yellowstone River",
    "type": "Public",
    "otherName": "War Dance Creek-Yellowstone River"
  },
  {
    "department": "Montana Fish, Wildlife and Parks",
    "state": "Montana",
    "county": "Lewis and Clark County",
    "latitude": 47.1206249154,
    "longitude": -111.934610576,
    "accessName": "Spite Hill",
    "riverName": "Missouri River",
    "type": "Public",
    "otherName": "Dog Creek-Missouri River"
  },
  {
    "department": "Montana Fish, Wildlife and Parks",
    "state": "Montana",
    "county": "Missoula County",
    "latitude": 46.8619169789,
    "longitude": -114.101296942,
    "accessName": "Kelly Island",
    "riverName": "Clark Fork River",
    "type": "Public",
    "otherName": "Marshall Creek-Clark Fork"
  },
  {
    "department": "Montana Fish, Wildlife and Parks",
    "state": "Montana",
    "county": "Wheatland County",
    "latitude": 46.4670702307,
    "longitude": -110.228780697,
    "accessName": "Selkirk",
    "riverName": "Musselshell River",
    "type": "Public",
    "otherName": "Town of Martinsdale Colony-Musselshell River"
  },
  {
    "department": "Montana Fish, Wildlife and Parks",
    "state": "Montana",
    "county": "Fallon County",
    "latitude": 46.3349375036,
    "longitude": -104.471322448,
    "accessName": "South Sandstone",
    "riverName": "South Sandstone River",
    "type": "Public",
    "otherName": "South Fork Sandstone Creek"
  },
  {
    "department": "Montana Fish, Wildlife and Parks",
    "state": "Montana",
    "county": "Sweet Grass County",
    "latitude": 45.7869676567,
    "longitude": -110.067662217,
    "accessName": "Grey Bear",
    "riverName": "Yellowstone River",
    "type": "Public",
    "otherName": "Antelope Creek-Yellowstone River"
  },
  {
    "department": "Montana Fish, Wildlife and Parks",
    "state": "Montana",
    "county": "Sweet Grass County",
    "latitude": 45.7583393361,
    "longitude": -109.770355306,
    "accessName": "Pelican",
    "riverName": "Yellowstone River",
    "type": "Public",
    "otherName": "Hangman's Creek-Yellowstone River"
  },
  {
    "department": "Montana Fish, Wildlife and Parks",
    "state": "Montana",
    "county": "Gallatin County",
    "latitude": 45.7044819862,
    "longitude": -111.516177106,
    "accessName": "Greycliff",
    "riverName": "Madison River",
    "type": "Public",
    "otherName": "Willow Springs-Madison River"
  },
  {
    "department": "Montana Fish, Wildlife and Parks",
    "state": "Montana",
    "county": "Sweet Grass County",
    "latitude": 45.7181243746,
    "longitude": -109.631951427,
    "accessName": "Bratten",
    "riverName": "Yellowstone River",
    "type": "Public",
    "otherName": "Hump Creek-Yellowstone River"
  },
  {
    "department": "Montana Fish, Wildlife and Parks",
    "state": "Montana",
    "county": "Beaverhead County",
    "latitude": 45.6516632032,
    "longitude": -112.702773427,
    "accessName": "Maidenrock",
    "riverName": "Big Hole River",
    "type": "Public",
    "otherName": "Town of Melrose-Big Hole River"
  },
  {
    "department": "Montana Fish, Wildlife and Parks",
    "state": "Montana",
    "county": "Big Horn County",
    "latitude": 45.4164495147,
    "longitude": -107.789584325,
    "accessName": "Bighorn",
    "riverName": "Bighorn River",
    "type": "Public",
    "otherName": "Soap Creek Ditch-Bighorn River"
  },
  {
    "department": "Montana Fish, Wildlife and Parks",
    "state": "Montana",
    "county": "Wheatland County",
    "latitude": 46.3301435915,
    "longitude": -109.433000069,
    "accessName": "Deadman's Basin",
    "riverName": "Deadman's Basin Reservoir",
    "type": "Public",
    "otherName": "Deadmans Basin Reservoir-Musselshell River"
  },
  {
    "department": "Montana Fish, Wildlife and Parks",
    "state": "Montana",
    "county": "Park County",
    "latitude": 45.7174414739,
    "longitude": -110.466747274,
    "accessName": "Highway 89 Bridge",
    "riverName": "Yellowstone River",
    "type": "Public",
    "otherName": "Ferry Creek-Yellowstone River"
  },
  {
    "department": "Montana Fish, Wildlife and Parks",
    "state": "Montana",
    "county": "Teton County",
    "latitude": 47.8779159597,
    "longitude": -112.313944503,
    "accessName": "Eureka Reservoir",
    "riverName": "Eureka Reservoir",
    "type": "Public",
    "otherName": "Hod Main Coulee-Teton River"
  },
  {
    "department": "Montana Fish, Wildlife and Parks",
    "state": "Montana",
    "county": "Teton County",
    "latitude": 47.9604558322,
    "longitude": -112.406073239,
    "accessName": "Bynum Reservoir",
    "riverName": "Bynum Reservoir",
    "type": "Public",
    "otherName": "Blacktail Creek"
  },
  {
    "department": "Montana Fish, Wildlife and Parks",
    "state": "Montana",
    "county": "Chouteau County",
    "latitude": 47.9318989798,
    "longitude": -110.506677336,
    "accessName": "Loma Bridge",
    "riverName": "Marias River",
    "type": "Public",
    "otherName": "Town of Loma-Marias River"
  },
  {
    "department": "Montana Fish, Wildlife and Parks",
    "state": "Montana",
    "county": "Fergus County",
    "latitude": 47.1544076314,
    "longitude": -109.427225346,
    "accessName": "Upper Carter Pond",
    "riverName": "Upper Carter Pond",
    "type": "Public",
    "otherName": "Burnette Creek"
  },
  {
    "department": "Montana Fish, Wildlife and Parks",
    "state": "Montana",
    "county": "Wheatland County",
    "latitude": 46.4497937764,
    "longitude": -110.278007059,
    "accessName": "Martinsdale Reservoir",
    "riverName": "Martinsdale Reservoir",
    "type": "Public",
    "otherName": "Martinsdale Reservoir"
  },
  {
    "department": "Montana Fish, Wildlife and Parks",
    "state": "Montana",
    "county": "Park County",
    "latitude": 45.5973214659,
    "longitude": -110.56619772,
    "accessName": "Carter's Bridge",
    "riverName": "Yellowstone River",
    "type": "Public",
    "otherName": "Suce Creek-Yellowstone River"
  },
  {
    "department": "Montana Fish, Wildlife and Parks",
    "state": "Montana",
    "county": "Park County",
    "latitude": 45.5116061001,
    "longitude": -110.582855666,
    "accessName": "Pine Creek",
    "riverName": "Yellowstone River",
    "type": "Public",
    "otherName": "Suce Creek-Yellowstone River"
  },
  {
    "department": "Montana Fish, Wildlife and Parks",
    "state": "Montana",
    "county": "Park County",
    "latitude": 45.7301001762,
    "longitude": -110.407235319,
    "accessName": "Sheep Mountain",
    "riverName": "Yellowstone River",
    "type": "Public",
    "otherName": "Locke Creek-Yellowstone River"
  },
  {
    "department": "Montana Fish, Wildlife and Parks",
    "state": "Montana",
    "county": "Park County",
    "latitude": 45.7436551319,
    "longitude": -110.232043212,
    "accessName": "Springdale Bridge",
    "riverName": "Yellowstone River",
    "type": "Public",
    "otherName": "Oxbow Creek-Yellowstone River"
  },
  {
    "department": "Montana Fish, Wildlife and Parks",
    "state": "Montana",
    "county": "Park County",
    "latitude": 45.2535219609,
    "longitude": -110.871088544,
    "accessName": "Point of Rocks",
    "riverName": "Yellowstone River",
    "type": "Public",
    "otherName": "Donahue Creek-Yellowstone River"
  },
  {
    "department": "Montana Fish, Wildlife and Parks",
    "state": "Montana",
    "county": "Park County",
    "latitude": 45.1009229505,
    "longitude": -110.7818113,
    "accessName": "Brogan's Landing",
    "riverName": "Yellowstone River",
    "type": "Public",
    "otherName": "Bassett Creek-Yellowstone River"
  },
  {
    "department": "Montana Fish, Wildlife and Parks",
    "state": "Montana",
    "county": "Park County",
    "latitude": 45.3667575522,
    "longitude": -110.725383003,
    "accessName": "Emigrant",
    "riverName": "Yellowstone River",
    "type": "Public",
    "otherName": "Emigrant Creek-Yellowstone River"
  },
  {
    "department": "Montana Fish, Wildlife and Parks",
    "state": "Montana",
    "county": "Missoula County",
    "latitude": 46.8798799639,
    "longitude": -113.852592895,
    "accessName": "Weigh Station",
    "riverName": "Blackfoot River",
    "type": "Public",
    "otherName": "Johnson Gulch-Blackfoot River"
  },
  {
    "department": "Montana Fish, Wildlife and Parks",
    "state": "Montana",
    "county": "Chouteau County",
    "latitude": 47.6283292177,
    "longitude": -111.032050728,
    "accessName": "Widow Coulee",
    "riverName": "Missouri River",
    "type": "Public",
    "otherName": "Rainbow Dam-Missouri River"
  },
  {
    "department": "Montana Fish, Wildlife and Parks",
    "state": "Montana",
    "county": "Flathead County",
    "latitude": 48.1302617871,
    "longitude": -114.038473507,
    "accessName": "Echo Lake",
    "riverName": "Echo Lake",
    "type": "Public",
    "otherName": "Rose Creek-Frontal Flathead River"
  },
  {
    "department": "Montana Fish, Wildlife and Parks",
    "state": "Montana",
    "county": "Lake County",
    "latitude": 47.8116523853,
    "longitude": -114.265499445,
    "accessName": "Walstad",
    "riverName": "Flathead Lake",
    "type": "Public",
    "otherName": "Wymore Lake-Frontal Flathead Lake"
  },
  {
    "department": "Montana Fish, Wildlife and Parks",
    "state": "Montana",
    "county": "Missoula County",
    "latitude": 46.9314605717,
    "longitude": -114.207856962,
    "accessName": "Harper's Bridge",
    "riverName": "Clark Fork River",
    "type": "Public",
    "otherName": "Martin Gulch-Clark Fork"
  },
  {
    "department": "Montana Fish, Wildlife and Parks",
    "state": "Montana",
    "county": "Dawson County",
    "latitude": 47.0983079668,
    "longitude": -104.731571247,
    "accessName": "Black Bridge",
    "riverName": "Yellowstone River",
    "type": "Public",
    "otherName": "Crisafulli Creek-Yellowstone River"
  },
  {
    "department": "Montana Fish, Wildlife and Parks",
    "state": "Montana",
    "county": "Madison County",
    "latitude": 45.686540937,
    "longitude": -112.284471222,
    "accessName": "Silver Star",
    "riverName": "Jefferson River",
    "type": "Public",
    "otherName": "Cherry Creek-Jefferson River"
  },
  {
    "department": "Montana Fish, Wildlife and Parks",
    "state": "Montana",
    "county": "Cascade County",
    "latitude": 47.1619121504,
    "longitude": -111.823009795,
    "accessName": "Mountain Palace",
    "riverName": "Missouri River",
    "type": "Public",
    "otherName": "Prewett Creek-Missouri River"
  },
  {
    "department": "Montana Fish, Wildlife and Parks",
    "state": "Montana",
    "county": "Roosevelt County",
    "latitude": 48.0666291122,
    "longitude": -105.537342212,
    "accessName": "Lewis and Clark",
    "riverName": "Missouri River",
    "type": "Public",
    "otherName": "Schwartz Creek-Missouri River"
  },
  {
    "department": "Montana Fish, Wildlife and Parks",
    "state": "Montana",
    "county": "Broadwater County",
    "latitude": 46.1718574553,
    "longitude": -111.444982956,
    "accessName": "Toston",
    "riverName": "Missouri River",
    "type": "Public",
    "otherName": "City of Toston-Missouri River"
  },
  {
    "department": "Montana Fish, Wildlife and Parks",
    "state": "Montana",
    "county": "Missoula County",
    "latitude": 47.0223386178,
    "longitude": -113.381878618,
    "accessName": "Harpers Lake",
    "riverName": "Harpers Lake",
    "type": "Public",
    "otherName": "Blackfoot River-Lost Praire Creek"
  },
  {
    "department": "Montana Fish, Wildlife and Parks",
    "state": "Montana",
    "county": "Gallatin County",
    "latitude": 46.0341773495,
    "longitude": -111.422179977,
    "accessName": "Fairweather",
    "riverName": "Missouri River",
    "type": "Public",
    "otherName": "Town of Clarkston-Missouri River"
  },
  {
    "department": "Montana Fish, Wildlife and Parks",
    "state": "Montana",
    "county": "Big Horn County",
    "latitude": 45.6445459577,
    "longitude": -107.658351514,
    "accessName": "Two Leggins",
    "riverName": "Bighorn River",
    "type": "Public",
    "otherName": "Crow Road Coulee-Bighorn River"
  },
  {
    "department": "Montana Fish, Wildlife and Parks",
    "state": "Montana",
    "county": "Lincoln County",
    "latitude": 48.9478947303,
    "longitude": -115.108237372,
    "accessName": "Tetrault Lake",
    "riverName": "Tetrault Lake",
    "type": "Public",
    "otherName": "Phillips Creek"
  },
  {
    "department": "Montana Fish, Wildlife and Parks",
    "state": "Montana",
    "county": "Park County",
    "latitude": 45.6659027802,
    "longitude": -110.539334935,
    "accessName": "Mayor's Landing",
    "riverName": "Yellowstone River",
    "type": "Public",
    "otherName": "Ferry Creek-Yellowstone River"
  },
  {
    "department": "Montana Fish, Wildlife and Parks",
    "state": "Montana",
    "county": "Garfield County",
    "latitude": 47.7635718516,
    "longitude": -106.28699044,
    "accessName": "Rock Creek",
    "riverName": "Missouri River, Fort Peck Lake",
    "type": "Public",
    "otherName": "Rock Creek-Dry Arm"
  },
  {
    "department": "Montana Fish, Wildlife and Parks",
    "state": "Montana",
    "county": "Deer Lodge County",
    "latitude": 46.1770125699,
    "longitude": -113.272433256,
    "accessName": "Stuart Mill Bay",
    "riverName": "Georgetown Lake",
    "type": "Public",
    "otherName": "Georgetown Lake"
  },
  {
    "department": "Montana Fish, Wildlife and Parks",
    "state": "Montana",
    "county": "Yellowstone County",
    "latitude": 46.0753411137,
    "longitude": -107.721936934,
    "accessName": "Captain Clark",
    "riverName": "Yellowstone River",
    "type": "Public",
    "otherName": "Sand Creek-Yellowstone River"
  },
  {
    "department": "Montana Fish, Wildlife and Parks",
    "state": "Montana",
    "county": "Big Horn County",
    "latitude": 45.9272844986,
    "longitude": -107.574804735,
    "accessName": "General Custer",
    "riverName": "Bighorn River",
    "type": "Public",
    "otherName": "Cotters Coulee-Bighole River"
  },
  {
    "department": "Montana Fish, Wildlife and Parks",
    "state": "Montana",
    "county": "Madison County",
    "latitude": 45.624047297,
    "longitude": -111.54795608,
    "accessName": "Damselfly",
    "riverName": "Madison RIver",
    "type": "Public",
    "otherName": "Cold Spring Creek-Madison River"
  },
  {
    "department": "Montana Fish, Wildlife and Parks",
    "state": "Montana",
    "county": "Flathead County",
    "latitude": 48.4616499089,
    "longitude": -114.024624096,
    "accessName": "Paul's Memorial",
    "riverName": "Lake Five",
    "type": "Public",
    "otherName": "Abbot Creek-Flathead River"
  },
  {
    "department": "U.S. Geological Survey",
    "state": "Montana",
    "county": "Lake County",
    "latitude": 47.9991998438,
    "longitude": -114.059876925,
    "accessName": "Hidden Harbor Marina",
    "riverName": "Flathead Lake",
    "type": "Semi-Private",
    "otherName": "Town of Woods Bay-Frontal Flathead Lake"
  },
  {
    "department": "U.S. Geological Survey",
    "state": "Montana",
    "county": "Lake County",
    "latitude": 47.6936720251,
    "longitude": -114.166202123,
    "accessName": "Riverside Park",
    "riverName": "Flathead Lake",
    "type": "Public",
    "otherName": "Town of Polson-Frontal Flathead Lake"
  },
  {
    "department": "Montana Fish, Wildlife and Parks",
    "state": "Montana",
    "county": "Toole County",
    "latitude": 48.331351499,
    "longitude": -111.31228268,
    "accessName": "South Bootlegger",
    "riverName": "Marias River, Lake Elwell (Tiber Reservoir)",
    "type": "Public",
    "otherName": "Marias River-Tiber Reservoir"
  },
  {
    "department": "Montana Fish, Wildlife and Parks",
    "state": "Montana",
    "county": "Toole County",
    "latitude": 48.3586629206,
    "longitude": -111.325999307,
    "accessName": "North Bootlegger",
    "riverName": "Marias River, Lake Elwell (Tiber Reservoir)",
    "type": "Public",
    "otherName": "Marias River-Tiber Reservoir"
  },
  {
    "department": "Montana Fish, Wildlife and Parks",
    "state": "Montana",
    "county": "Broadwater County",
    "latitude": 46.4131637817,
    "longitude": -111.573414827,
    "accessName": "Silos",
    "riverName": "Missouri River, Canyon Ferry Reservoir",
    "type": "Public",
    "otherName": "Kelly Springs Gulch-Canyon Ferry Lake"
  },
  {
    "department": "Montana Fish, Wildlife and Parks",
    "state": "Montana",
    "county": "Lewis and Clark County",
    "latitude": 46.6166065688,
    "longitude": -111.649420647,
    "accessName": "Hellgate Campground",
    "riverName": "Missouri River, Canyon Ferry Reservoir",
    "type": "Public",
    "otherName": "Hellgate Gulch"
  },
  {
    "department": "Montana Fish, Wildlife and Parks",
    "state": "Montana",
    "county": "Broadwater County",
    "latitude": 46.3562544366,
    "longitude": -111.534337747,
    "accessName": "Cottonwood Campground",
    "riverName": "Missouri River, Canyon Ferry Reservoir",
    "type": "Public",
    "otherName": "Whitehorse Creek-Canyon Ferry Lake"
  },
  {
    "department": "Montana Fish, Wildlife and Parks",
    "state": "Montana",
    "county": "Lewis and Clark County",
    "latitude": 46.6497174201,
    "longitude": -111.717805865,
    "accessName": "Shannon",
    "riverName": "Missouri River, Canyon Ferry Reservoir",
    "type": "Public",
    "otherName": "Cave Bay-Canyon Ferry Lake"
  },
  {
    "department": "Montana Fish, Wildlife and Parks",
    "state": "Montana",
    "county": "Lewis and Clark County",
    "latitude": 46.6519575286,
    "longitude": -111.701469379,
    "accessName": "Kim's Marina",
    "riverName": "Missouri River, Canyon Ferry Reservoir",
    "type": "Public",
    "otherName": "Cave Bay-Canyon Ferry Lake"
  },
  {
    "department": "Montana Fish, Wildlife and Parks",
    "state": "Montana",
    "county": "Broadwater County",
    "latitude": 46.4884504991,
    "longitude": -111.527248323,
    "accessName": "Confederate",
    "riverName": "Missouri River, Canyon Ferry Reservoir",
    "type": "Public",
    "otherName": "Cottonwood Gulch"
  },
  {
    "department": "Montana Fish, Wildlife and Parks",
    "state": "Montana",
    "county": "Broadwater County",
    "latitude": 46.5218164491,
    "longitude": -111.587646987,
    "accessName": "White Earth Campground",
    "riverName": "Missouri River, Canyon Ferry Reservoir",
    "type": "Public",
    "otherName": "Goose Bay-Canyon Ferry Lake"
  },
  {
    "department": "Montana Fish, Wildlife and Parks",
    "state": "Montana",
    "county": "Lewis and Clark County",
    "latitude": 46.6359582428,
    "longitude": -111.721448057,
    "accessName": "Yacht Basin Marina",
    "riverName": "Missouri River, Canyon Ferry Reservoir",
    "type": "Public",
    "otherName": "Cave Bay-Canyon Ferry Lake"
  },
  {
    "department": "Montana Fish, Wildlife and Parks",
    "state": "Montana",
    "county": "Lewis and Clark County",
    "latitude": 46.627707186,
    "longitude": -111.665325032,
    "accessName": "Magpie Creek",
    "riverName": "Missouri River, Canyon Ferry Reservoir",
    "type": "Public",
    "otherName": "Cave Bay-Canyon Ferry Lake"
  },
  {
    "department": "Montana Fish, Wildlife and Parks",
    "state": "Montana",
    "county": "Broadwater County",
    "latitude": 46.3738587605,
    "longitude": -111.556179642,
    "accessName": "Pond 4",
    "riverName": "Missouri River, Canyon Ferry Reservoir",
    "type": "Public",
    "otherName": "Whitehorse Creek-Canyon Ferry Lake"
  },
  {
    "department": "Montana Fish, Wildlife and Parks",
    "state": "Montana",
    "county": "Broadwater County",
    "latitude": 46.539770663,
    "longitude": -111.564125085,
    "accessName": "Goose Bay",
    "riverName": "Missouri River, Canyon Ferry Reservoir",
    "type": "Public",
    "otherName": "Goose Bay-Canyon Ferry Lake"
  },
  {
    "department": "Montana Fish, Wildlife and Parks",
    "state": "Montana",
    "county": "Lewis and Clark County",
    "latitude": 46.6505851596,
    "longitude": -111.709753558,
    "accessName": "China Cove",
    "riverName": "Missouri River, Canyon Ferry Reservoir",
    "type": "Public",
    "otherName": "Cave Bay-Canyon Ferry Lake"
  },
  {
    "department": "Montana Fish, Wildlife and Parks",
    "state": "Montana",
    "county": "Liberty County",
    "latitude": 48.3208530871,
    "longitude": -111.109929292,
    "accessName": "VFW Campground",
    "riverName": "Marias River, Lake Elwell (Tiber Reservoir)",
    "type": "Public",
    "otherName": "Tiber Reservoir"
  },
  {
    "department": "Montana Fish, Wildlife and Parks",
    "state": "Montana",
    "county": "Lewis and Clark County",
    "latitude": 46.6435514096,
    "longitude": -111.684928743,
    "accessName": "Jo Bonner",
    "riverName": "Missouri River, Canyon Ferry Reservoir",
    "type": "Public",
    "otherName": "Magpie Creek"
  },
  {
    "department": "Montana Fish, Wildlife and Parks",
    "state": "Montana",
    "county": "Broadwater County",
    "latitude": 46.4815019593,
    "longitude": -111.518319404,
    "accessName": "Confederate Campground",
    "riverName": "Missouri River, Canyon Ferry Reservoir",
    "type": "Public",
    "otherName": "Cottonwood Gulch"
  },
  {
    "department": "Montana Fish, Wildlife and Parks",
    "state": "Montana",
    "county": "Liberty County",
    "latitude": 48.329888153,
    "longitude": -111.128847656,
    "accessName": "Tiber Marina",
    "riverName": "Marias River, Lake Elwell (Tiber Reservoir)",
    "type": "Public",
    "otherName": "Tiber Reservoir"
  },
  {
    "department": "Montana Fish, Wildlife and Parks",
    "state": "Montana",
    "county": "Liberty County",
    "latitude": 48.398628814,
    "longitude": -111.228049032,
    "accessName": "Willow Creek",
    "riverName": "Marias River, Lake Elwell (Tiber Reservoir)",
    "type": "Public",
    "otherName": "Willow Creek-Tiber Reservoir"
  },
  {
    "department": "U.S. Geological Survey",
    "state": "Montana",
    "county": "Glacier County",
    "latitude": 48.828452,
    "longitude": -113.421254,
    "accessName": "Chewing Black Bones",
    "riverName": "Lower Saint Mary Lake",
    "type": "Public",
    "otherName": "Lower Saint Mary Lakes"
  },
  {
    "department": "U.S. Geological Survey",
    "state": "Montana",
    "county": "Hill County",
    "latitude": 48.59698,
    "longitude": -109.952201,
    "accessName": "Fresno Beach",
    "riverName": "Milk River - Fresno Reservoir",
    "type": "Public",
    "otherName": "Lower Fresno Reservoir-Milk River"
  },
  {
    "department": "U.S. Geological Survey",
    "state": "Montana",
    "county": "Glacier County",
    "latitude": 48.483749,
    "longitude": -113.369733,
    "accessName": "Two Medicine Lake",
    "riverName": "Two Medicine Lake",
    "type": "Public",
    "otherName": "Two Medicine Lake-Two Medicine River"
  },
  {
    "department": "U.S. Geological Survey",
    "state": "Montana",
    "county": "Glacier County",
    "latitude": 48.95813,
    "longitude": -113.891483,
    "accessName": "Waterton Lake",
    "riverName": "Waterton Lake",
    "type": "Public",
    "otherName": "Waterton Lake-Waterton River"
  },
  {
    "department": "U.S. Geological Survey",
    "state": "Montana",
    "county": "Lake County",
    "latitude": 47.696691,
    "longitude": -114.158948,
    "accessName": "Point Salish Park",
    "riverName": "Flathead Lake",
    "type": "Public",
    "otherName": "Flathead Lake"
  },
  {
    "department": "U.S. Geological Survey",
    "state": "Montana",
    "county": "Lake County",
    "latitude": 47.692459,
    "longitude": -114.167692,
    "accessName": "4th Avenue W",
    "riverName": "Flathead Lake",
    "type": "Public",
    "otherName": "Town of Polson-Frontal Flathead Lake"
  },
  {
    "department": "U.S. Geological Survey",
    "state": "Montana",
    "county": "Lake County",
    "latitude": 47.693861,
    "longitude": -114.142017,
    "accessName": "Polson Bay Marina",
    "riverName": "Flathead Lake",
    "type": "Public",
    "otherName": "Town of Polson-Frontal Flathead Lake"
  },
  {
    "department": "U.S. Geological Survey",
    "state": "Montana",
    "county": "Lake County",
    "latitude": 47.696153,
    "longitude": -114.135431,
    "accessName": "Country Club",
    "riverName": "Flathead Lake",
    "type": "Public",
    "otherName": "Town of Polson-Frontal Flathead Lake"
  },
  {
    "department": "U.S. Geological Survey",
    "state": "Montana",
    "county": "Lake County",
    "latitude": 47.863438,
    "longitude": -114.275786,
    "accessName": "Go Sail",
    "riverName": "Flathead Lake",
    "type": "Public",
    "otherName": "Big Lodge Creek-Frontal Flathead Lake"
  },
  {
    "department": "U.S. Geological Survey",
    "state": "Montana",
    "county": "Flathead County",
    "latitude": 48.023827,
    "longitude": -114.22894,
    "accessName": "Lakeside-Bierney Creek Road",
    "riverName": "Flathead Lake",
    "type": "Public",
    "otherName": "Town of Somers-Flathead Lake"
  },
  {
    "department": "U.S. Geological Survey",
    "state": "Montana",
    "county": "Flathead County",
    "latitude": 48.074721,
    "longitude": -114.22756,
    "accessName": "Somers Yacht Club",
    "riverName": "Flathead Lake",
    "type": "Public",
    "otherName": "Town of Somers-Flathead Lake"
  },
  {
    "department": "U.S. Geological Survey",
    "state": "Montana",
    "county": "Flathead County",
    "latitude": 48.068425,
    "longitude": -114.114556,
    "accessName": "Eagle Bend Yacht Harbour",
    "riverName": "Flathead Lake",
    "type": "Public",
    "otherName": "Rose Creek-Frontal Flathead River"
  },
  {
    "department": "U.S. Geological Survey",
    "state": "Montana",
    "county": "Lincoln County",
    "latitude": 48.895302,
    "longitude": -115.18544,
    "accessName": "Abayance Bay Marina-Rexford",
    "riverName": "Kootenai River - Lake Koocanusa",
    "type": "Public",
    "otherName": "Poverty Creek-Lake Koocanusa"
  },
  {
    "department": "U.S. Geological Survey",
    "state": "Montana",
    "county": "Flathead County",
    "latitude": 48.528546,
    "longitude": -113.991574,
    "accessName": "Apgar",
    "riverName": "Lake McDonald",
    "type": "Public",
    "otherName": "Lake McDonald"
  },
  {
    "department": "U.S. Geological Survey",
    "state": "Montana",
    "county": "Flathead County",
    "latitude": 48.139456,
    "longitude": -114.713783,
    "accessName": "Bitterroot Lions Youth Camp",
    "riverName": "Little Bitterroot Lake",
    "type": "Public",
    "otherName": "Little Bitterroot Lake"
  },
  {
    "department": "U.S. Geological Survey",
    "state": "Montana",
    "county": "Gallatin County",
    "latitude": 44.803027,
    "longitude": -111.216939,
    "accessName": "Yellowstone",
    "riverName": "Madison River - Hebgen Lake",
    "type": "Public",
    "otherName": "Duck Creek-Hebgen Lake"
  },
  {
    "department": "U.S. Geological Survey",
    "state": "Montana",
    "county": "Gallatin County",
    "latitude": 44.84199,
    "longitude": -111.30251,
    "accessName": "Kirkwood Marina",
    "riverName": "Madison River - Hebgen Lake",
    "type": "Public",
    "otherName": "Hebgen Lake"
  },
  {
    "department": "U.S. Geological Survey",
    "state": "Montana",
    "county": "Gallatin County",
    "latitude": 44.735671,
    "longitude": -111.185704,
    "accessName": "Madison Arm Resort",
    "riverName": "Madison River - Hebgen Lake",
    "type": "Public",
    "otherName": "Madison Arm-Madison River"
  },
  {
    "department": "U.S. Geological Survey",
    "state": "Montana",
    "county": "Valley County",
    "latitude": 47.994475,
    "longitude": -106.488155,
    "accessName": "Fort Peck Marina",
    "riverName": "Missouri River - Fort Peck Lake",
    "type": "Public",
    "otherName": "North Fork Duck Creek-Missouri River"
  },
  {
    "department": "U.S. Geological Survey",
    "state": "Montana",
    "county": "Flathead County",
    "latitude": 48.421335,
    "longitude": -114.350609,
    "accessName": "Baypoint Drive",
    "riverName": "Whitefish Lake",
    "type": "Public",
    "otherName": "Whitefish Lake"
  },
  {
    "department": "U.S. Geological Survey",
    "state": "Montana",
    "county": "Judith Basin County",
    "latitude": 46.956501,
    "longitude": -109.942266,
    "accessName": "Ackley Lake State Park",
    "riverName": "Ackley Lake",
    "type": "Public",
    "otherName": "Hauck Coulee"
  },
  {
    "department": "U.S. Geological Survey",
    "state": "Montana",
    "county": "Lincoln County",
    "latitude": 48.031659,
    "longitude": -115.066276,
    "accessName": "Thompson Chain of Lakes State Park",
    "riverName": "Middle Thompson Lake",
    "type": "Public",
    "otherName": "Thompson Lakes-Thompson River"
  },
  {
    "department": "U.S. Geological Survey",
    "state": "Montana",
    "county": "Garfield County",
    "latitude": 47.618592,
    "longitude": -107.654459,
    "accessName": "Devils Creek State Recreation Area",
    "riverName": "Missouri River - Fort Peck Lake",
    "type": "Public",
    "otherName": "Deadman Coulee-Missouri River"
  },
  {
    "department": "U.S. Geological Survey",
    "state": "Montana",
    "county": "Phillips County",
    "latitude": 47.667935,
    "longitude": -107.670476,
    "accessName": "Fourchette Creek Recreation Are",
    "riverName": "Missouri River - Fort Peck Lake",
    "type": "Public",
    "otherName": "Lower Fourchette Creek"
  },
  {
    "department": "U.S. Geological Survey",
    "state": "Montana",
    "county": "Missoula County",
    "latitude": 47.118401,
    "longitude": -113.503403,
    "accessName": "Placid Lake State Park",
    "riverName": "Placid Lake",
    "type": "Public",
    "otherName": "Placid Lake"
  },
  {
    "department": "U.S. Geological Survey",
    "state": "Montana",
    "county": "Ravalli County",
    "latitude": 45.698044,
    "longitude": -114.287821,
    "accessName": "Painted Rocks State Park - Slate Creek",
    "riverName": "West Fork Bitterroot River - Painted Rocks Lake",
    "type": "Public",
    "otherName": "Painted Rocks Lake-West Fork Bitterroot River"
  },
  {
    "department": "U.S. Geological Survey",
    "state": "Montana",
    "county": "Sanders County",
    "latitude": 47.615936,
    "longitude": -115.389682,
    "accessName": "Thompson Falls State Recreation Area",
    "riverName": "Clark Fork River",
    "type": "Public",
    "otherName": "Sqaylth-kwum Creek-Noxon Reservoir"
  },
  {
    "department": "U.S. Geological Survey",
    "state": "Montana",
    "county": "Carbon County",
    "latitude": 45.439403,
    "longitude": -109.228933,
    "accessName": "Cooney Reservoir State Park - Red Lodge Creek",
    "riverName": "Cooney Reservoir",
    "type": "Public",
    "otherName": "Willow Creek"
  },
  {
    "department": "U.S. Geological Survey",
    "state": "Montana",
    "county": "Carbon County",
    "latitude": 45.445162,
    "longitude": -109.203468,
    "accessName": "Cooney Reservoir State Park - Lakeshore",
    "riverName": "Cooney Reservoir",
    "type": "Public",
    "otherName": "Lower Red Lodge Creek"
  },
  {
    "department": "U.S. Geological Survey",
    "state": "Montana",
    "county": "Carbon County",
    "latitude": 45.449604,
    "longitude": -109.211673,
    "accessName": "Cooney Reservoir State Park - Northshore",
    "riverName": "Cooney Reservoir",
    "type": "Public",
    "otherName": "Lower Red Lodge Creek"
  },
  {
    "department": "U.S. Geological Survey",
    "state": "Montana",
    "county": "Lake County",
    "latitude": 47.755374,
    "longitude": -114.084772,
    "accessName": "Flathead Lake State Park",
    "riverName": "Flathead Lake",
    "type": "Public",
    "otherName": "Town of Polson-Frontal Flathead Lake"
  },
  {
    "department": "U.S. Geological Survey",
    "state": "Montana",
    "county": "Lake County",
    "latitude": 47.948718,
    "longitude": -114.183756,
    "accessName": "Flathead Lake State Park-West Shore",
    "riverName": "Flathead Lake",
    "type": "Public",
    "otherName": "Big Lodge Creek-Frontal Flathead Lake"
  },
  {
    "department": "U.S. Geological Survey",
    "state": "Montana",
    "county": "Flathead County",
    "latitude": 48.053924,
    "longitude": -114.083546,
    "accessName": "Flathead Lake State Park-Wayfers",
    "riverName": "Flathead Lake",
    "type": "Public",
    "otherName": "Town of Woods Bay-Frontal Flathead Lake"
  },
  {
    "department": "U.S. Geological Survey",
    "state": "Montana",
    "county": "Lake County",
    "latitude": 47.875514,
    "longitude": -114.02884,
    "accessName": "Flathead Lake State Park-Yellow Bay",
    "riverName": "Flathead Lake",
    "type": "Public",
    "otherName": "Yellow Bay Creek-Frontal Flathead Lake"
  },
  {
    "department": "U.S. Geological Survey",
    "state": "Montana",
    "county": "Flathead County",
    "latitude": 48.272509,
    "longitude": -113.818319,
    "accessName": "Riverside Boating Site",
    "riverName": "Hungry Horse Reservoir",
    "type": "Public",
    "otherName": "Dudley Creek-Hungry Horse Reservoir"
  },
  {
    "department": "U.S. Geological Survey",
    "state": "Montana",
    "county": "Lincoln County",
    "latitude": 48.515364,
    "longitude": -115.288193,
    "accessName": "Barron Creek",
    "riverName": "Kootenai River - Lake Koocanusa",
    "type": "Public",
    "otherName": "Little Jackson Creek-Lake Koocanusa"
  },
  {
    "department": "U.S. Geological Survey",
    "state": "Montana",
    "county": "Lincoln County",
    "latitude": 48.414109,
    "longitude": -115.316978,
    "accessName": "Souse Gulch Recreation Area",
    "riverName": "Kootenai River - Lake Koocanusa",
    "type": "Public",
    "otherName": "Little Jackson Creek-Lake Koocanusa"
  },
  {
    "department": "U.S. Geological Survey",
    "state": "Montana",
    "county": "Flathead County",
    "latitude": 48.041806,
    "longitude": -114.867782,
    "accessName": "McGregor Lake State Park",
    "riverName": "McGregor Lake",
    "type": "Public",
    "otherName": "McGregor Creek"
  },
  {
    "department": "U.S. Geological Survey",
    "state": "Montana",
    "county": "Phillips County",
    "latitude": 48.495238,
    "longitude": -107.530538,
    "accessName": "Nelson State Recreation Area",
    "riverName": "Nelson Reservoir",
    "type": "Public",
    "otherName": "Nelson Reservoir"
  },
  {
    "department": "U.S. Geological Survey",
    "state": "Montana",
    "county": "Garfield County",
    "latitude": 47.750699,
    "longitude": -106.269024,
    "accessName": "Rock Creek State Park",
    "riverName": "Rock Creek - Fort Peck Lake",
    "type": "Public",
    "otherName": "South Fork Rock Creek"
  },
  {
    "department": "U.S. Geological Survey",
    "state": "Montana",
    "county": "Missoula County",
    "latitude": 47.086232,
    "longitude": -113.394155,
    "accessName": "Salmon Lake State Park",
    "riverName": "Salmon Lake",
    "type": "Public",
    "otherName": "Salmon Lake-Clearwater River"
  },
  {
    "department": "U.S. Geological Survey",
    "state": "Montana",
    "county": "Big Horn County",
    "latitude": 45.100469,
    "longitude": -106.790747,
    "accessName": "Tongue River Reservoir State Park",
    "riverName": "Tongue River - Tongue River Reservoir",
    "type": "Public",
    "otherName": "Monument Creek-Tongue River"
  },
  {
    "department": "U.S. Geological Survey",
    "state": "Montana",
    "county": "Flathead County",
    "latitude": 48.426315,
    "longitude": -114.373206,
    "accessName": "Whitefish Lake State Park",
    "riverName": "Whitefish Lake",
    "type": "Public",
    "otherName": "Whitefish Lake"
  },
  {
    "department": "U.S. Geological Survey",
    "state": "Montana",
    "county": "Flathead County",
    "latitude": 48.412184,
    "longitude": -114.345064,
    "accessName": "Roadhouse Landing",
    "riverName": "Whitefish River",
    "type": "Public",
    "otherName": "Whitefish River-Whitefish"
  },
  {
    "department": "U.S. Geological Survey",
    "state": "Montana",
    "county": "Wheatland County",
    "latitude": 46.330106,
    "longitude": -109.433031,
    "accessName": "Deadmans Basin Reservoir",
    "riverName": "Deadmans Basin Reservoir",
    "type": "Public",
    "otherName": "Deadmans Basin Reservoir-Musselshell River"
  },
  {
    "department": "U.S. Geological Survey",
    "state": "Montana",
    "county": "Flathead County",
    "latitude": 48.030769,
    "longitude": -114.899314,
    "accessName": "McGregor Lake",
    "riverName": "McGregor Lake",
    "type": "Public",
    "otherName": "McGregor Creek"
  },
  {
    "department": "U.S. Geological Survey",
    "state": "Montana",
    "county": "Petroleum County",
    "latitude": 47.430688,
    "longitude": -107.928939,
    "accessName": "Crooked Creek",
    "riverName": "Missouri River - Fort Peck Lake",
    "type": "Public",
    "otherName": "Crooked Creek-Fort Peck Reservoir"
  },
  {
    "department": "U.S. Geological Survey",
    "state": "Montana",
    "county": "McCone County",
    "latitude": 47.56805,
    "longitude": -106.234799,
    "accessName": "Nelson Creek",
    "riverName": "Missouri River - Fort Peck Lake",
    "type": "Public",
    "otherName": "Bridge Coulee-Dry Arm"
  },
  {
    "department": "U.S. Geological Survey",
    "state": "Montana",
    "county": "Valley County",
    "latitude": 48.015735,
    "longitude": -106.436405,
    "accessName": "Winter Harbor",
    "riverName": "Missouri River - Fort Peck Lake Dry Arm",
    "type": "Public",
    "otherName": "Fort Peck Dam-Missouri River"
  },
  {
    "department": "U.S. Geological Survey",
    "state": "Montana",
    "county": "Flathead County",
    "latitude": 48.213519,
    "longitude": -114.61654,
    "accessName": "Ashley Lake",
    "riverName": "Ashley Lake",
    "type": "Public",
    "otherName": "Ashley Lake"
  },
  {
    "department": "U.S. Geological Survey",
    "state": "Montana",
    "county": "Sanders County",
    "latitude": 47.84128,
    "longitude": -115.595914,
    "accessName": "Trout Creek",
    "riverName": "Clark Fork River",
    "type": "Public",
    "otherName": "Belgian Gulch-Noxon Reservoir"
  },
  {
    "department": "U.S. Geological Survey",
    "state": "Montana",
    "county": "Sanders County",
    "latitude": 47.592542,
    "longitude": -115.336429,
    "accessName": "Thompson Falls",
    "riverName": "Clark Fork River",
    "type": "Public",
    "otherName": "Ashley Creek-Clark Fork"
  },
  {
    "department": "U.S. Geological Survey",
    "state": "Montana",
    "county": "Sanders County",
    "latitude": 47.954312,
    "longitude": -115.739818,
    "accessName": "Dam Site",
    "riverName": "Clark Fork River - Noxon Reservoir",
    "type": "Public",
    "otherName": "Stevens Creek-Noxon Reservoir"
  },
  {
    "department": "U.S. Geological Survey",
    "state": "Montana",
    "county": "Sanders County",
    "latitude": 47.882001,
    "longitude": -115.745471,
    "accessName": "Marten Creek",
    "riverName": "Clark Fork River - Noxon Reservoir",
    "type": "Public",
    "otherName": "Marten Creek"
  },
  {
    "department": "U.S. Geological Survey",
    "state": "Montana",
    "county": "Lake County",
    "latitude": 47.901739,
    "longitude": -114.211801,
    "accessName": "Rollins Lakeshore Drive",
    "riverName": "Flathead Lake",
    "type": "Public",
    "otherName": "Big Lodge Creek-Frontal Flathead Lake"
  },
  {
    "department": "U.S. Geological Survey",
    "state": "Montana",
    "county": "Lake County",
    "latitude": 47.906184,
    "longitude": -114.181339,
    "accessName": "Park Lane",
    "riverName": "Flathead Lake",
    "type": "Public",
    "otherName": "Big Lodge Creek-Frontal Flathead Lake"
  },
  {
    "department": "U.S. Geological Survey",
    "state": "Montana",
    "county": "Flathead County",
    "latitude": 48.042408,
    "longitude": -114.222689,
    "accessName": "Lakeshore Drive",
    "riverName": "Flathead Lake",
    "type": "Public",
    "otherName": "Town of Somers-Flathead Lake"
  },
  {
    "department": "U.S. Geological Survey",
    "state": "Montana",
    "county": "Lake County",
    "latitude": 47.827402,
    "longitude": -114.030007,
    "accessName": "Blue Bay",
    "riverName": "Flathead Lake",
    "type": "Public",
    "otherName": "Yellow Bay Creek-Frontal Flathead Lake"
  },
  {
    "department": "U.S. Geological Survey",
    "state": "Montana",
    "county": "Lincoln County",
    "latitude": 48.65168,
    "longitude": -115.313,
    "accessName": "Rocky Gorge",
    "riverName": "Kootenai River",
    "type": "Public",
    "otherName": "Geibler Creek-Lake Koocanusa"
  },
  {
    "department": "U.S. Geological Survey",
    "state": "Montana",
    "county": "Lincoln County",
    "latitude": 48.381573,
    "longitude": -115.322061,
    "accessName": "Dunn Creek",
    "riverName": "Kootenai River - Lake Koocanusa",
    "type": "Public",
    "otherName": "Mitchell Creek-Kootenai River"
  },
  {
    "department": "U.S. Geological Survey",
    "state": "Montana",
    "county": "Lincoln County",
    "latitude": 48.372252,
    "longitude": -115.428398,
    "accessName": "Ripley",
    "riverName": "Kootenai River - Lake Koocanusa",
    "type": "Public",
    "otherName": "Mitchell Creek-Kootenai River"
  },
  {
    "department": "U.S. Geological Survey",
    "state": "Montana",
    "county": "Lincoln County",
    "latitude": 48.39762,
    "longitude": -115.550531,
    "accessName": "Riverfront Park - Libby",
    "riverName": "Kootenai River - Lake Koocanusa",
    "type": "Public",
    "otherName": "Cedar Creek-Kootenai River"
  },
  {
    "department": "U.S. Geological Survey",
    "state": "Montana",
    "county": "Lincoln County",
    "latitude": 48.470103,
    "longitude": -115.888741,
    "accessName": "Roosevelt Park - Troy",
    "riverName": "Kootenai River - Lake Koocanusa",
    "type": "Public",
    "otherName": "Brush Creek- Kootenai River"
  },
  {
    "department": "U.S. Geological Survey",
    "state": "Montana",
    "county": "Pondera County",
    "latitude": 48.297872,
    "longitude": -112.257655,
    "accessName": "Valier",
    "riverName": "Lake Frances",
    "type": "Public",
    "otherName": "Lake Frances"
  },
  {
    "department": "U.S. Geological Survey",
    "state": "Montana",
    "county": "Flathead County",
    "latitude": 48.092348,
    "longitude": -114.696811,
    "accessName": "Kelsey Cumming Park",
    "riverName": "Little Bitterroot Lake",
    "type": "Public",
    "otherName": "Little Bitterroot Lake"
  },
  {
    "department": "U.S. Geological Survey",
    "state": "Montana",
    "county": "Flathead County",
    "latitude": 48.135666,
    "longitude": -114.736137,
    "accessName": "Little Bitterroot Lake-Northwest",
    "riverName": "Little Bitterroot Lake",
    "type": "Public",
    "otherName": "Little Bitterroot Lake"
  },
  {
    "department": "U.S. Geological Survey",
    "state": "Montana",
    "county": "Gallatin County",
    "latitude": 44.733781,
    "longitude": -111.231023,
    "accessName": "Lonesomehurst",
    "riverName": "Madison River - Hebgen Lake",
    "type": "Public",
    "otherName": "Lower South Fork Madison River"
  },
  {
    "department": "U.S. Geological Survey",
    "state": "Montana",
    "county": "Glacier County",
    "latitude": 48.690842,
    "longitude": -113.524675,
    "accessName": "Rising Sun",
    "riverName": "Saint Mary Lake",
    "type": "Public",
    "otherName": "Saint Mary Lake-Saint Mary River"
  },
  {
    "department": "U.S. Geological Survey",
    "state": "Montana",
    "county": "Lake County",
    "latitude": 47.935302,
    "longitude": -113.854043,
    "accessName": "Swan Lake",
    "riverName": "Swan Lake",
    "type": "Public",
    "otherName": "Swan Lake"
  },
  {
    "department": "U.S. Geological Survey",
    "state": "Montana",
    "county": "Lake County",
    "latitude": 47.93454,
    "longitude": -113.858638,
    "accessName": "Geri Lane",
    "riverName": "Swan Lake",
    "type": "Public",
    "otherName": "Swan Lake"
  },
  {
    "department": "U.S. Army Corps of Engineers",
    "state": "Montana",
    "county": "Garfield County",
    "latitude": 47.6184037998,
    "longitude": -106.88399947,
    "accessName": "Hell Creek State Park Marina",
    "riverName": "Missouri River - Hell Creek Bay - Fort Peck Lake",
    "type": "Public",
    "otherName": "Lower Hell Creek"
  },
  {
    "department": "U.S. Army Corps of Engineers",
    "state": "Montana",
    "county": "Valley County",
    "latitude": 47.8330855873,
    "longitude": -106.6515774,
    "accessName": "The Pines",
    "riverName": "Missouri River - Fort Peck Lake",
    "type": "Public",
    "otherName": "Sixth Coulee"
  },
  {
    "department": "U.S. Army Corps of Engineers",
    "state": "Montana",
    "county": "Valley County",
    "latitude": 47.6747960031,
    "longitude": -107.247901947,
    "accessName": "Bone Trail",
    "riverName": "Missouri River - Fort Peck Lake",
    "type": "Public",
    "otherName": "Widow Coulee-Missouri River"
  },
  {
    "department": "U.S. Army Corps of Engineers",
    "state": "Montana",
    "county": "Fergus County",
    "latitude": 47.6240045022,
    "longitude": -108.677601621,
    "accessName": "James Kipp Park (Upper Missouri River Breaks National Monument)",
    "riverName": "Missouri River - Fort Peck Lake",
    "type": "Public",
    "otherName": "Knox Ridge-Missouri River"
  },
  {
    "department": "U.S. Army Corps of Engineers",
    "state": "Montana",
    "county": "McCone County",
    "latitude": 48.0142372057,
    "longitude": -106.361523794,
    "accessName": "Flat Lake",
    "riverName": "Missouri River - Fort Peck Lake",
    "type": "Public",
    "otherName": "Milk River Coulee-Missouri River"
  },
  {
    "department": "U.S. Army Corps of Engineers",
    "state": "Montana",
    "county": "Valley County",
    "latitude": 48.0239091113,
    "longitude": -106.443848041,
    "accessName": "Round House Point",
    "riverName": "Missouri River",
    "type": "Public",
    "otherName": "Fort Peck Dam-Missouri River"
  }
]